[{"category":"anti-social-behaviour","location_type":"Force","location":{"latitude":"51.592878","street":{"id":977735,"name":"On or near Papermill Place"},"longitude":"-0.037299"},"context":"","outcome_status":null,"persistent_id":"","id":98968634,"location_subtype":"","month":"2022-01"},{"category":"anti-social-behaviour","location_type":"Force","location":{"latitude":"51.593283","street":{"id":977728,"name":"On or near St Andrews Road"},"longitude":"-0.037325"},"context":"","outcome_status":null,"persistent_id":"","id":98968633,"location_subtype":"","month":"2022-01"},{"category":"anti-social-behaviour","location_type":"Force","location":{"latitude":"51.593283","street":{"id":977728,"name":"On or near St Andrews Road"},"longitude":"-0.037325"},"context":"","outcome_status":null,"persistent_id":"","id":98968632,"location_subtype":"","month":"2022-01"},{"category":"anti-social-behaviour","location_type":"Force","location":{"latitude":"51.595930","street":{"id":977922,"name":"On or near Gloucester Road"},"longitude":"-0.038091"},"context":"","outcome_status":null,"persistent_id":"","id":98968628,"location_subtype":"","month":"2022-01"},{"category":"anti-social-behaviour","location_type":"Force","location":{"latitude":"51.593652","street":{"id":977916,"name":"On or near Shakespeare Road"},"longitude":"-0.038435"},"context":"","outcome_status":null,"persistent_id":"","id":98968627,"location_subtype":"","month":"2022-01"},{"category":"anti-social-behaviour","location_type":"Force","location":{"latitude":"51.597720","street":{"id":981837,"name":"On or near Sports\/recreation Area"},"longitude":"-0.038086"},"context":"","outcome_status":null,"persistent_id":"","id":98968626,"location_subtype":"","month":"2022-01"},{"category":"anti-social-behaviour","location_type":"Force","location":{"latitude":"51.592803","street":{"id":977913,"name":"On or near Uplands Avenue"},"longitude":"-0.040334"},"context":"","outcome_status":null,"persistent_id":"","id":98968623,"location_subtype":"","month":"2022-01"},{"category":"anti-social-behaviour","location_type":"Force","location":{"latitude":"51.598000","street":{"id":981833,"name":"On or near Sutton Road"},"longitude":"-0.039807"},"context":"","outcome_status":null,"persistent_id":"","id":98968621,"location_subtype":"","month":"2022-01"},{"category":"anti-social-behaviour","location_type":"Force","location":{"latitude":"51.598000","street":{"id":981833,"name":"On or near Sutton Road"},"longitude":"-0.039807"},"context":"","outcome_status":null,"persistent_id":"","id":98968620,"location_subtype":"","month":"2022-01"},{"category":"anti-social-behaviour","location_type":"Force","location":{"latitude":"51.605667","street":{"id":982415,"name":"On or near Dryden Close"},"longitude":"0.105792"},"context":"","outcome_status":null,"persistent_id":"","id":98970295,"location_subtype":"","month":"2022-01"},{"category":"anti-social-behaviour","location_type":"Force","location":{"latitude":"51.607474","street":{"id":983147,"name":"On or near Kielder Close"},"longitude":"0.105803"},"context":"","outcome_status":null,"persistent_id":"","id":98970292,"location_subtype":"","month":"2022-01"},{"category":"anti-social-behaviour","location_type":"Force","location":{"latitude":"51.596331","street":{"id":982316,"name":"On or near Wyfields"},"longitude":"0.075096"},"context":"","outcome_status":null,"persistent_id":"","id":98969899,"location_subtype":"","month":"2022-01"},{"category":"anti-social-behaviour","location_type":"Force","location":{"latitude":"51.605648","street":{"id":981612,"name":"On or near Barkham Road"},"longitude":"-0.080867"},"context":"","outcome_status":null,"persistent_id":"","id":98980208,"location_subtype":"","month":"2022-01"},{"category":"anti-social-behaviour","location_type":"Force","location":{"latitude":"51.597436","street":{"id":982383,"name":"On or near Caernarvon Drive"},"longitude":"0.069530"},"context":"","outcome_status":null,"persistent_id":"","id":98969636,"location_subtype":"","month":"2022-01"},{"category":"anti-social-behaviour","location_type":"Force","location":{"latitude":"51.597311","street":{"id":982256,"name":"On or near Evette Mews"},"longitude":"0.064889"},"context":"","outcome_status":null,"persistent_id":"","id":98969557,"location_subtype":"","month":"2022-01"},{"category":"anti-social-behaviour","location_type":"Force","location":{"latitude":"51.592623","street":{"id":977442,"name":"On or near George Lane"},"longitude":"0.026374"},"context":"","outcome_status":null,"persistent_id":"","id":98969302,"location_subtype":"","month":"2022-01"},{"category":"anti-social-behaviour","location_type":"Force","location":{"latitude":"51.613173","street":{"id":983293,"name":"On or near Firs Walk"},"longitude":"0.023635"},"context":"","outcome_status":null,"persistent_id":"","id":98969291,"location_subtype":"","month":"2022-01"},{"category":"anti-social-behaviour","location_type":"Force","location":{"latitude":"51.607747","street":{"id":982109,"name":"On or near Sports\/recreation Area"},"longitude":"0.021227"},"context":"","outcome_status":null,"persistent_id":"","id":98969289,"location_subtype":"","month":"2022-01"},{"category":"anti-social-behaviour","location_type":"Force","location":{"latitude":"51.609310","street":{"id":983420,"name":"On or near Parking Area"},"longitude":"-0.000714"},"context":"","outcome_status":null,"persistent_id":"","id":98968949,"location_subtype":"","month":"2022-01"},{"category":"anti-social-behaviour","location_type":"Force","location":{"latitude":"51.596190","street":{"id":982047,"name":"On or near Fulbourne Road"},"longitude":"-0.006532"},"context":"","outcome_status":null,"persistent_id":"","id":98968910,"location_subtype":"","month":"2022-01"},{"category":"anti-social-behaviour","location_type":"Force","location":{"latitude":"51.598771","street":{"id":982007,"name":"On or near Roberts Road"},"longitude":"-0.014476"},"context":"","outcome_status":null,"persistent_id":"","id":98968837,"location_subtype":"","month":"2022-01"},{"category":"anti-social-behaviour","location_type":"Force","location":{"latitude":"51.590961","street":{"id":977860,"name":"On or near Bemsted Road"},"longitude":"-0.025976"},"context":"","outcome_status":null,"persistent_id":"","id":98968694,"location_subtype":"","month":"2022-01"},{"category":"anti-social-behaviour","location_type":"Force","location":{"latitude":"51.600222","street":{"id":981925,"name":"On or near Amber Avenue"},"longitude":"-0.033921"},"context":"","outcome_status":null,"persistent_id":"","id":98968647,"location_subtype":"","month":"2022-01"},{"category":"anti-social-behaviour","location_type":"Force","location":{"latitude":"51.670329","street":{"id":987475,"name":"On or near Smeaton Road"},"longitude":"-0.015296"},"context":"","outcome_status":null,"persistent_id":"","id":98978081,"location_subtype":"","month":"2022-01"},{"category":"anti-social-behaviour","location_type":"Force","location":{"latitude":"51.667352","street":{"id":987552,"name":"On or near Mapleton Crescent"},"longitude":"-0.046937"},"context":"","outcome_status":null,"persistent_id":"","id":98977601,"location_subtype":"","month":"2022-01"},{"category":"anti-social-behaviour","location_type":"Force","location":{"latitude":"51.616160","street":{"id":983515,"name":"On or near Rays Avenue"},"longitude":"-0.050840"},"context":"","outcome_status":null,"persistent_id":"","id":98977585,"location_subtype":"","month":"2022-01"},{"category":"anti-social-behaviour","location_type":"Force","location":{"latitude":"51.640516","street":{"id":985954,"name":"On or near Elmcroft Avenue"},"longitude":"-0.052152"},"context":"","outcome_status":null,"persistent_id":"","id":98977569,"location_subtype":"","month":"2022-01"},{"category":"anti-social-behaviour","location_type":"Force","location":{"latitude":"51.649975","street":{"id":987378,"name":"On or near Anglesey Road"},"longitude":"-0.051038"},"context":"","outcome_status":null,"persistent_id":"","id":98977553,"location_subtype":"","month":"2022-01"},{"category":"anti-social-behaviour","location_type":"Force","location":{"latitude":"51.613318","street":{"id":983638,"name":"On or near Upton Road"},"longitude":"-0.058386"},"context":"","outcome_status":null,"persistent_id":"","id":98977530,"location_subtype":"","month":"2022-01"},{"category":"anti-social-behaviour","location_type":"Force","location":{"latitude":"51.615392","street":{"id":983680,"name":"On or near Angel Close"},"longitude":"-0.065274"},"context":"","outcome_status":null,"persistent_id":"","id":98976659,"location_subtype":"","month":"2022-01"},{"category":"anti-social-behaviour","location_type":"Force","location":{"latitude":"51.634101","street":{"id":985463,"name":"On or near Ramscroft Close"},"longitude":"-0.078192"},"context":"","outcome_status":null,"persistent_id":"","id":98976579,"location_subtype":"","month":"2022-01"},{"category":"anti-social-behaviour","location_type":"Force","location":{"latitude":"51.618585","street":{"id":686376,"name":"On or near Walnut Way"},"longitude":"0.043969"},"context":"","outcome_status":null,"persistent_id":"","id":98454643,"location_subtype":"","month":"2022-01"},{"category":"anti-social-behaviour","location_type":"Force","location":{"latitude":"51.687868","street":{"id":689427,"name":"On or near Stanway Road"},"longitude":"0.031261"},"context":"","outcome_status":null,"persistent_id":"","id":98454528,"location_subtype":"","month":"2022-01"},{"category":"anti-social-behaviour","location_type":"Force","location":{"latitude":"51.691138","street":{"id":689490,"name":"On or near Hereward Close"},"longitude":"0.002166"},"context":"","outcome_status":null,"persistent_id":"","id":98454496,"location_subtype":"","month":"2022-01"},{"category":"anti-social-behaviour","location_type":"Force","location":{"latitude":"51.683835","street":{"id":689002,"name":"On or near Stoney Bridge Drive"},"longitude":"0.030473"},"context":"","outcome_status":null,"persistent_id":"","id":98454487,"location_subtype":"","month":"2022-01"},{"category":"anti-social-behaviour","location_type":"Force","location":{"latitude":"51.649568","street":{"id":688088,"name":"On or near Durnell Way"},"longitude":"0.070487"},"context":"","outcome_status":null,"persistent_id":"","id":98453758,"location_subtype":"","month":"2022-01"},{"category":"anti-social-behaviour","location_type":"Force","location":{"latitude":"51.686667","street":{"id":688928,"name":"On or near Cornmill"},"longitude":"-0.005178"},"context":"","outcome_status":null,"persistent_id":"","id":98453422,"location_subtype":"","month":"2022-01"},{"category":"anti-social-behaviour","location_type":"Force","location":{"latitude":"51.658326","street":{"id":688195,"name":"On or near Coles Green"},"longitude":"0.073055"},"context":"","outcome_status":null,"persistent_id":"","id":98453345,"location_subtype":"","month":"2022-01"},{"category":"anti-social-behaviour","location_type":"Force","location":{"latitude":"51.619572","street":{"id":686282,"name":"On or near All Saints Close"},"longitude":"0.114684"},"context":"","outcome_status":null,"persistent_id":"","id":98453164,"location_subtype":"","month":"2022-01"},{"category":"anti-social-behaviour","location_type":"Force","location":{"latitude":"51.658528","street":{"id":688061,"name":"On or near Stony Path"},"longitude":"0.063651"},"context":"","outcome_status":null,"persistent_id":"","id":98453125,"location_subtype":"","month":"2022-01"},{"category":"anti-social-behaviour","location_type":"Force","location":{"latitude":"51.621688","street":{"id":686546,"name":"On or near Gravel Close"},"longitude":"0.112038"},"context":"","outcome_status":null,"persistent_id":"","id":98453006,"location_subtype":"","month":"2022-01"},{"category":"anti-social-behaviour","location_type":"Force","location":{"latitude":"51.619030","street":{"id":686291,"name":"On or near Grove Lane"},"longitude":"0.104807"},"context":"","outcome_status":null,"persistent_id":"","id":98454002,"location_subtype":"","month":"2022-01"},{"category":"anti-social-behaviour","location_type":"Force","location":{"latitude":"51.632667","street":{"id":686519,"name":"On or near Blackmore Road"},"longitude":"0.051726"},"context":"","outcome_status":null,"persistent_id":"","id":98453909,"location_subtype":"","month":"2022-01"},{"category":"anti-social-behaviour","location_type":"Force","location":{"latitude":"51.640504","street":{"id":687934,"name":"On or near Alderton Way"},"longitude":"0.064799"},"context":"","outcome_status":null,"persistent_id":"","id":98453844,"location_subtype":"","month":"2022-01"},{"category":"anti-social-behaviour","location_type":"Force","location":{"latitude":"51.651367","street":{"id":688226,"name":"On or near Tree Close"},"longitude":"0.117349"},"context":"","outcome_status":null,"persistent_id":"","id":98453692,"location_subtype":"","month":"2022-01"},{"category":"anti-social-behaviour","location_type":"Force","location":{"latitude":"51.649568","street":{"id":688088,"name":"On or near Durnell Way"},"longitude":"0.070487"},"context":"","outcome_status":null,"persistent_id":"","id":98453602,"location_subtype":"","month":"2022-01"},{"category":"anti-social-behaviour","location_type":"Force","location":{"latitude":"51.687441","street":{"id":688953,"name":"On or near Hillhouse"},"longitude":"0.021086"},"context":"","outcome_status":null,"persistent_id":"","id":98453563,"location_subtype":"","month":"2022-01"},{"category":"anti-social-behaviour","location_type":"Force","location":{"latitude":"51.686688","street":{"id":688945,"name":"On or near Skarnings Court"},"longitude":"0.024611"},"context":"","outcome_status":null,"persistent_id":"","id":98453474,"location_subtype":"","month":"2022-01"},{"category":"anti-social-behaviour","location_type":"Force","location":{"latitude":"51.645517","street":{"id":687872,"name":"On or near Colson Road"},"longitude":"0.074769"},"context":"","outcome_status":null,"persistent_id":"","id":98453369,"location_subtype":"","month":"2022-01"},{"category":"anti-social-behaviour","location_type":"Force","location":{"latitude":"51.618585","street":{"id":686376,"name":"On or near Walnut Way"},"longitude":"0.043969"},"context":"","outcome_status":null,"persistent_id":"","id":98453365,"location_subtype":"","month":"2022-01"},{"category":"anti-social-behaviour","location_type":"Force","location":{"latitude":"51.645061","street":{"id":687919,"name":"On or near Conference\/exhibition Centre"},"longitude":"0.053139"},"context":"","outcome_status":null,"persistent_id":"","id":98453193,"location_subtype":"","month":"2022-01"},{"category":"anti-social-behaviour","location_type":"Force","location":{"latitude":"51.689185","street":{"id":689451,"name":"On or near Edward Court"},"longitude":"0.020599"},"context":"","outcome_status":null,"persistent_id":"","id":98453134,"location_subtype":"","month":"2022-01"},{"category":"anti-social-behaviour","location_type":"Force","location":{"latitude":"51.663367","street":{"id":688815,"name":"On or near Ripley View"},"longitude":"0.079879"},"context":"","outcome_status":null,"persistent_id":"","id":98453082,"location_subtype":"","month":"2022-01"},{"category":"anti-social-behaviour","location_type":"Force","location":{"latitude":"51.685082","street":{"id":791081,"name":"On or near Supermarket"},"longitude":"-0.032214"},"context":"","outcome_status":null,"persistent_id":"","id":98421605,"location_subtype":"","month":"2022-01"},{"category":"anti-social-behaviour","location_type":"Force","location":{"latitude":"51.685081","street":{"id":688922,"name":"On or near Mead Court"},"longitude":"-0.005494"},"context":"","outcome_status":null,"persistent_id":"","id":98454689,"location_subtype":"","month":"2022-01"},{"category":"anti-social-behaviour","location_type":"Force","location":{"latitude":"51.672794","street":{"id":688812,"name":"On or near Buxton Road"},"longitude":"0.100458"},"context":"","outcome_status":null,"persistent_id":"","id":98454677,"location_subtype":"","month":"2022-01"},{"category":"anti-social-behaviour","location_type":"Force","location":{"latitude":"51.618585","street":{"id":686376,"name":"On or near Walnut Way"},"longitude":"0.043969"},"context":"","outcome_status":null,"persistent_id":"","id":98454644,"location_subtype":"","month":"2022-01"},{"category":"anti-social-behaviour","location_type":"Force","location":{"latitude":"51.648969","street":{"id":688056,"name":"On or near Trap's Hill"},"longitude":"0.062061"},"context":"","outcome_status":null,"persistent_id":"","id":98454639,"location_subtype":"","month":"2022-01"},{"category":"anti-social-behaviour","location_type":"Force","location":{"latitude":"51.623905","street":{"id":686527,"name":"On or near King's Mews"},"longitude":"0.080544"},"context":"","outcome_status":null,"persistent_id":"","id":98454573,"location_subtype":"","month":"2022-01"},{"category":"anti-social-behaviour","location_type":"Force","location":{"latitude":"51.647128","street":{"id":687892,"name":"On or near Supermarket"},"longitude":"0.082836"},"context":"","outcome_status":null,"persistent_id":"","id":98454567,"location_subtype":"","month":"2022-01"},{"category":"anti-social-behaviour","location_type":"Force","location":{"latitude":"51.618585","street":{"id":686376,"name":"On or near Walnut Way"},"longitude":"0.043969"},"context":"","outcome_status":null,"persistent_id":"","id":98454504,"location_subtype":"","month":"2022-01"},{"category":"anti-social-behaviour","location_type":"Force","location":{"latitude":"51.647669","street":{"id":687916,"name":"On or near Clifton Road"},"longitude":"0.054196"},"context":"","outcome_status":null,"persistent_id":"","id":98454488,"location_subtype":"","month":"2022-01"},{"category":"anti-social-behaviour","location_type":"Force","location":{"latitude":"51.623905","street":{"id":686527,"name":"On or near King's Mews"},"longitude":"0.080544"},"context":"","outcome_status":null,"persistent_id":"","id":98454427,"location_subtype":"","month":"2022-01"},{"category":"anti-social-behaviour","location_type":"Force","location":{"latitude":"51.649568","street":{"id":688088,"name":"On or near Durnell Way"},"longitude":"0.070487"},"context":"","outcome_status":null,"persistent_id":"","id":98454425,"location_subtype":"","month":"2022-01"},{"category":"anti-social-behaviour","location_type":"Force","location":{"latitude":"51.641337","street":{"id":687862,"name":"On or near Marlescroft Way"},"longitude":"0.074693"},"context":"","outcome_status":null,"persistent_id":"","id":98454376,"location_subtype":"","month":"2022-01"},{"category":"anti-social-behaviour","location_type":"Force","location":{"latitude":"51.650666","street":{"id":688077,"name":"On or near King's Green"},"longitude":"0.058148"},"context":"","outcome_status":null,"persistent_id":"","id":98454375,"location_subtype":"","month":"2022-01"},{"category":"anti-social-behaviour","location_type":"Force","location":{"latitude":"51.685750","street":{"id":688881,"name":"On or near Fountain Place"},"longitude":"-0.003077"},"context":"","outcome_status":null,"persistent_id":"","id":98454366,"location_subtype":"","month":"2022-01"},{"category":"anti-social-behaviour","location_type":"Force","location":{"latitude":"51.686008","street":{"id":688875,"name":"On or near Paradise Road"},"longitude":"-0.003963"},"context":"","outcome_status":null,"persistent_id":"","id":98454362,"location_subtype":"","month":"2022-01"},{"category":"anti-social-behaviour","location_type":"Force","location":{"latitude":"51.649568","street":{"id":688088,"name":"On or near Durnell Way"},"longitude":"0.070487"},"context":"","outcome_status":null,"persistent_id":"","id":98454352,"location_subtype":"","month":"2022-01"},{"category":"anti-social-behaviour","location_type":"Force","location":{"latitude":"51.649568","street":{"id":688088,"name":"On or near Durnell Way"},"longitude":"0.070487"},"context":"","outcome_status":null,"persistent_id":"","id":98454333,"location_subtype":"","month":"2022-01"},{"category":"anti-social-behaviour","location_type":"Force","location":{"latitude":"51.652429","street":{"id":688041,"name":"On or near Earl's Path"},"longitude":"0.043670"},"context":"","outcome_status":null,"persistent_id":"","id":98454311,"location_subtype":"","month":"2022-01"},{"category":"anti-social-behaviour","location_type":"Force","location":{"latitude":"51.677243","street":{"id":688858,"name":"On or near Burrows Chase"},"longitude":"0.002247"},"context":"","outcome_status":null,"persistent_id":"","id":98454301,"location_subtype":"","month":"2022-01"},{"category":"anti-social-behaviour","location_type":"Force","location":{"latitude":"51.682569","street":{"id":677787,"name":"On or near Brooker Road"},"longitude":"-0.003188"},"context":"","outcome_status":null,"persistent_id":"","id":98454273,"location_subtype":"","month":"2022-01"},{"category":"anti-social-behaviour","location_type":"Force","location":{"latitude":"51.640504","street":{"id":687934,"name":"On or near Alderton Way"},"longitude":"0.064799"},"context":"","outcome_status":null,"persistent_id":"","id":98454249,"location_subtype":"","month":"2022-01"},{"category":"anti-social-behaviour","location_type":"Force","location":{"latitude":"51.644134","street":{"id":687894,"name":"On or near Lushes Road"},"longitude":"0.078247"},"context":"","outcome_status":null,"persistent_id":"","id":98454223,"location_subtype":"","month":"2022-01"},{"category":"anti-social-behaviour","location_type":"Force","location":{"latitude":"51.648592","street":{"id":688166,"name":"On or near Barrington Close"},"longitude":"0.082426"},"context":"","outcome_status":null,"persistent_id":"","id":98454212,"location_subtype":"","month":"2022-01"},{"category":"anti-social-behaviour","location_type":"Force","location":{"latitude":"51.686453","street":{"id":688926,"name":"On or near Greenyard"},"longitude":"-0.004753"},"context":"","outcome_status":null,"persistent_id":"","id":98454206,"location_subtype":"","month":"2022-01"},{"category":"anti-social-behaviour","location_type":"Force","location":{"latitude":"51.675960","street":{"id":688849,"name":"On or near Park\/open Space"},"longitude":"0.002090"},"context":"","outcome_status":null,"persistent_id":"","id":98454186,"location_subtype":"","month":"2022-01"},{"category":"anti-social-behaviour","location_type":"Force","location":{"latitude":"51.651271","street":{"id":688139,"name":"On or near Rochford Avenue"},"longitude":"0.083474"},"context":"","outcome_status":null,"persistent_id":"","id":98454152,"location_subtype":"","month":"2022-01"},{"category":"anti-social-behaviour","location_type":"Force","location":{"latitude":"51.625142","street":{"id":686462,"name":"On or near Chandos Close"},"longitude":"0.030929"},"context":"","outcome_status":null,"persistent_id":"","id":98454103,"location_subtype":"","month":"2022-01"},{"category":"anti-social-behaviour","location_type":"Force","location":{"latitude":"51.609073","street":{"id":686367,"name":"On or near Turpin's Lane"},"longitude":"0.063386"},"context":"","outcome_status":null,"persistent_id":"","id":98454086,"location_subtype":"","month":"2022-01"},{"category":"anti-social-behaviour","location_type":"Force","location":{"latitude":"51.687441","street":{"id":688953,"name":"On or near Hillhouse"},"longitude":"0.021086"},"context":"","outcome_status":null,"persistent_id":"","id":98454071,"location_subtype":"","month":"2022-01"},{"category":"anti-social-behaviour","location_type":"Force","location":{"latitude":"51.690985","street":{"id":689486,"name":"On or near Newteswell Drive"},"longitude":"0.007918"},"context":"","outcome_status":null,"persistent_id":"","id":98454069,"location_subtype":"","month":"2022-01"},{"category":"anti-social-behaviour","location_type":"Force","location":{"latitude":"51.607410","street":{"id":684955,"name":"On or near Copperfield"},"longitude":"0.088758"},"context":"","outcome_status":null,"persistent_id":"","id":98454066,"location_subtype":"","month":"2022-01"},{"category":"anti-social-behaviour","location_type":"Force","location":{"latitude":"51.680803","street":{"id":688973,"name":"On or near Gilsland"},"longitude":"0.010737"},"context":"","outcome_status":null,"persistent_id":"","id":98454063,"location_subtype":"","month":"2022-01"},{"category":"anti-social-behaviour","location_type":"Force","location":{"latitude":"51.683723","street":{"id":688868,"name":"On or near Audley Gardens"},"longitude":"-0.003861"},"context":"","outcome_status":null,"persistent_id":"","id":98454052,"location_subtype":"","month":"2022-01"},{"category":"anti-social-behaviour","location_type":"Force","location":{"latitude":"51.659189","street":{"id":688095,"name":"On or near Baldwin's Hill"},"longitude":"0.062322"},"context":"","outcome_status":null,"persistent_id":"","id":98454050,"location_subtype":"","month":"2022-01"},{"category":"anti-social-behaviour","location_type":"Force","location":{"latitude":"51.683790","street":{"id":688949,"name":"On or near Merlin Close"},"longitude":"0.025784"},"context":"","outcome_status":null,"persistent_id":"","id":98454008,"location_subtype":"","month":"2022-01"},{"category":"anti-social-behaviour","location_type":"Force","location":{"latitude":"51.623905","street":{"id":686527,"name":"On or near King's Mews"},"longitude":"0.080544"},"context":"","outcome_status":null,"persistent_id":"","id":98453977,"location_subtype":"","month":"2022-01"},{"category":"anti-social-behaviour","location_type":"Force","location":{"latitude":"51.687122","street":{"id":688917,"name":"On or near Winchester Close"},"longitude":"-0.007082"},"context":"","outcome_status":null,"persistent_id":"","id":98453964,"location_subtype":"","month":"2022-01"},{"category":"anti-social-behaviour","location_type":"Force","location":{"latitude":"51.659189","street":{"id":688095,"name":"On or near Baldwin's Hill"},"longitude":"0.062322"},"context":"","outcome_status":null,"persistent_id":"","id":98453948,"location_subtype":"","month":"2022-01"},{"category":"anti-social-behaviour","location_type":"Force","location":{"latitude":"51.674678","street":{"id":689026,"name":"On or near Morgan Crescent"},"longitude":"0.096133"},"context":"","outcome_status":null,"persistent_id":"","id":98453907,"location_subtype":"","month":"2022-01"},{"category":"anti-social-behaviour","location_type":"Force","location":{"latitude":"51.649747","street":{"id":688154,"name":"On or near Eversley Close"},"longitude":"0.086266"},"context":"","outcome_status":null,"persistent_id":"","id":98453885,"location_subtype":"","month":"2022-01"},{"category":"anti-social-behaviour","location_type":"Force","location":{"latitude":"51.607394","street":{"id":684957,"name":"On or near Supermarket"},"longitude":"0.086144"},"context":"","outcome_status":null,"persistent_id":"","id":98453875,"location_subtype":"","month":"2022-01"},{"category":"anti-social-behaviour","location_type":"Force","location":{"latitude":"51.649568","street":{"id":688088,"name":"On or near Durnell Way"},"longitude":"0.070487"},"context":"","outcome_status":null,"persistent_id":"","id":98453870,"location_subtype":"","month":"2022-01"},{"category":"anti-social-behaviour","location_type":"Force","location":{"latitude":"51.686129","street":{"id":791054,"name":"On or near Eleanor Way"},"longitude":"-0.021188"},"context":"","outcome_status":null,"persistent_id":"","id":98420023,"location_subtype":"","month":"2022-01"},{"category":"anti-social-behaviour","location_type":"Force","location":{"latitude":"51.686760","street":{"id":688884,"name":"On or near Supermarket"},"longitude":"-0.002165"},"context":"","outcome_status":null,"persistent_id":"","id":98453863,"location_subtype":"","month":"2022-01"},{"category":"anti-social-behaviour","location_type":"Force","location":{"latitude":"51.623252","street":{"id":677853,"name":"On or near Millers Close"},"longitude":"0.122021"},"context":"","outcome_status":null,"persistent_id":"","id":98453848,"location_subtype":"","month":"2022-01"},{"category":"anti-social-behaviour","location_type":"Force","location":{"latitude":"51.683657","street":{"id":791013,"name":"On or near Teresa Gardens"},"longitude":"-0.041621"},"context":"","outcome_status":null,"persistent_id":"","id":98420547,"location_subtype":"","month":"2022-01"},{"category":"anti-social-behaviour","location_type":"Force","location":{"latitude":"51.685082","street":{"id":791081,"name":"On or near Supermarket"},"longitude":"-0.032214"},"context":"","outcome_status":null,"persistent_id":"","id":98420816,"location_subtype":"","month":"2022-01"},{"category":"anti-social-behaviour","location_type":"Force","location":{"latitude":"51.658326","street":{"id":688195,"name":"On or near Coles Green"},"longitude":"0.073055"},"context":"","outcome_status":null,"persistent_id":"","id":98453809,"location_subtype":"","month":"2022-01"},{"category":"anti-social-behaviour","location_type":"Force","location":{"latitude":"51.652043","street":{"id":688039,"name":"On or near Parking Area"},"longitude":"0.034834"},"context":"","outcome_status":null,"persistent_id":"","id":98453795,"location_subtype":"","month":"2022-01"},{"category":"anti-social-behaviour","location_type":"Force","location":{"latitude":"51.646156","street":{"id":687940,"name":"On or near Spareleaze Hill"},"longitude":"0.062005"},"context":"","outcome_status":null,"persistent_id":"","id":98453769,"location_subtype":"","month":"2022-01"},{"category":"anti-social-behaviour","location_type":"Force","location":{"latitude":"51.687786","street":{"id":688919,"name":"On or near Romeland"},"longitude":"-0.004840"},"context":"","outcome_status":null,"persistent_id":"","id":98453759,"location_subtype":"","month":"2022-01"},{"category":"anti-social-behaviour","location_type":"Force","location":{"latitude":"51.619572","street":{"id":686282,"name":"On or near All Saints Close"},"longitude":"0.114684"},"context":"","outcome_status":null,"persistent_id":"","id":98453743,"location_subtype":"","month":"2022-01"},{"category":"anti-social-behaviour","location_type":"Force","location":{"latitude":"51.623155","street":{"id":985863,"name":"On or near Knighton Lane"},"longitude":"0.030912"},"context":"","outcome_status":null,"persistent_id":"","id":98453696,"location_subtype":"","month":"2022-01"},{"category":"anti-social-behaviour","location_type":"Force","location":{"latitude":"51.636748","street":{"id":688014,"name":"On or near Avenue Gate"},"longitude":"0.041491"},"context":"","outcome_status":null,"persistent_id":"","id":98453695,"location_subtype":"","month":"2022-01"},{"category":"anti-social-behaviour","location_type":"Force","location":{"latitude":"51.690065","street":{"id":689444,"name":"On or near Poplar Shaw"},"longitude":"0.022273"},"context":"","outcome_status":null,"persistent_id":"","id":98453688,"location_subtype":"","month":"2022-01"},{"category":"anti-social-behaviour","location_type":"Force","location":{"latitude":"51.685341","street":{"id":688905,"name":"On or near Supermarket"},"longitude":"0.001939"},"context":"","outcome_status":null,"persistent_id":"","id":98453675,"location_subtype":"","month":"2022-01"},{"category":"anti-social-behaviour","location_type":"Force","location":{"latitude":"51.661818","street":{"id":688842,"name":"On or near Mott Street"},"longitude":"0.016620"},"context":"","outcome_status":null,"persistent_id":"","id":98453647,"location_subtype":"","month":"2022-01"},{"category":"anti-social-behaviour","location_type":"Force","location":{"latitude":"51.675665","street":{"id":689010,"name":"On or near Nightclub"},"longitude":"0.062261"},"context":"","outcome_status":null,"persistent_id":"","id":98453631,"location_subtype":"","month":"2022-01"},{"category":"anti-social-behaviour","location_type":"Force","location":{"latitude":"51.690854","street":{"id":678684,"name":"On or near Paternoster Hill"},"longitude":"0.019805"},"context":"","outcome_status":null,"persistent_id":"","id":98453599,"location_subtype":"","month":"2022-01"},{"category":"anti-social-behaviour","location_type":"Force","location":{"latitude":"51.686706","street":{"id":688925,"name":"On or near Grove Court"},"longitude":"-0.008518"},"context":"","outcome_status":null,"persistent_id":"","id":98453592,"location_subtype":"","month":"2022-01"},{"category":"anti-social-behaviour","location_type":"Force","location":{"latitude":"51.625867","street":{"id":686433,"name":"On or near Andrews Close"},"longitude":"0.040453"},"context":"","outcome_status":null,"persistent_id":"","id":98453588,"location_subtype":"","month":"2022-01"},{"category":"anti-social-behaviour","location_type":"Force","location":{"latitude":"51.687441","street":{"id":688953,"name":"On or near Hillhouse"},"longitude":"0.021086"},"context":"","outcome_status":null,"persistent_id":"","id":98453541,"location_subtype":"","month":"2022-01"},{"category":"anti-social-behaviour","location_type":"Force","location":{"latitude":"51.643100","street":{"id":687893,"name":"On or near Oakwood Hill Industrial Estate"},"longitude":"0.078720"},"context":"","outcome_status":null,"persistent_id":"","id":98453531,"location_subtype":"","month":"2022-01"},{"category":"anti-social-behaviour","location_type":"Force","location":{"latitude":"51.648475","street":{"id":688172,"name":"On or near The Campus"},"longitude":"0.073776"},"context":"","outcome_status":null,"persistent_id":"","id":98453525,"location_subtype":"","month":"2022-01"},{"category":"anti-social-behaviour","location_type":"Force","location":{"latitude":"51.683376","street":{"id":688952,"name":"On or near Honey Lane"},"longitude":"0.018503"},"context":"","outcome_status":null,"persistent_id":"","id":98453499,"location_subtype":"","month":"2022-01"},{"category":"anti-social-behaviour","location_type":"Force","location":{"latitude":"51.659189","street":{"id":688095,"name":"On or near Baldwin's Hill"},"longitude":"0.062322"},"context":"","outcome_status":null,"persistent_id":"","id":98453475,"location_subtype":"","month":"2022-01"},{"category":"anti-social-behaviour","location_type":"Force","location":{"latitude":"51.686528","street":{"id":688958,"name":"On or near Woodford Court"},"longitude":"0.029711"},"context":"","outcome_status":null,"persistent_id":"","id":98453438,"location_subtype":"","month":"2022-01"},{"category":"anti-social-behaviour","location_type":"Force","location":{"latitude":"51.618585","street":{"id":686376,"name":"On or near Walnut Way"},"longitude":"0.043969"},"context":"","outcome_status":null,"persistent_id":"","id":98453437,"location_subtype":"","month":"2022-01"},{"category":"anti-social-behaviour","location_type":"Force","location":{"latitude":"51.682352","street":{"id":688935,"name":"On or near The Birches"},"longitude":"0.022638"},"context":"","outcome_status":null,"persistent_id":"","id":98453423,"location_subtype":"","month":"2022-01"},{"category":"anti-social-behaviour","location_type":"Force","location":{"latitude":"51.669083","street":{"id":688810,"name":"On or near Pakes Way"},"longitude":"0.100300"},"context":"","outcome_status":null,"persistent_id":"","id":98453391,"location_subtype":"","month":"2022-01"},{"category":"anti-social-behaviour","location_type":"Force","location":{"latitude":"51.644087","street":{"id":688025,"name":"On or near Farm End"},"longitude":"0.009112"},"context":"","outcome_status":null,"persistent_id":"","id":98453383,"location_subtype":"","month":"2022-01"},{"category":"anti-social-behaviour","location_type":"Force","location":{"latitude":"51.640069","street":{"id":687868,"name":"On or near Highwood Lane"},"longitude":"0.072179"},"context":"","outcome_status":null,"persistent_id":"","id":98453376,"location_subtype":"","month":"2022-01"},{"category":"anti-social-behaviour","location_type":"Force","location":{"latitude":"51.684479","street":{"id":688981,"name":"On or near Ruskin Avenue"},"longitude":"0.012925"},"context":"","outcome_status":null,"persistent_id":"","id":98453373,"location_subtype":"","month":"2022-01"},{"category":"anti-social-behaviour","location_type":"Force","location":{"latitude":"51.623905","street":{"id":686527,"name":"On or near King's Mews"},"longitude":"0.080544"},"context":"","outcome_status":null,"persistent_id":"","id":98453361,"location_subtype":"","month":"2022-01"},{"category":"anti-social-behaviour","location_type":"Force","location":{"latitude":"51.654338","street":{"id":688131,"name":"On or near Willingale Close"},"longitude":"0.087026"},"context":"","outcome_status":null,"persistent_id":"","id":98453303,"location_subtype":"","month":"2022-01"},{"category":"anti-social-behaviour","location_type":"Force","location":{"latitude":"51.687786","street":{"id":688919,"name":"On or near Romeland"},"longitude":"-0.004840"},"context":"","outcome_status":null,"persistent_id":"","id":98453100,"location_subtype":"","month":"2022-01"},{"category":"anti-social-behaviour","location_type":"Force","location":{"latitude":"51.621955","street":{"id":686520,"name":"On or near Hornbeam Close"},"longitude":"0.049293"},"context":"","outcome_status":null,"persistent_id":"","id":98453071,"location_subtype":"","month":"2022-01"},{"category":"anti-social-behaviour","location_type":"Force","location":{"latitude":"51.660232","street":{"id":688149,"name":"On or near Hereward Green"},"longitude":"0.083740"},"context":"","outcome_status":null,"persistent_id":"","id":98453044,"location_subtype":"","month":"2022-01"},{"category":"anti-social-behaviour","location_type":"Force","location":{"latitude":"51.682581","street":{"id":688933,"name":"On or near Horseshoe Close"},"longitude":"0.029158"},"context":"","outcome_status":null,"persistent_id":"","id":98452987,"location_subtype":"","month":"2022-01"},{"category":"anti-social-behaviour","location_type":"Force","location":{"latitude":"51.687297","street":{"id":688870,"name":"On or near Parking Area"},"longitude":"-0.001476"},"context":"","outcome_status":null,"persistent_id":"","id":98453124,"location_subtype":"","month":"2022-01"},{"category":"anti-social-behaviour","location_type":"Force","location":{"latitude":"51.648808","street":{"id":688063,"name":"On or near St Nicholas Place"},"longitude":"0.069195"},"context":"","outcome_status":null,"persistent_id":"","id":98453094,"location_subtype":"","month":"2022-01"},{"category":"anti-social-behaviour","location_type":"Force","location":{"latitude":"51.645661","street":{"id":687921,"name":"On or near Parking Area"},"longitude":"0.052255"},"context":"","outcome_status":null,"persistent_id":"","id":98453067,"location_subtype":"","month":"2022-01"},{"category":"anti-social-behaviour","location_type":"Force","location":{"latitude":"51.685766","street":{"id":688889,"name":"On or near Rue De St Lawrence"},"longitude":"0.000786"},"context":"","outcome_status":null,"persistent_id":"","id":98452945,"location_subtype":"","month":"2022-01"},{"category":"anti-social-behaviour","location_type":"Force","location":{"latitude":"51.670373","street":{"id":987499,"name":"On or near Fisher Close"},"longitude":"-0.013154"},"context":"","outcome_status":null,"persistent_id":"","id":98978084,"location_subtype":"","month":"2022-01"},{"category":"anti-social-behaviour","location_type":"Force","location":{"latitude":"51.671379","street":{"id":987506,"name":"On or near Barrass Close"},"longitude":"-0.013587"},"context":"","outcome_status":null,"persistent_id":"","id":98978083,"location_subtype":"","month":"2022-01"},{"category":"anti-social-behaviour","location_type":"Force","location":{"latitude":"51.670441","street":{"id":987503,"name":"On or near Colgate Place"},"longitude":"-0.013947"},"context":"","outcome_status":null,"persistent_id":"","id":98978082,"location_subtype":"","month":"2022-01"},{"category":"anti-social-behaviour","location_type":"Force","location":{"latitude":"51.673487","street":{"id":987490,"name":"On or near Kinetic Crescent"},"longitude":"-0.023417"},"context":"","outcome_status":null,"persistent_id":"","id":98978080,"location_subtype":"","month":"2022-01"},{"category":"anti-social-behaviour","location_type":"Force","location":{"latitude":"51.673487","street":{"id":987490,"name":"On or near Kinetic Crescent"},"longitude":"-0.023417"},"context":"","outcome_status":null,"persistent_id":"","id":98978079,"location_subtype":"","month":"2022-01"},{"category":"anti-social-behaviour","location_type":"Force","location":{"latitude":"51.650183","street":{"id":987384,"name":"On or near Jeffreys Road"},"longitude":"-0.026339"},"context":"","outcome_status":null,"persistent_id":"","id":98978078,"location_subtype":"","month":"2022-01"},{"category":"anti-social-behaviour","location_type":"Force","location":{"latitude":"51.654722","street":{"id":923652,"name":"On or near Stockingswater Lane"},"longitude":"-0.026763"},"context":"","outcome_status":null,"persistent_id":"","id":98978077,"location_subtype":"","month":"2022-01"},{"category":"anti-social-behaviour","location_type":"Force","location":{"latitude":"51.669407","street":{"id":987432,"name":"On or near Newbury Avenue"},"longitude":"-0.026790"},"context":"","outcome_status":null,"persistent_id":"","id":98978076,"location_subtype":"","month":"2022-01"},{"category":"anti-social-behaviour","location_type":"Force","location":{"latitude":"51.667068","street":{"id":987426,"name":"On or near Lytton Avenue"},"longitude":"-0.028295"},"context":"","outcome_status":null,"persistent_id":"","id":98978075,"location_subtype":"","month":"2022-01"},{"category":"anti-social-behaviour","location_type":"Force","location":{"latitude":"51.667068","street":{"id":987426,"name":"On or near Lytton Avenue"},"longitude":"-0.028295"},"context":"","outcome_status":null,"persistent_id":"","id":98978074,"location_subtype":"","month":"2022-01"},{"category":"anti-social-behaviour","location_type":"Force","location":{"latitude":"51.668855","street":{"id":987431,"name":"On or near Preston Gardens"},"longitude":"-0.027610"},"context":"","outcome_status":null,"persistent_id":"","id":98978073,"location_subtype":"","month":"2022-01"},{"category":"anti-social-behaviour","location_type":"Force","location":{"latitude":"51.644264","street":{"id":985914,"name":"On or near Pedestrian Subway"},"longitude":"-0.033187"},"context":"","outcome_status":null,"persistent_id":"","id":98978072,"location_subtype":"","month":"2022-01"},{"category":"anti-social-behaviour","location_type":"Force","location":{"latitude":"51.649616","street":{"id":987410,"name":"On or near Shopping Area"},"longitude":"-0.028966"},"context":"","outcome_status":null,"persistent_id":"","id":98978071,"location_subtype":"","month":"2022-01"},{"category":"anti-social-behaviour","location_type":"Force","location":{"latitude":"51.676446","street":{"id":987849,"name":"On or near Park Road"},"longitude":"-0.028813"},"context":"","outcome_status":null,"persistent_id":"","id":98978070,"location_subtype":"","month":"2022-01"},{"category":"anti-social-behaviour","location_type":"Force","location":{"latitude":"51.676446","street":{"id":987849,"name":"On or near Park Road"},"longitude":"-0.028813"},"context":"","outcome_status":null,"persistent_id":"","id":98978069,"location_subtype":"","month":"2022-01"},{"category":"anti-social-behaviour","location_type":"Force","location":{"latitude":"51.655189","street":{"id":987397,"name":"On or near Jute Lane"},"longitude":"-0.029909"},"context":"","outcome_status":null,"persistent_id":"","id":98978068,"location_subtype":"","month":"2022-01"},{"category":"anti-social-behaviour","location_type":"Force","location":{"latitude":"51.647458","street":{"id":985919,"name":"On or near Mollison Avenue"},"longitude":"-0.030620"},"context":"","outcome_status":null,"persistent_id":"","id":98978066,"location_subtype":"","month":"2022-01"},{"category":"anti-social-behaviour","location_type":"Force","location":{"latitude":"51.671322","street":{"id":987434,"name":"On or near Pedestrian Subway"},"longitude":"-0.028327"},"context":"","outcome_status":null,"persistent_id":"","id":98978065,"location_subtype":"","month":"2022-01"},{"category":"anti-social-behaviour","location_type":"Force","location":{"latitude":"51.678048","street":{"id":987846,"name":"On or near Vian Avenue"},"longitude":"-0.029380"},"context":"","outcome_status":null,"persistent_id":"","id":98978064,"location_subtype":"","month":"2022-01"},{"category":"anti-social-behaviour","location_type":"Force","location":{"latitude":"51.671322","street":{"id":987434,"name":"On or near Pedestrian Subway"},"longitude":"-0.028327"},"context":"","outcome_status":null,"persistent_id":"","id":98978063,"location_subtype":"","month":"2022-01"},{"category":"anti-social-behaviour","location_type":"Force","location":{"latitude":"51.644264","street":{"id":985914,"name":"On or near Pedestrian Subway"},"longitude":"-0.033187"},"context":"","outcome_status":null,"persistent_id":"","id":98978062,"location_subtype":"","month":"2022-01"},{"category":"anti-social-behaviour","location_type":"Force","location":{"latitude":"51.656535","street":{"id":987394,"name":"On or near Osborne Road"},"longitude":"-0.033494"},"context":"","outcome_status":null,"persistent_id":"","id":98978061,"location_subtype":"","month":"2022-01"},{"category":"anti-social-behaviour","location_type":"Force","location":{"latitude":"51.669181","street":{"id":987606,"name":"On or near Beaconsfield Road"},"longitude":"-0.034711"},"context":"","outcome_status":null,"persistent_id":"","id":98978060,"location_subtype":"","month":"2022-01"},{"category":"anti-social-behaviour","location_type":"Force","location":{"latitude":"51.669181","street":{"id":987606,"name":"On or near Beaconsfield Road"},"longitude":"-0.034711"},"context":"","outcome_status":null,"persistent_id":"","id":98978059,"location_subtype":"","month":"2022-01"},{"category":"anti-social-behaviour","location_type":"Force","location":{"latitude":"51.671892","street":{"id":987440,"name":"On or near Newport Close"},"longitude":"-0.033379"},"context":"","outcome_status":null,"persistent_id":"","id":98978058,"location_subtype":"","month":"2022-01"},{"category":"anti-social-behaviour","location_type":"Force","location":{"latitude":"51.677331","street":{"id":987854,"name":"On or near Ferns Close"},"longitude":"-0.033302"},"context":"","outcome_status":null,"persistent_id":"","id":98978057,"location_subtype":"","month":"2022-01"},{"category":"anti-social-behaviour","location_type":"Force","location":{"latitude":"51.655886","street":{"id":987313,"name":"On or near Goldsdown Road"},"longitude":"-0.035011"},"context":"","outcome_status":null,"persistent_id":"","id":98978055,"location_subtype":"","month":"2022-01"},{"category":"anti-social-behaviour","location_type":"Force","location":{"latitude":"51.655886","street":{"id":987313,"name":"On or near Goldsdown Road"},"longitude":"-0.035011"},"context":"","outcome_status":null,"persistent_id":"","id":98978054,"location_subtype":"","month":"2022-01"},{"category":"anti-social-behaviour","location_type":"Force","location":{"latitude":"51.670344","street":{"id":987580,"name":"On or near Uckfield Road"},"longitude":"-0.034935"},"context":"","outcome_status":null,"persistent_id":"","id":98978053,"location_subtype":"","month":"2022-01"},{"category":"anti-social-behaviour","location_type":"Force","location":{"latitude":"51.669181","street":{"id":987606,"name":"On or near Beaconsfield Road"},"longitude":"-0.034711"},"context":"","outcome_status":null,"persistent_id":"","id":98978052,"location_subtype":"","month":"2022-01"},{"category":"anti-social-behaviour","location_type":"Force","location":{"latitude":"51.675741","street":{"id":987845,"name":"On or near Archibald Close"},"longitude":"-0.035541"},"context":"","outcome_status":null,"persistent_id":"","id":98978051,"location_subtype":"","month":"2022-01"},{"category":"anti-social-behaviour","location_type":"Force","location":{"latitude":"51.675741","street":{"id":987845,"name":"On or near Archibald Close"},"longitude":"-0.035541"},"context":"","outcome_status":null,"persistent_id":"","id":98978050,"location_subtype":"","month":"2022-01"},{"category":"anti-social-behaviour","location_type":"Force","location":{"latitude":"51.675814","street":{"id":987844,"name":"On or near Holmwood Road"},"longitude":"-0.036174"},"context":"","outcome_status":null,"persistent_id":"","id":98978048,"location_subtype":"","month":"2022-01"},{"category":"anti-social-behaviour","location_type":"Force","location":{"latitude":"51.648737","street":{"id":985987,"name":"On or near Rossmore Close"},"longitude":"-0.037156"},"context":"","outcome_status":null,"persistent_id":"","id":98978047,"location_subtype":"","month":"2022-01"},{"category":"anti-social-behaviour","location_type":"Force","location":{"latitude":"51.648737","street":{"id":985987,"name":"On or near Rossmore Close"},"longitude":"-0.037156"},"context":"","outcome_status":null,"persistent_id":"","id":98978046,"location_subtype":"","month":"2022-01"},{"category":"anti-social-behaviour","location_type":"Force","location":{"latitude":"51.648737","street":{"id":985987,"name":"On or near Rossmore Close"},"longitude":"-0.037156"},"context":"","outcome_status":null,"persistent_id":"","id":98978045,"location_subtype":"","month":"2022-01"},{"category":"anti-social-behaviour","location_type":"Force","location":{"latitude":"51.648737","street":{"id":985987,"name":"On or near Rossmore Close"},"longitude":"-0.037156"},"context":"","outcome_status":null,"persistent_id":"","id":98978044,"location_subtype":"","month":"2022-01"},{"category":"anti-social-behaviour","location_type":"Force","location":{"latitude":"51.643664","street":{"id":986038,"name":"On or near Napier Road"},"longitude":"-0.037130"},"context":"","outcome_status":null,"persistent_id":"","id":98978043,"location_subtype":"","month":"2022-01"},{"category":"anti-social-behaviour","location_type":"Force","location":{"latitude":"51.643664","street":{"id":986038,"name":"On or near Napier Road"},"longitude":"-0.037130"},"context":"","outcome_status":null,"persistent_id":"","id":98978042,"location_subtype":"","month":"2022-01"},{"category":"anti-social-behaviour","location_type":"Force","location":{"latitude":"51.628041","street":{"id":985527,"name":"On or near Pickett's Lock Lane"},"longitude":"-0.038006"},"context":"","outcome_status":null,"persistent_id":"","id":98978041,"location_subtype":"","month":"2022-01"},{"category":"anti-social-behaviour","location_type":"Force","location":{"latitude":"51.628041","street":{"id":985527,"name":"On or near Pickett's Lock Lane"},"longitude":"-0.038006"},"context":"","outcome_status":null,"persistent_id":"","id":98978040,"location_subtype":"","month":"2022-01"},{"category":"anti-social-behaviour","location_type":"Force","location":{"latitude":"51.643664","street":{"id":986038,"name":"On or near Napier Road"},"longitude":"-0.037130"},"context":"","outcome_status":null,"persistent_id":"","id":98978039,"location_subtype":"","month":"2022-01"},{"category":"anti-social-behaviour","location_type":"Force","location":{"latitude":"51.643664","street":{"id":986038,"name":"On or near Napier Road"},"longitude":"-0.037130"},"context":"","outcome_status":null,"persistent_id":"","id":98978038,"location_subtype":"","month":"2022-01"},{"category":"anti-social-behaviour","location_type":"Force","location":{"latitude":"51.643664","street":{"id":986038,"name":"On or near Napier Road"},"longitude":"-0.037130"},"context":"","outcome_status":null,"persistent_id":"","id":98978037,"location_subtype":"","month":"2022-01"},{"category":"anti-social-behaviour","location_type":"Force","location":{"latitude":"51.679141","street":{"id":987812,"name":"On or near Broadoak Avenue"},"longitude":"-0.037202"},"context":"","outcome_status":null,"persistent_id":"","id":98978036,"location_subtype":"","month":"2022-01"},{"category":"anti-social-behaviour","location_type":"Force","location":{"latitude":"51.668843","street":{"id":987610,"name":"On or near Albany Road"},"longitude":"-0.038731"},"context":"","outcome_status":null,"persistent_id":"","id":98978035,"location_subtype":"","month":"2022-01"},{"category":"anti-social-behaviour","location_type":"Force","location":{"latitude":"51.651696","street":{"id":987316,"name":"On or near Exeter Road"},"longitude":"-0.038792"},"context":"","outcome_status":null,"persistent_id":"","id":98978034,"location_subtype":"","month":"2022-01"},{"category":"anti-social-behaviour","location_type":"Force","location":{"latitude":"51.651696","street":{"id":987316,"name":"On or near Exeter Road"},"longitude":"-0.038792"},"context":"","outcome_status":null,"persistent_id":"","id":98978033,"location_subtype":"","month":"2022-01"},{"category":"anti-social-behaviour","location_type":"Force","location":{"latitude":"51.660615","street":{"id":987302,"name":"On or near Logan Close"},"longitude":"-0.038725"},"context":"","outcome_status":null,"persistent_id":"","id":98978032,"location_subtype":"","month":"2022-01"},{"category":"anti-social-behaviour","location_type":"Force","location":{"latitude":"51.657575","street":{"id":987288,"name":"On or near Vista Avenue"},"longitude":"-0.039218"},"context":"","outcome_status":null,"persistent_id":"","id":98978031,"location_subtype":"","month":"2022-01"},{"category":"anti-social-behaviour","location_type":"Force","location":{"latitude":"51.633306","street":{"id":985519,"name":"On or near Warren Close"},"longitude":"-0.041479"},"context":"","outcome_status":null,"persistent_id":"","id":98978030,"location_subtype":"","month":"2022-01"},{"category":"anti-social-behaviour","location_type":"Force","location":{"latitude":"51.670565","street":{"id":987589,"name":"On or near Kettering Road"},"longitude":"-0.038454"},"context":"","outcome_status":null,"persistent_id":"","id":98978029,"location_subtype":"","month":"2022-01"},{"category":"anti-social-behaviour","location_type":"Force","location":{"latitude":"51.670565","street":{"id":987589,"name":"On or near Kettering Road"},"longitude":"-0.038454"},"context":"","outcome_status":null,"persistent_id":"","id":98978028,"location_subtype":"","month":"2022-01"},{"category":"anti-social-behaviour","location_type":"Force","location":{"latitude":"51.644669","street":{"id":985997,"name":"On or near Keats Close"},"longitude":"-0.040194"},"context":"","outcome_status":null,"persistent_id":"","id":98978027,"location_subtype":"","month":"2022-01"},{"category":"anti-social-behaviour","location_type":"Force","location":{"latitude":"51.643105","street":{"id":985991,"name":"On or near Naylor Grove"},"longitude":"-0.040218"},"context":"","outcome_status":null,"persistent_id":"","id":98978026,"location_subtype":"","month":"2022-01"},{"category":"anti-social-behaviour","location_type":"Force","location":{"latitude":"51.643105","street":{"id":985991,"name":"On or near Naylor Grove"},"longitude":"-0.040218"},"context":"","outcome_status":null,"persistent_id":"","id":98978025,"location_subtype":"","month":"2022-01"},{"category":"anti-social-behaviour","location_type":"Force","location":{"latitude":"51.643105","street":{"id":985991,"name":"On or near Naylor Grove"},"longitude":"-0.040218"},"context":"","outcome_status":null,"persistent_id":"","id":98978024,"location_subtype":"","month":"2022-01"},{"category":"anti-social-behaviour","location_type":"Force","location":{"latitude":"51.643105","street":{"id":985991,"name":"On or near Naylor Grove"},"longitude":"-0.040218"},"context":"","outcome_status":null,"persistent_id":"","id":98978023,"location_subtype":"","month":"2022-01"},{"category":"anti-social-behaviour","location_type":"Force","location":{"latitude":"51.648448","street":{"id":986011,"name":"On or near Durants Road"},"longitude":"-0.040320"},"context":"","outcome_status":null,"persistent_id":"","id":98978022,"location_subtype":"","month":"2022-01"},{"category":"anti-social-behaviour","location_type":"Force","location":{"latitude":"51.661535","street":{"id":987293,"name":"On or near Shaw Road"},"longitude":"-0.040001"},"context":"","outcome_status":null,"persistent_id":"","id":98978021,"location_subtype":"","month":"2022-01"},{"category":"anti-social-behaviour","location_type":"Force","location":{"latitude":"51.661535","street":{"id":987293,"name":"On or near Shaw Road"},"longitude":"-0.040001"},"context":"","outcome_status":null,"persistent_id":"","id":98978020,"location_subtype":"","month":"2022-01"},{"category":"anti-social-behaviour","location_type":"Force","location":{"latitude":"51.652801","street":{"id":987405,"name":"On or near Alma Road"},"longitude":"-0.035000"},"context":"","outcome_status":null,"persistent_id":"","id":98978056,"location_subtype":"","month":"2022-01"},{"category":"anti-social-behaviour","location_type":"Force","location":{"latitude":"51.636951","street":{"id":986033,"name":"On or near Chelsfield Avenue"},"longitude":"-0.041119"},"context":"","outcome_status":null,"persistent_id":"","id":98978019,"location_subtype":"","month":"2022-01"},{"category":"anti-social-behaviour","location_type":"Force","location":{"latitude":"51.671690","street":{"id":987592,"name":"On or near Hertford Road"},"longitude":"-0.040156"},"context":"","outcome_status":null,"persistent_id":"","id":98978018,"location_subtype":"","month":"2022-01"},{"category":"anti-social-behaviour","location_type":"Force","location":{"latitude":"51.669712","street":{"id":987585,"name":"On or near St Stephen's Road"},"longitude":"-0.039590"},"context":"","outcome_status":null,"persistent_id":"","id":98978016,"location_subtype":"","month":"2022-01"},{"category":"anti-social-behaviour","location_type":"Force","location":{"latitude":"51.642564","street":{"id":986007,"name":"On or near Falcon Road"},"longitude":"-0.041224"},"context":"","outcome_status":null,"persistent_id":"","id":98978015,"location_subtype":"","month":"2022-01"},{"category":"anti-social-behaviour","location_type":"Force","location":{"latitude":"51.611955","street":{"id":983563,"name":"On or near Argon Road"},"longitude":"-0.042383"},"context":"","outcome_status":null,"persistent_id":"","id":98978014,"location_subtype":"","month":"2022-01"},{"category":"anti-social-behaviour","location_type":"Force","location":{"latitude":"51.634934","street":{"id":985566,"name":"On or near Shirley Grove"},"longitude":"-0.042059"},"context":"","outcome_status":null,"persistent_id":"","id":98978013,"location_subtype":"","month":"2022-01"},{"category":"anti-social-behaviour","location_type":"Force","location":{"latitude":"51.651102","street":{"id":987290,"name":"On or near The Ride"},"longitude":"-0.041507"},"context":"","outcome_status":null,"persistent_id":"","id":98978012,"location_subtype":"","month":"2022-01"},{"category":"anti-social-behaviour","location_type":"Force","location":{"latitude":"51.658680","street":{"id":987281,"name":"On or near Swan Way"},"longitude":"-0.041353"},"context":"","outcome_status":null,"persistent_id":"","id":98978011,"location_subtype":"","month":"2022-01"},{"category":"anti-social-behaviour","location_type":"Force","location":{"latitude":"51.658680","street":{"id":987281,"name":"On or near Swan Way"},"longitude":"-0.041353"},"context":"","outcome_status":null,"persistent_id":"","id":98978010,"location_subtype":"","month":"2022-01"},{"category":"anti-social-behaviour","location_type":"Force","location":{"latitude":"51.611955","street":{"id":983563,"name":"On or near Argon Road"},"longitude":"-0.042383"},"context":"","outcome_status":null,"persistent_id":"","id":98978009,"location_subtype":"","month":"2022-01"},{"category":"anti-social-behaviour","location_type":"Force","location":{"latitude":"51.630349","street":{"id":985540,"name":"On or near Linnet Close"},"longitude":"-0.042661"},"context":"","outcome_status":null,"persistent_id":"","id":98978008,"location_subtype":"","month":"2022-01"},{"category":"anti-social-behaviour","location_type":"Force","location":{"latitude":"51.668307","street":{"id":987593,"name":"On or near Hertford Road"},"longitude":"-0.041647"},"context":"","outcome_status":null,"persistent_id":"","id":98978007,"location_subtype":"","month":"2022-01"},{"category":"anti-social-behaviour","location_type":"Force","location":{"latitude":"51.687299","street":{"id":791077,"name":"On or near Cross Road"},"longitude":"-0.029282"},"context":"","outcome_status":null,"persistent_id":"","id":98420007,"location_subtype":"","month":"2022-01"},{"category":"anti-social-behaviour","location_type":"Force","location":{"latitude":"51.668307","street":{"id":987593,"name":"On or near Hertford Road"},"longitude":"-0.041647"},"context":"","outcome_status":null,"persistent_id":"","id":98978006,"location_subtype":"","month":"2022-01"},{"category":"anti-social-behaviour","location_type":"Force","location":{"latitude":"51.668307","street":{"id":987593,"name":"On or near Hertford Road"},"longitude":"-0.041647"},"context":"","outcome_status":null,"persistent_id":"","id":98978005,"location_subtype":"","month":"2022-01"},{"category":"anti-social-behaviour","location_type":"Force","location":{"latitude":"51.668307","street":{"id":987593,"name":"On or near Hertford Road"},"longitude":"-0.041647"},"context":"","outcome_status":null,"persistent_id":"","id":98978004,"location_subtype":"","month":"2022-01"},{"category":"anti-social-behaviour","location_type":"Force","location":{"latitude":"51.668307","street":{"id":987593,"name":"On or near Hertford Road"},"longitude":"-0.041647"},"context":"","outcome_status":null,"persistent_id":"","id":98978003,"location_subtype":"","month":"2022-01"},{"category":"anti-social-behaviour","location_type":"Force","location":{"latitude":"51.668307","street":{"id":987593,"name":"On or near Hertford Road"},"longitude":"-0.041647"},"context":"","outcome_status":null,"persistent_id":"","id":98978002,"location_subtype":"","month":"2022-01"},{"category":"anti-social-behaviour","location_type":"Force","location":{"latitude":"51.668307","street":{"id":987593,"name":"On or near Hertford Road"},"longitude":"-0.041647"},"context":"","outcome_status":null,"persistent_id":"","id":98978000,"location_subtype":"","month":"2022-01"},{"category":"anti-social-behaviour","location_type":"Force","location":{"latitude":"51.686367","street":{"id":791072,"name":"On or near King's Road"},"longitude":"-0.029467"},"context":"","outcome_status":null,"persistent_id":"","id":98420039,"location_subtype":"","month":"2022-01"},{"category":"anti-social-behaviour","location_type":"Force","location":{"latitude":"51.660522","street":{"id":987292,"name":"On or near The Hatch"},"longitude":"-0.040696"},"context":"","outcome_status":null,"persistent_id":"","id":98977999,"location_subtype":"","month":"2022-01"},{"category":"anti-social-behaviour","location_type":"Force","location":{"latitude":"51.658680","street":{"id":987281,"name":"On or near Swan Way"},"longitude":"-0.041353"},"context":"","outcome_status":null,"persistent_id":"","id":98977998,"location_subtype":"","month":"2022-01"},{"category":"anti-social-behaviour","location_type":"Force","location":{"latitude":"51.680693","street":{"id":987795,"name":"On or near Windward Close"},"longitude":"-0.040780"},"context":"","outcome_status":null,"persistent_id":"","id":98977997,"location_subtype":"","month":"2022-01"},{"category":"anti-social-behaviour","location_type":"Force","location":{"latitude":"51.685113","street":{"id":791058,"name":"On or near Barbel Close"},"longitude":"-0.016386"},"context":"","outcome_status":null,"persistent_id":"","id":98420088,"location_subtype":"","month":"2022-01"},{"category":"anti-social-behaviour","location_type":"Force","location":{"latitude":"51.680693","street":{"id":987795,"name":"On or near Windward Close"},"longitude":"-0.040780"},"context":"","outcome_status":null,"persistent_id":"","id":98977996,"location_subtype":"","month":"2022-01"},{"category":"anti-social-behaviour","location_type":"Force","location":{"latitude":"51.686880","street":{"id":791028,"name":"On or near Park Lane"},"longitude":"-0.037026"},"context":"","outcome_status":null,"persistent_id":"","id":98420132,"location_subtype":"","month":"2022-01"},{"category":"anti-social-behaviour","location_type":"Force","location":{"latitude":"51.680693","street":{"id":987795,"name":"On or near Windward Close"},"longitude":"-0.040780"},"context":"","outcome_status":null,"persistent_id":"","id":98977995,"location_subtype":"","month":"2022-01"},{"category":"anti-social-behaviour","location_type":"Force","location":{"latitude":"51.680693","street":{"id":987795,"name":"On or near Windward Close"},"longitude":"-0.040780"},"context":"","outcome_status":null,"persistent_id":"","id":98977994,"location_subtype":"","month":"2022-01"},{"category":"anti-social-behaviour","location_type":"Force","location":{"latitude":"51.680693","street":{"id":987795,"name":"On or near Windward Close"},"longitude":"-0.040780"},"context":"","outcome_status":null,"persistent_id":"","id":98977993,"location_subtype":"","month":"2022-01"},{"category":"anti-social-behaviour","location_type":"Force","location":{"latitude":"51.687123","street":{"id":791085,"name":"On or near Foundary Gate"},"longitude":"-0.027380"},"context":"","outcome_status":null,"persistent_id":"","id":98420250,"location_subtype":"","month":"2022-01"},{"category":"anti-social-behaviour","location_type":"Force","location":{"latitude":"51.666314","street":{"id":987559,"name":"On or near East Road"},"longitude":"-0.042383"},"context":"","outcome_status":null,"persistent_id":"","id":98977992,"location_subtype":"","month":"2022-01"},{"category":"anti-social-behaviour","location_type":"Force","location":{"latitude":"51.667256","street":{"id":987564,"name":"On or near Petrol Station"},"longitude":"-0.042806"},"context":"","outcome_status":null,"persistent_id":"","id":98977991,"location_subtype":"","month":"2022-01"},{"category":"anti-social-behaviour","location_type":"Force","location":{"latitude":"51.667256","street":{"id":987564,"name":"On or near Petrol Station"},"longitude":"-0.042806"},"context":"","outcome_status":null,"persistent_id":"","id":98977990,"location_subtype":"","month":"2022-01"},{"category":"anti-social-behaviour","location_type":"Force","location":{"latitude":"51.667256","street":{"id":987564,"name":"On or near Petrol Station"},"longitude":"-0.042806"},"context":"","outcome_status":null,"persistent_id":"","id":98977989,"location_subtype":"","month":"2022-01"},{"category":"anti-social-behaviour","location_type":"Force","location":{"latitude":"51.687123","street":{"id":791085,"name":"On or near Foundary Gate"},"longitude":"-0.027380"},"context":"","outcome_status":null,"persistent_id":"","id":98420285,"location_subtype":"","month":"2022-01"},{"category":"anti-social-behaviour","location_type":"Force","location":{"latitude":"51.624630","street":{"id":985514,"name":"On or near Hudson Way"},"longitude":"-0.044308"},"context":"","outcome_status":null,"persistent_id":"","id":98977642,"location_subtype":"","month":"2022-01"},{"category":"anti-social-behaviour","location_type":"Force","location":{"latitude":"51.626184","street":{"id":985556,"name":"On or near Buxton Close"},"longitude":"-0.044169"},"context":"","outcome_status":null,"persistent_id":"","id":98977641,"location_subtype":"","month":"2022-01"},{"category":"anti-social-behaviour","location_type":"Force","location":{"latitude":"51.685554","street":{"id":791055,"name":"On or near Eleanor Cross Road"},"longitude":"-0.023875"},"context":"","outcome_status":null,"persistent_id":"","id":98420295,"location_subtype":"","month":"2022-01"},{"category":"anti-social-behaviour","location_type":"Force","location":{"latitude":"51.634073","street":{"id":985562,"name":"On or near Wellstead Avenue"},"longitude":"-0.042197"},"context":"","outcome_status":null,"persistent_id":"","id":98977640,"location_subtype":"","month":"2022-01"},{"category":"anti-social-behaviour","location_type":"Force","location":{"latitude":"51.688068","street":{"id":791020,"name":"On or near Sturlas Way"},"longitude":"-0.034356"},"context":"","outcome_status":null,"persistent_id":"","id":98420314,"location_subtype":"","month":"2022-01"},{"category":"anti-social-behaviour","location_type":"Force","location":{"latitude":"51.689094","street":{"id":791194,"name":"On or near A121"},"longitude":"-0.033877"},"context":"","outcome_status":null,"persistent_id":"","id":98420413,"location_subtype":"","month":"2022-01"},{"category":"anti-social-behaviour","location_type":"Force","location":{"latitude":"51.660553","street":{"id":987297,"name":"On or near Oatlands Road"},"longitude":"-0.044179"},"context":"","outcome_status":null,"persistent_id":"","id":98977639,"location_subtype":"","month":"2022-01"},{"category":"anti-social-behaviour","location_type":"Force","location":{"latitude":"51.689525","street":{"id":791193,"name":"On or near A121"},"longitude":"-0.033844"},"context":"","outcome_status":null,"persistent_id":"","id":98420439,"location_subtype":"","month":"2022-01"},{"category":"anti-social-behaviour","location_type":"Force","location":{"latitude":"51.686293","street":{"id":791047,"name":"On or near Station Road"},"longitude":"-0.014917"},"context":"","outcome_status":null,"persistent_id":"","id":98420524,"location_subtype":"","month":"2022-01"},{"category":"anti-social-behaviour","location_type":"Force","location":{"latitude":"51.641295","street":{"id":985986,"name":"On or near Rydal Way"},"longitude":"-0.044430"},"context":"","outcome_status":null,"persistent_id":"","id":98977638,"location_subtype":"","month":"2022-01"},{"category":"anti-social-behaviour","location_type":"Force","location":{"latitude":"51.648672","street":{"id":986015,"name":"On or near Colmore Road"},"longitude":"-0.043519"},"context":"","outcome_status":null,"persistent_id":"","id":98977637,"location_subtype":"","month":"2022-01"},{"category":"anti-social-behaviour","location_type":"Force","location":{"latitude":"51.626360","street":{"id":985529,"name":"On or near Pentland Close"},"longitude":"-0.045014"},"context":"","outcome_status":null,"persistent_id":"","id":98977636,"location_subtype":"","month":"2022-01"},{"category":"anti-social-behaviour","location_type":"Force","location":{"latitude":"51.685713","street":{"id":791076,"name":"On or near Eleanor Cross Road"},"longitude":"-0.030653"},"context":"","outcome_status":null,"persistent_id":"","id":98420539,"location_subtype":"","month":"2022-01"},{"category":"anti-social-behaviour","location_type":"Force","location":{"latitude":"51.626360","street":{"id":985529,"name":"On or near Pentland Close"},"longitude":"-0.045014"},"context":"","outcome_status":null,"persistent_id":"","id":98977635,"location_subtype":"","month":"2022-01"},{"category":"anti-social-behaviour","location_type":"Force","location":{"latitude":"51.667227","street":{"id":987561,"name":"On or near Cherry Road"},"longitude":"-0.043761"},"context":"","outcome_status":null,"persistent_id":"","id":98977634,"location_subtype":"","month":"2022-01"},{"category":"anti-social-behaviour","location_type":"Force","location":{"latitude":"51.672149","street":{"id":987612,"name":"On or near Supermarket"},"longitude":"-0.042826"},"context":"","outcome_status":null,"persistent_id":"","id":98977633,"location_subtype":"","month":"2022-01"},{"category":"anti-social-behaviour","location_type":"Force","location":{"latitude":"51.668935","street":{"id":923651,"name":"On or near Longfield Avenue"},"longitude":"-0.044266"},"context":"","outcome_status":null,"persistent_id":"","id":98977632,"location_subtype":"","month":"2022-01"},{"category":"anti-social-behaviour","location_type":"Force","location":{"latitude":"51.668935","street":{"id":923651,"name":"On or near Longfield Avenue"},"longitude":"-0.044266"},"context":"","outcome_status":null,"persistent_id":"","id":98977631,"location_subtype":"","month":"2022-01"},{"category":"anti-social-behaviour","location_type":"Force","location":{"latitude":"51.625397","street":{"id":985537,"name":"On or near Montagu Road"},"longitude":"-0.046616"},"context":"","outcome_status":null,"persistent_id":"","id":98977629,"location_subtype":"","month":"2022-01"},{"category":"anti-social-behaviour","location_type":"Force","location":{"latitude":"51.625397","street":{"id":985537,"name":"On or near Montagu Road"},"longitude":"-0.046616"},"context":"","outcome_status":null,"persistent_id":"","id":98977628,"location_subtype":"","month":"2022-01"},{"category":"anti-social-behaviour","location_type":"Force","location":{"latitude":"51.623558","street":{"id":985658,"name":"On or near Kariba Close"},"longitude":"-0.046363"},"context":"","outcome_status":null,"persistent_id":"","id":98977627,"location_subtype":"","month":"2022-01"},{"category":"anti-social-behaviour","location_type":"Force","location":{"latitude":"51.623558","street":{"id":985658,"name":"On or near Kariba Close"},"longitude":"-0.046363"},"context":"","outcome_status":null,"persistent_id":"","id":98977626,"location_subtype":"","month":"2022-01"},{"category":"anti-social-behaviour","location_type":"Force","location":{"latitude":"51.636977","street":{"id":986032,"name":"On or near Scarborough Road"},"longitude":"-0.047000"},"context":"","outcome_status":null,"persistent_id":"","id":98977625,"location_subtype":"","month":"2022-01"},{"category":"anti-social-behaviour","location_type":"Force","location":{"latitude":"51.686494","street":{"id":791082,"name":"On or near Supermarket"},"longitude":"-0.032211"},"context":"","outcome_status":null,"persistent_id":"","id":98420560,"location_subtype":"","month":"2022-01"},{"category":"anti-social-behaviour","location_type":"Force","location":{"latitude":"51.652956","street":{"id":987335,"name":"On or near Further\/higher Educational Building"},"longitude":"-0.046414"},"context":"","outcome_status":null,"persistent_id":"","id":98977624,"location_subtype":"","month":"2022-01"},{"category":"anti-social-behaviour","location_type":"Force","location":{"latitude":"51.685082","street":{"id":791081,"name":"On or near Supermarket"},"longitude":"-0.032214"},"context":"","outcome_status":null,"persistent_id":"","id":98420620,"location_subtype":"","month":"2022-01"},{"category":"anti-social-behaviour","location_type":"Force","location":{"latitude":"51.685713","street":{"id":791076,"name":"On or near Eleanor Cross Road"},"longitude":"-0.030653"},"context":"","outcome_status":null,"persistent_id":"","id":98420766,"location_subtype":"","month":"2022-01"},{"category":"anti-social-behaviour","location_type":"Force","location":{"latitude":"51.609197","street":{"id":981787,"name":"On or near Glover Drive"},"longitude":"-0.047961"},"context":"","outcome_status":null,"persistent_id":"","id":98977623,"location_subtype":"","month":"2022-01"},{"category":"anti-social-behaviour","location_type":"Force","location":{"latitude":"51.687123","street":{"id":791085,"name":"On or near Foundary Gate"},"longitude":"-0.027380"},"context":"","outcome_status":null,"persistent_id":"","id":98420796,"location_subtype":"","month":"2022-01"},{"category":"anti-social-behaviour","location_type":"Force","location":{"latitude":"51.609197","street":{"id":981787,"name":"On or near Glover Drive"},"longitude":"-0.047961"},"context":"","outcome_status":null,"persistent_id":"","id":98977622,"location_subtype":"","month":"2022-01"},{"category":"anti-social-behaviour","location_type":"Force","location":{"latitude":"51.686129","street":{"id":791054,"name":"On or near Eleanor Way"},"longitude":"-0.021188"},"context":"","outcome_status":null,"persistent_id":"","id":98420905,"location_subtype":"","month":"2022-01"},{"category":"anti-social-behaviour","location_type":"Force","location":{"latitude":"51.686129","street":{"id":791054,"name":"On or near Eleanor Way"},"longitude":"-0.021188"},"context":"","outcome_status":null,"persistent_id":"","id":98420914,"location_subtype":"","month":"2022-01"},{"category":"anti-social-behaviour","location_type":"Force","location":{"latitude":"51.609197","street":{"id":981787,"name":"On or near Glover Drive"},"longitude":"-0.047961"},"context":"","outcome_status":null,"persistent_id":"","id":98977621,"location_subtype":"","month":"2022-01"},{"category":"anti-social-behaviour","location_type":"Force","location":{"latitude":"51.609197","street":{"id":981787,"name":"On or near Glover Drive"},"longitude":"-0.047961"},"context":"","outcome_status":null,"persistent_id":"","id":98977620,"location_subtype":"","month":"2022-01"},{"category":"anti-social-behaviour","location_type":"Force","location":{"latitude":"51.614701","street":{"id":983561,"name":"On or near Conduit Lane"},"longitude":"-0.049068"},"context":"","outcome_status":null,"persistent_id":"","id":98977619,"location_subtype":"","month":"2022-01"},{"category":"anti-social-behaviour","location_type":"Force","location":{"latitude":"51.614701","street":{"id":983561,"name":"On or near Conduit Lane"},"longitude":"-0.049068"},"context":"","outcome_status":null,"persistent_id":"","id":98977618,"location_subtype":"","month":"2022-01"},{"category":"anti-social-behaviour","location_type":"Force","location":{"latitude":"51.650457","street":{"id":987337,"name":"On or near Brecon Road"},"longitude":"-0.048141"},"context":"","outcome_status":null,"persistent_id":"","id":98977617,"location_subtype":"","month":"2022-01"},{"category":"anti-social-behaviour","location_type":"Force","location":{"latitude":"51.650457","street":{"id":987337,"name":"On or near Brecon Road"},"longitude":"-0.048141"},"context":"","outcome_status":null,"persistent_id":"","id":98977616,"location_subtype":"","month":"2022-01"},{"category":"anti-social-behaviour","location_type":"Force","location":{"latitude":"51.650457","street":{"id":987337,"name":"On or near Brecon Road"},"longitude":"-0.048141"},"context":"","outcome_status":null,"persistent_id":"","id":98977615,"location_subtype":"","month":"2022-01"},{"category":"anti-social-behaviour","location_type":"Force","location":{"latitude":"51.685554","street":{"id":791055,"name":"On or near Eleanor Cross Road"},"longitude":"-0.023875"},"context":"","outcome_status":null,"persistent_id":"","id":98420924,"location_subtype":"","month":"2022-01"},{"category":"anti-social-behaviour","location_type":"Force","location":{"latitude":"51.650457","street":{"id":987337,"name":"On or near Brecon Road"},"longitude":"-0.048141"},"context":"","outcome_status":null,"persistent_id":"","id":98977614,"location_subtype":"","month":"2022-01"},{"category":"anti-social-behaviour","location_type":"Force","location":{"latitude":"51.686367","street":{"id":791072,"name":"On or near King's Road"},"longitude":"-0.029467"},"context":"","outcome_status":null,"persistent_id":"","id":98420954,"location_subtype":"","month":"2022-01"},{"category":"anti-social-behaviour","location_type":"Force","location":{"latitude":"51.650457","street":{"id":987337,"name":"On or near Brecon Road"},"longitude":"-0.048141"},"context":"","outcome_status":null,"persistent_id":"","id":98977613,"location_subtype":"","month":"2022-01"},{"category":"anti-social-behaviour","location_type":"Force","location":{"latitude":"51.650457","street":{"id":987337,"name":"On or near Brecon Road"},"longitude":"-0.048141"},"context":"","outcome_status":null,"persistent_id":"","id":98977612,"location_subtype":"","month":"2022-01"},{"category":"anti-social-behaviour","location_type":"Force","location":{"latitude":"51.686129","street":{"id":791054,"name":"On or near Eleanor Way"},"longitude":"-0.021188"},"context":"","outcome_status":null,"persistent_id":"","id":98420981,"location_subtype":"","month":"2022-01"},{"category":"anti-social-behaviour","location_type":"Force","location":{"latitude":"51.650457","street":{"id":987337,"name":"On or near Brecon Road"},"longitude":"-0.048141"},"context":"","outcome_status":null,"persistent_id":"","id":98977611,"location_subtype":"","month":"2022-01"},{"category":"anti-social-behaviour","location_type":"Force","location":{"latitude":"51.650457","street":{"id":987337,"name":"On or near Brecon Road"},"longitude":"-0.048141"},"context":"","outcome_status":null,"persistent_id":"","id":98977610,"location_subtype":"","month":"2022-01"},{"category":"anti-social-behaviour","location_type":"Force","location":{"latitude":"51.644899","street":{"id":985969,"name":"On or near Parking Area"},"longitude":"-0.046963"},"context":"","outcome_status":null,"persistent_id":"","id":98977609,"location_subtype":"","month":"2022-01"},{"category":"anti-social-behaviour","location_type":"Force","location":{"latitude":"51.631100","street":{"id":985518,"name":"On or near Woodlands Road"},"longitude":"-0.047816"},"context":"","outcome_status":null,"persistent_id":"","id":98977608,"location_subtype":"","month":"2022-01"},{"category":"anti-social-behaviour","location_type":"Force","location":{"latitude":"51.616414","street":{"id":983559,"name":"On or near First Avenue"},"longitude":"-0.048807"},"context":"","outcome_status":null,"persistent_id":"","id":98977607,"location_subtype":"","month":"2022-01"},{"category":"anti-social-behaviour","location_type":"Force","location":{"latitude":"51.686129","street":{"id":791054,"name":"On or near Eleanor Way"},"longitude":"-0.021188"},"context":"","outcome_status":null,"persistent_id":"","id":98421031,"location_subtype":"","month":"2022-01"},{"category":"anti-social-behaviour","location_type":"Force","location":{"latitude":"51.616414","street":{"id":983559,"name":"On or near First Avenue"},"longitude":"-0.048807"},"context":"","outcome_status":null,"persistent_id":"","id":98977606,"location_subtype":"","month":"2022-01"},{"category":"anti-social-behaviour","location_type":"Force","location":{"latitude":"51.634690","street":{"id":985573,"name":"On or near Acworth Close"},"longitude":"-0.047907"},"context":"","outcome_status":null,"persistent_id":"","id":98977605,"location_subtype":"","month":"2022-01"},{"category":"anti-social-behaviour","location_type":"Force","location":{"latitude":"51.634690","street":{"id":985573,"name":"On or near Acworth Close"},"longitude":"-0.047907"},"context":"","outcome_status":null,"persistent_id":"","id":98977604,"location_subtype":"","month":"2022-01"},{"category":"anti-social-behaviour","location_type":"Force","location":{"latitude":"51.628909","street":{"id":985539,"name":"On or near Marshside Close"},"longitude":"-0.048531"},"context":"","outcome_status":null,"persistent_id":"","id":98977603,"location_subtype":"","month":"2022-01"},{"category":"anti-social-behaviour","location_type":"Force","location":{"latitude":"51.628909","street":{"id":985539,"name":"On or near Marshside Close"},"longitude":"-0.048531"},"context":"","outcome_status":null,"persistent_id":"","id":98977602,"location_subtype":"","month":"2022-01"},{"category":"anti-social-behaviour","location_type":"Force","location":{"latitude":"51.685191","street":{"id":791018,"name":"On or near Parking Area"},"longitude":"-0.033873"},"context":"","outcome_status":null,"persistent_id":"","id":98421102,"location_subtype":"","month":"2022-01"},{"category":"anti-social-behaviour","location_type":"Force","location":{"latitude":"51.667352","street":{"id":987552,"name":"On or near Mapleton Crescent"},"longitude":"-0.046937"},"context":"","outcome_status":null,"persistent_id":"","id":98977600,"location_subtype":"","month":"2022-01"},{"category":"anti-social-behaviour","location_type":"Force","location":{"latitude":"51.667352","street":{"id":987552,"name":"On or near Mapleton Crescent"},"longitude":"-0.046937"},"context":"","outcome_status":null,"persistent_id":"","id":98977599,"location_subtype":"","month":"2022-01"},{"category":"anti-social-behaviour","location_type":"Force","location":{"latitude":"51.626263","street":{"id":985615,"name":"On or near Exeter Road"},"longitude":"-0.049468"},"context":"","outcome_status":null,"persistent_id":"","id":98977598,"location_subtype":"","month":"2022-01"},{"category":"anti-social-behaviour","location_type":"Force","location":{"latitude":"51.659485","street":{"id":987347,"name":"On or near Sherborne Avenue"},"longitude":"-0.048100"},"context":"","outcome_status":null,"persistent_id":"","id":98977597,"location_subtype":"","month":"2022-01"},{"category":"anti-social-behaviour","location_type":"Force","location":{"latitude":"51.642902","street":{"id":985957,"name":"On or near Clarence Road"},"longitude":"-0.049130"},"context":"","outcome_status":null,"persistent_id":"","id":98977596,"location_subtype":"","month":"2022-01"},{"category":"anti-social-behaviour","location_type":"Force","location":{"latitude":"51.642902","street":{"id":985957,"name":"On or near Clarence Road"},"longitude":"-0.049130"},"context":"","outcome_status":null,"persistent_id":"","id":98977595,"location_subtype":"","month":"2022-01"},{"category":"anti-social-behaviour","location_type":"Force","location":{"latitude":"51.642902","street":{"id":985957,"name":"On or near Clarence Road"},"longitude":"-0.049130"},"context":"","outcome_status":null,"persistent_id":"","id":98977594,"location_subtype":"","month":"2022-01"},{"category":"anti-social-behaviour","location_type":"Force","location":{"latitude":"51.664608","street":{"id":987549,"name":"On or near Roedean Avenue"},"longitude":"-0.046838"},"context":"","outcome_status":null,"persistent_id":"","id":98977593,"location_subtype":"","month":"2022-01"},{"category":"anti-social-behaviour","location_type":"Force","location":{"latitude":"51.664608","street":{"id":987549,"name":"On or near Roedean Avenue"},"longitude":"-0.046838"},"context":"","outcome_status":null,"persistent_id":"","id":98977592,"location_subtype":"","month":"2022-01"},{"category":"anti-social-behaviour","location_type":"Force","location":{"latitude":"51.664608","street":{"id":987549,"name":"On or near Roedean Avenue"},"longitude":"-0.046838"},"context":"","outcome_status":null,"persistent_id":"","id":98977591,"location_subtype":"","month":"2022-01"},{"category":"anti-social-behaviour","location_type":"Force","location":{"latitude":"51.686129","street":{"id":791054,"name":"On or near Eleanor Way"},"longitude":"-0.021188"},"context":"","outcome_status":null,"persistent_id":"","id":98421135,"location_subtype":"","month":"2022-01"},{"category":"anti-social-behaviour","location_type":"Force","location":{"latitude":"51.636075","street":{"id":985635,"name":"On or near St Alphege Road"},"longitude":"-0.049004"},"context":"","outcome_status":null,"persistent_id":"","id":98977590,"location_subtype":"","month":"2022-01"},{"category":"anti-social-behaviour","location_type":"Force","location":{"latitude":"51.628210","street":{"id":985520,"name":"On or near Warley Road"},"longitude":"-0.047030"},"context":"","outcome_status":null,"persistent_id":"","id":98977630,"location_subtype":"","month":"2022-01"},{"category":"anti-social-behaviour","location_type":"Force","location":{"latitude":"51.662199","street":{"id":987354,"name":"On or near Lytchet Way"},"longitude":"-0.048533"},"context":"","outcome_status":null,"persistent_id":"","id":98977589,"location_subtype":"","month":"2022-01"},{"category":"anti-social-behaviour","location_type":"Force","location":{"latitude":"51.677515","street":{"id":987829,"name":"On or near Lilac Avenue"},"longitude":"-0.047570"},"context":"","outcome_status":null,"persistent_id":"","id":98977588,"location_subtype":"","month":"2022-01"},{"category":"anti-social-behaviour","location_type":"Force","location":{"latitude":"51.660541","street":{"id":987355,"name":"On or near Lawson Road"},"longitude":"-0.048300"},"context":"","outcome_status":null,"persistent_id":"","id":98977587,"location_subtype":"","month":"2022-01"},{"category":"anti-social-behaviour","location_type":"Force","location":{"latitude":"51.616160","street":{"id":983515,"name":"On or near Rays Avenue"},"longitude":"-0.050840"},"context":"","outcome_status":null,"persistent_id":"","id":98977586,"location_subtype":"","month":"2022-01"},{"category":"anti-social-behaviour","location_type":"Force","location":{"latitude":"51.648644","street":{"id":985934,"name":"On or near Southbury Road"},"longitude":"-0.049404"},"context":"","outcome_status":null,"persistent_id":"","id":98977584,"location_subtype":"","month":"2022-01"},{"category":"anti-social-behaviour","location_type":"Force","location":{"latitude":"51.625302","street":{"id":985594,"name":"On or near Ranworth Road"},"longitude":"-0.050622"},"context":"","outcome_status":null,"persistent_id":"","id":98977583,"location_subtype":"","month":"2022-01"},{"category":"anti-social-behaviour","location_type":"Force","location":{"latitude":"51.655596","street":{"id":987372,"name":"On or near Ashdown Road"},"longitude":"-0.049452"},"context":"","outcome_status":null,"persistent_id":"","id":98977582,"location_subtype":"","month":"2022-01"},{"category":"anti-social-behaviour","location_type":"Force","location":{"latitude":"51.641140","street":{"id":985933,"name":"On or near Southfield Road"},"longitude":"-0.049668"},"context":"","outcome_status":null,"persistent_id":"","id":98977581,"location_subtype":"","month":"2022-01"},{"category":"anti-social-behaviour","location_type":"Force","location":{"latitude":"51.635125","street":{"id":985634,"name":"On or near Tramway Avenue"},"longitude":"-0.050259"},"context":"","outcome_status":null,"persistent_id":"","id":98977580,"location_subtype":"","month":"2022-01"},{"category":"anti-social-behaviour","location_type":"Force","location":{"latitude":"51.671801","street":{"id":987544,"name":"On or near Auckland Close"},"longitude":"-0.048973"},"context":"","outcome_status":null,"persistent_id":"","id":98977579,"location_subtype":"","month":"2022-01"},{"category":"anti-social-behaviour","location_type":"Force","location":{"latitude":"51.634094","street":{"id":985633,"name":"On or near Tudor Road"},"longitude":"-0.050476"},"context":"","outcome_status":null,"persistent_id":"","id":98977578,"location_subtype":"","month":"2022-01"},{"category":"anti-social-behaviour","location_type":"Force","location":{"latitude":"51.635125","street":{"id":985634,"name":"On or near Tramway Avenue"},"longitude":"-0.050259"},"context":"","outcome_status":null,"persistent_id":"","id":98977577,"location_subtype":"","month":"2022-01"},{"category":"anti-social-behaviour","location_type":"Force","location":{"latitude":"51.624814","street":{"id":985584,"name":"On or near Town Road"},"longitude":"-0.051567"},"context":"","outcome_status":null,"persistent_id":"","id":98977576,"location_subtype":"","month":"2022-01"},{"category":"anti-social-behaviour","location_type":"Force","location":{"latitude":"51.678021","street":{"id":987828,"name":"On or near Lovell Road"},"longitude":"-0.049313"},"context":"","outcome_status":null,"persistent_id":"","id":98977575,"location_subtype":"","month":"2022-01"},{"category":"anti-social-behaviour","location_type":"Force","location":{"latitude":"51.649392","street":{"id":985959,"name":"On or near Cardiff Road"},"longitude":"-0.050572"},"context":"","outcome_status":null,"persistent_id":"","id":98977574,"location_subtype":"","month":"2022-01"},{"category":"anti-social-behaviour","location_type":"Force","location":{"latitude":"51.664816","street":{"id":987518,"name":"On or near Sheppard Close"},"longitude":"-0.051240"},"context":"","outcome_status":null,"persistent_id":"","id":98977573,"location_subtype":"","month":"2022-01"},{"category":"anti-social-behaviour","location_type":"Force","location":{"latitude":"51.640516","street":{"id":985954,"name":"On or near Elmcroft Avenue"},"longitude":"-0.052152"},"context":"","outcome_status":null,"persistent_id":"","id":98977572,"location_subtype":"","month":"2022-01"},{"category":"anti-social-behaviour","location_type":"Force","location":{"latitude":"51.640516","street":{"id":985954,"name":"On or near Elmcroft Avenue"},"longitude":"-0.052152"},"context":"","outcome_status":null,"persistent_id":"","id":98977571,"location_subtype":"","month":"2022-01"},{"category":"anti-social-behaviour","location_type":"Force","location":{"latitude":"51.686367","street":{"id":791072,"name":"On or near King's Road"},"longitude":"-0.029467"},"context":"","outcome_status":null,"persistent_id":"","id":98421431,"location_subtype":"","month":"2022-01"},{"category":"anti-social-behaviour","location_type":"Force","location":{"latitude":"51.688901","street":{"id":791135,"name":"On or near Eastern Avenue"},"longitude":"-0.026681"},"context":"","outcome_status":null,"persistent_id":"","id":98421487,"location_subtype":"","month":"2022-01"},{"category":"anti-social-behaviour","location_type":"Force","location":{"latitude":"51.640516","street":{"id":985954,"name":"On or near Elmcroft Avenue"},"longitude":"-0.052152"},"context":"","outcome_status":null,"persistent_id":"","id":98977570,"location_subtype":"","month":"2022-01"},{"category":"anti-social-behaviour","location_type":"Force","location":{"latitude":"51.688901","street":{"id":791135,"name":"On or near Eastern Avenue"},"longitude":"-0.026681"},"context":"","outcome_status":null,"persistent_id":"","id":98421598,"location_subtype":"","month":"2022-01"},{"category":"anti-social-behaviour","location_type":"Force","location":{"latitude":"51.627428","street":{"id":985619,"name":"On or near Cornwallis Road"},"longitude":"-0.051961"},"context":"","outcome_status":null,"persistent_id":"","id":98977568,"location_subtype":"","month":"2022-01"},{"category":"anti-social-behaviour","location_type":"Force","location":{"latitude":"51.682409","street":{"id":987821,"name":"On or near Pedestrian Subway"},"longitude":"-0.049342"},"context":"","outcome_status":null,"persistent_id":"","id":98977567,"location_subtype":"","month":"2022-01"},{"category":"anti-social-behaviour","location_type":"Force","location":{"latitude":"51.617403","street":{"id":983539,"name":"On or near Swaythling Close"},"longitude":"-0.052578"},"context":"","outcome_status":null,"persistent_id":"","id":98977566,"location_subtype":"","month":"2022-01"},{"category":"anti-social-behaviour","location_type":"Force","location":{"latitude":"51.617403","street":{"id":983539,"name":"On or near Swaythling Close"},"longitude":"-0.052578"},"context":"","outcome_status":null,"persistent_id":"","id":98977565,"location_subtype":"","month":"2022-01"},{"category":"anti-social-behaviour","location_type":"Force","location":{"latitude":"51.647774","street":{"id":985937,"name":"On or near Poppy Drive"},"longitude":"-0.052231"},"context":"","outcome_status":null,"persistent_id":"","id":98977564,"location_subtype":"","month":"2022-01"},{"category":"anti-social-behaviour","location_type":"Force","location":{"latitude":"51.673378","street":{"id":987545,"name":"On or near Almshouse Lane"},"longitude":"-0.049701"},"context":"","outcome_status":null,"persistent_id":"","id":98977563,"location_subtype":"","month":"2022-01"},{"category":"anti-social-behaviour","location_type":"Force","location":{"latitude":"51.631732","street":{"id":985604,"name":"On or near Lowden Road"},"longitude":"-0.052832"},"context":"","outcome_status":null,"persistent_id":"","id":98977562,"location_subtype":"","month":"2022-01"},{"category":"anti-social-behaviour","location_type":"Force","location":{"latitude":"51.614372","street":{"id":983530,"name":"On or near Cavendish Close"},"longitude":"-0.053618"},"context":"","outcome_status":null,"persistent_id":"","id":98977561,"location_subtype":"","month":"2022-01"},{"category":"anti-social-behaviour","location_type":"Force","location":{"latitude":"51.612683","street":{"id":983526,"name":"On or near Culpepper Close"},"longitude":"-0.053719"},"context":"","outcome_status":null,"persistent_id":"","id":98977560,"location_subtype":"","month":"2022-01"},{"category":"anti-social-behaviour","location_type":"Force","location":{"latitude":"51.685082","street":{"id":791081,"name":"On or near Supermarket"},"longitude":"-0.032214"},"context":"","outcome_status":null,"persistent_id":"","id":98421668,"location_subtype":"","month":"2022-01"},{"category":"anti-social-behaviour","location_type":"Force","location":{"latitude":"51.626061","street":{"id":985603,"name":"On or near Marsden Road"},"longitude":"-0.054649"},"context":"","outcome_status":null,"persistent_id":"","id":98977559,"location_subtype":"","month":"2022-01"},{"category":"anti-social-behaviour","location_type":"Force","location":{"latitude":"51.666872","street":{"id":987524,"name":"On or near Maltby Drive"},"longitude":"-0.052699"},"context":"","outcome_status":null,"persistent_id":"","id":98977558,"location_subtype":"","month":"2022-01"},{"category":"anti-social-behaviour","location_type":"Force","location":{"latitude":"51.666872","street":{"id":987524,"name":"On or near Maltby Drive"},"longitude":"-0.052699"},"context":"","outcome_status":null,"persistent_id":"","id":98977557,"location_subtype":"","month":"2022-01"},{"category":"anti-social-behaviour","location_type":"Force","location":{"latitude":"51.666872","street":{"id":987524,"name":"On or near Maltby Drive"},"longitude":"-0.052699"},"context":"","outcome_status":null,"persistent_id":"","id":98977556,"location_subtype":"","month":"2022-01"},{"category":"anti-social-behaviour","location_type":"Force","location":{"latitude":"51.666872","street":{"id":987524,"name":"On or near Maltby Drive"},"longitude":"-0.052699"},"context":"","outcome_status":null,"persistent_id":"","id":98977555,"location_subtype":"","month":"2022-01"},{"category":"anti-social-behaviour","location_type":"Force","location":{"latitude":"51.666872","street":{"id":987524,"name":"On or near Maltby Drive"},"longitude":"-0.052699"},"context":"","outcome_status":null,"persistent_id":"","id":98977554,"location_subtype":"","month":"2022-01"},{"category":"anti-social-behaviour","location_type":"Force","location":{"latitude":"51.615617","street":{"id":983527,"name":"On or near Craig Park Road"},"longitude":"-0.056064"},"context":"","outcome_status":null,"persistent_id":"","id":98977552,"location_subtype":"","month":"2022-01"},{"category":"anti-social-behaviour","location_type":"Force","location":{"latitude":"51.677449","street":{"id":987827,"name":"On or near Manor Court"},"longitude":"-0.052780"},"context":"","outcome_status":null,"persistent_id":"","id":98977551,"location_subtype":"","month":"2022-01"},{"category":"anti-social-behaviour","location_type":"Force","location":{"latitude":"51.641653","street":{"id":985928,"name":"On or near Woodstock Crescent"},"longitude":"-0.055673"},"context":"","outcome_status":null,"persistent_id":"","id":98977550,"location_subtype":"","month":"2022-01"},{"category":"anti-social-behaviour","location_type":"Force","location":{"latitude":"51.666376","street":{"id":987520,"name":"On or near Rossington Close"},"longitude":"-0.054239"},"context":"","outcome_status":null,"persistent_id":"","id":98977549,"location_subtype":"","month":"2022-01"},{"category":"anti-social-behaviour","location_type":"Force","location":{"latitude":"51.628524","street":{"id":985626,"name":"On or near Petrol Station"},"longitude":"-0.055656"},"context":"","outcome_status":null,"persistent_id":"","id":98977548,"location_subtype":"","month":"2022-01"},{"category":"anti-social-behaviour","location_type":"Force","location":{"latitude":"51.628524","street":{"id":985626,"name":"On or near Petrol Station"},"longitude":"-0.055656"},"context":"","outcome_status":null,"persistent_id":"","id":98977547,"location_subtype":"","month":"2022-01"},{"category":"anti-social-behaviour","location_type":"Force","location":{"latitude":"51.628524","street":{"id":985626,"name":"On or near Petrol Station"},"longitude":"-0.055656"},"context":"","outcome_status":null,"persistent_id":"","id":98977546,"location_subtype":"","month":"2022-01"},{"category":"anti-social-behaviour","location_type":"Force","location":{"latitude":"51.665801","street":{"id":987523,"name":"On or near Maybury Close"},"longitude":"-0.054769"},"context":"","outcome_status":null,"persistent_id":"","id":98977545,"location_subtype":"","month":"2022-01"},{"category":"anti-social-behaviour","location_type":"Force","location":{"latitude":"51.624274","street":{"id":985651,"name":"On or near Summerskille Close"},"longitude":"-0.056416"},"context":"","outcome_status":null,"persistent_id":"","id":98977544,"location_subtype":"","month":"2022-01"},