[{"category":"anti-social-behaviour","location_type":"Force","location":{"latitude":"51.560265","street":{"id":972254,"name":"On or near Fairmead Road"},"longitude":"-0.125482"},"context":"","outcome_status":null,"persistent_id":"","id":98984541,"location_subtype":"","month":"2022-01"},{"category":"anti-social-behaviour","location_type":"Force","location":{"latitude":"51.564305","street":{"id":972201,"name":"On or near Cornwallis Square"},"longitude":"-0.124479"},"context":"","outcome_status":null,"persistent_id":"","id":98984546,"location_subtype":"","month":"2022-01"},{"category":"anti-social-behaviour","location_type":"Force","location":{"latitude":"51.556750","street":{"id":968257,"name":"On or near Tabley Road"},"longitude":"-0.123881"},"context":"","outcome_status":null,"persistent_id":"","id":98984547,"location_subtype":"","month":"2022-01"},{"category":"anti-social-behaviour","location_type":"Force","location":{"latitude":"51.556750","street":{"id":968257,"name":"On or near Tabley Road"},"longitude":"-0.123881"},"context":"","outcome_status":null,"persistent_id":"","id":98984548,"location_subtype":"","month":"2022-01"},{"category":"anti-social-behaviour","location_type":"Force","location":{"latitude":"51.544401","street":{"id":964971,"name":"On or near Sports\/recreation Area"},"longitude":"-0.125413"},"context":"","outcome_status":null,"persistent_id":"","id":98984549,"location_subtype":"","month":"2022-01"},{"category":"anti-social-behaviour","location_type":"Force","location":{"latitude":"51.544401","street":{"id":964971,"name":"On or near Sports\/recreation Area"},"longitude":"-0.125413"},"context":"","outcome_status":null,"persistent_id":"","id":98984550,"location_subtype":"","month":"2022-01"},{"category":"anti-social-behaviour","location_type":"Force","location":{"latitude":"51.548694","street":{"id":967979,"name":"On or near Goodinge Close"},"longitude":"-0.125092"},"context":"","outcome_status":null,"persistent_id":"","id":98984551,"location_subtype":"","month":"2022-01"},{"category":"anti-social-behaviour","location_type":"Force","location":{"latitude":"51.563796","street":{"id":972184,"name":"On or near Kiver Road"},"longitude":"-0.125322"},"context":"","outcome_status":null,"persistent_id":"","id":98984552,"location_subtype":"","month":"2022-01"},{"category":"anti-social-behaviour","location_type":"Force","location":{"latitude":"51.563796","street":{"id":972184,"name":"On or near Kiver Road"},"longitude":"-0.125322"},"context":"","outcome_status":null,"persistent_id":"","id":98984553,"location_subtype":"","month":"2022-01"},{"category":"anti-social-behaviour","location_type":"Force","location":{"latitude":"51.561794","street":{"id":972185,"name":"On or near Holloway Road"},"longitude":"-0.124928"},"context":"","outcome_status":null,"persistent_id":"","id":98984554,"location_subtype":"","month":"2022-01"},{"category":"anti-social-behaviour","location_type":"Force","location":{"latitude":"51.567477","street":{"id":971987,"name":"On or near Thorpedale Road"},"longitude":"-0.118201"},"context":"","outcome_status":null,"persistent_id":"","id":98984634,"location_subtype":"","month":"2022-01"},{"category":"anti-social-behaviour","location_type":"Force","location":{"latitude":"51.561794","street":{"id":972185,"name":"On or near Holloway Road"},"longitude":"-0.124928"},"context":"","outcome_status":null,"persistent_id":"","id":98984555,"location_subtype":"","month":"2022-01"},{"category":"anti-social-behaviour","location_type":"Force","location":{"latitude":"51.561794","street":{"id":972185,"name":"On or near Holloway Road"},"longitude":"-0.124928"},"context":"","outcome_status":null,"persistent_id":"","id":98984556,"location_subtype":"","month":"2022-01"},{"category":"anti-social-behaviour","location_type":"Force","location":{"latitude":"51.561794","street":{"id":972185,"name":"On or near Holloway Road"},"longitude":"-0.124928"},"context":"","outcome_status":null,"persistent_id":"","id":98984557,"location_subtype":"","month":"2022-01"},{"category":"anti-social-behaviour","location_type":"Force","location":{"latitude":"51.569995","street":{"id":971990,"name":"On or near Shaftesbury Road"},"longitude":"-0.123235"},"context":"","outcome_status":null,"persistent_id":"","id":98984558,"location_subtype":"","month":"2022-01"},{"category":"anti-social-behaviour","location_type":"Force","location":{"latitude":"51.551230","street":{"id":968000,"name":"On or near Middleton Mews"},"longitude":"-0.125103"},"context":"","outcome_status":null,"persistent_id":"","id":98984559,"location_subtype":"","month":"2022-01"},{"category":"anti-social-behaviour","location_type":"Force","location":{"latitude":"51.568814","street":{"id":971999,"name":"On or near Hanley Road"},"longitude":"-0.118565"},"context":"","outcome_status":null,"persistent_id":"","id":98984640,"location_subtype":"","month":"2022-01"},{"category":"anti-social-behaviour","location_type":"Force","location":{"latitude":"51.551230","street":{"id":968000,"name":"On or near Middleton Mews"},"longitude":"-0.125103"},"context":"","outcome_status":null,"persistent_id":"","id":98984560,"location_subtype":"","month":"2022-01"},{"category":"anti-social-behaviour","location_type":"Force","location":{"latitude":"51.551230","street":{"id":968000,"name":"On or near Middleton Mews"},"longitude":"-0.125103"},"context":"","outcome_status":null,"persistent_id":"","id":98984561,"location_subtype":"","month":"2022-01"},{"category":"anti-social-behaviour","location_type":"Force","location":{"latitude":"51.569106","street":{"id":972229,"name":"On or near Hornsey Road"},"longitude":"-0.123863"},"context":"","outcome_status":null,"persistent_id":"","id":98984562,"location_subtype":"","month":"2022-01"},{"category":"anti-social-behaviour","location_type":"Force","location":{"latitude":"51.569106","street":{"id":972229,"name":"On or near Hornsey Road"},"longitude":"-0.123863"},"context":"","outcome_status":null,"persistent_id":"","id":98984563,"location_subtype":"","month":"2022-01"},{"category":"anti-social-behaviour","location_type":"Force","location":{"latitude":"51.569106","street":{"id":972229,"name":"On or near Hornsey Road"},"longitude":"-0.123863"},"context":"","outcome_status":null,"persistent_id":"","id":98984564,"location_subtype":"","month":"2022-01"},{"category":"anti-social-behaviour","location_type":"Force","location":{"latitude":"51.549497","street":{"id":968246,"name":"On or near Corporation Street"},"longitude":"-0.124107"},"context":"","outcome_status":null,"persistent_id":"","id":98984565,"location_subtype":"","month":"2022-01"},{"category":"anti-social-behaviour","location_type":"Force","location":{"latitude":"51.556750","street":{"id":968257,"name":"On or near Tabley Road"},"longitude":"-0.123881"},"context":"","outcome_status":null,"persistent_id":"","id":98984566,"location_subtype":"","month":"2022-01"},{"category":"anti-social-behaviour","location_type":"Force","location":{"latitude":"51.562426","street":{"id":971976,"name":"On or near Alexander Road"},"longitude":"-0.122277"},"context":"","outcome_status":null,"persistent_id":"","id":98984569,"location_subtype":"","month":"2022-01"},{"category":"anti-social-behaviour","location_type":"Force","location":{"latitude":"51.550390","street":{"id":968276,"name":"On or near Hartham Road"},"longitude":"-0.122051"},"context":"","outcome_status":null,"persistent_id":"","id":98984570,"location_subtype":"","month":"2022-01"},{"category":"anti-social-behaviour","location_type":"Force","location":{"latitude":"51.555653","street":{"id":968279,"name":"On or near Chambers Road"},"longitude":"-0.122729"},"context":"","outcome_status":null,"persistent_id":"","id":98984571,"location_subtype":"","month":"2022-01"},{"category":"anti-social-behaviour","location_type":"Force","location":{"latitude":"51.569575","street":{"id":971997,"name":"On or near Lambton Road"},"longitude":"-0.122271"},"context":"","outcome_status":null,"persistent_id":"","id":98984572,"location_subtype":"","month":"2022-01"},{"category":"anti-social-behaviour","location_type":"Force","location":{"latitude":"51.564966","street":{"id":971953,"name":"On or near Sussex Way"},"longitude":"-0.121984"},"context":"","outcome_status":null,"persistent_id":"","id":98984573,"location_subtype":"","month":"2022-01"},{"category":"anti-social-behaviour","location_type":"Force","location":{"latitude":"51.564966","street":{"id":971953,"name":"On or near Sussex Way"},"longitude":"-0.121984"},"context":"","outcome_status":null,"persistent_id":"","id":98984574,"location_subtype":"","month":"2022-01"},{"category":"anti-social-behaviour","location_type":"Force","location":{"latitude":"51.544898","street":{"id":964655,"name":"On or near Brewery Road"},"longitude":"-0.122176"},"context":"","outcome_status":null,"persistent_id":"","id":98984575,"location_subtype":"","month":"2022-01"},{"category":"anti-social-behaviour","location_type":"Force","location":{"latitude":"51.573500","street":{"id":974972,"name":"On or near Crouch Hill"},"longitude":"-0.120868"},"context":"","outcome_status":null,"persistent_id":"","id":98984576,"location_subtype":"","month":"2022-01"},{"category":"anti-social-behaviour","location_type":"Force","location":{"latitude":"51.554619","street":{"id":968266,"name":"On or near Parkhurst Road"},"longitude":"-0.122771"},"context":"","outcome_status":null,"persistent_id":"","id":98984577,"location_subtype":"","month":"2022-01"},{"category":"anti-social-behaviour","location_type":"Force","location":{"latitude":"51.565314","street":{"id":971973,"name":"On or near Bavaria Road"},"longitude":"-0.122345"},"context":"","outcome_status":null,"persistent_id":"","id":98984579,"location_subtype":"","month":"2022-01"},{"category":"anti-social-behaviour","location_type":"Force","location":{"latitude":"51.565314","street":{"id":971973,"name":"On or near Bavaria Road"},"longitude":"-0.122345"},"context":"","outcome_status":null,"persistent_id":"","id":98984580,"location_subtype":"","month":"2022-01"},{"category":"anti-social-behaviour","location_type":"Force","location":{"latitude":"51.565314","street":{"id":971973,"name":"On or near Bavaria Road"},"longitude":"-0.122345"},"context":"","outcome_status":null,"persistent_id":"","id":98984581,"location_subtype":"","month":"2022-01"},{"category":"anti-social-behaviour","location_type":"Force","location":{"latitude":"51.565314","street":{"id":971973,"name":"On or near Bavaria Road"},"longitude":"-0.122345"},"context":"","outcome_status":null,"persistent_id":"","id":98984582,"location_subtype":"","month":"2022-01"},{"category":"anti-social-behaviour","location_type":"Force","location":{"latitude":"51.565314","street":{"id":971973,"name":"On or near Bavaria Road"},"longitude":"-0.122345"},"context":"","outcome_status":null,"persistent_id":"","id":98984583,"location_subtype":"","month":"2022-01"},{"category":"anti-social-behaviour","location_type":"Force","location":{"latitude":"51.582256","street":{"id":975097,"name":"On or near Rowley Road"},"longitude":"-0.092822"},"context":"","outcome_status":null,"persistent_id":"","id":98980151,"location_subtype":"","month":"2022-01"},{"category":"anti-social-behaviour","location_type":"Force","location":{"latitude":"51.583775","street":{"id":975130,"name":"On or near Cranleigh Road"},"longitude":"-0.092759"},"context":"","outcome_status":null,"persistent_id":"","id":98980152,"location_subtype":"","month":"2022-01"},{"category":"anti-social-behaviour","location_type":"Force","location":{"latitude":"51.582256","street":{"id":975097,"name":"On or near Rowley Road"},"longitude":"-0.092822"},"context":"","outcome_status":null,"persistent_id":"","id":98980153,"location_subtype":"","month":"2022-01"},{"category":"anti-social-behaviour","location_type":"Force","location":{"latitude":"51.575924","street":{"id":975063,"name":"On or near Hermitage Road"},"longitude":"-0.091644"},"context":"","outcome_status":null,"persistent_id":"","id":98980156,"location_subtype":"","month":"2022-01"},{"category":"anti-social-behaviour","location_type":"Force","location":{"latitude":"51.585890","street":{"id":978196,"name":"On or near Olive Grove"},"longitude":"-0.090664"},"context":"","outcome_status":null,"persistent_id":"","id":98980157,"location_subtype":"","month":"2022-01"},{"category":"anti-social-behaviour","location_type":"Force","location":{"latitude":"51.586150","street":{"id":978191,"name":"On or near West Green Road"},"longitude":"-0.091172"},"context":"","outcome_status":null,"persistent_id":"","id":98980160,"location_subtype":"","month":"2022-01"},{"category":"anti-social-behaviour","location_type":"Force","location":{"latitude":"51.585239","street":{"id":978247,"name":"On or near Abbotsford Avenue"},"longitude":"-0.090474"},"context":"","outcome_status":null,"persistent_id":"","id":98980161,"location_subtype":"","month":"2022-01"},{"category":"anti-social-behaviour","location_type":"Force","location":{"latitude":"51.585239","street":{"id":978247,"name":"On or near Abbotsford Avenue"},"longitude":"-0.090474"},"context":"","outcome_status":null,"persistent_id":"","id":98980162,"location_subtype":"","month":"2022-01"},{"category":"anti-social-behaviour","location_type":"Force","location":{"latitude":"51.583889","street":{"id":975077,"name":"On or near Black Boy Lane"},"longitude":"-0.090401"},"context":"","outcome_status":null,"persistent_id":"","id":98980165,"location_subtype":"","month":"2022-01"},{"category":"anti-social-behaviour","location_type":"Force","location":{"latitude":"51.586607","street":{"id":978202,"name":"On or near Ashleys Alley"},"longitude":"-0.090547"},"context":"","outcome_status":null,"persistent_id":"","id":98980166,"location_subtype":"","month":"2022-01"},{"category":"anti-social-behaviour","location_type":"Force","location":{"latitude":"51.584119","street":{"id":978246,"name":"On or near Clarence Road"},"longitude":"-0.089049"},"context":"","outcome_status":null,"persistent_id":"","id":98980167,"location_subtype":"","month":"2022-01"},{"category":"anti-social-behaviour","location_type":"Force","location":{"latitude":"51.584119","street":{"id":978246,"name":"On or near Clarence Road"},"longitude":"-0.089049"},"context":"","outcome_status":null,"persistent_id":"","id":98980168,"location_subtype":"","month":"2022-01"},{"category":"anti-social-behaviour","location_type":"Force","location":{"latitude":"51.583758","street":{"id":975075,"name":"On or near Falmer Road"},"longitude":"-0.088429"},"context":"","outcome_status":null,"persistent_id":"","id":98980174,"location_subtype":"","month":"2022-01"},{"category":"anti-social-behaviour","location_type":"Force","location":{"latitude":"51.583758","street":{"id":975075,"name":"On or near Falmer Road"},"longitude":"-0.088429"},"context":"","outcome_status":null,"persistent_id":"","id":98980175,"location_subtype":"","month":"2022-01"},{"category":"anti-social-behaviour","location_type":"Force","location":{"latitude":"51.564090","street":{"id":971840,"name":"On or near Somerfield Road"},"longitude":"-0.101056"},"context":"","outcome_status":null,"persistent_id":"","id":98976288,"location_subtype":"","month":"2022-01"},{"category":"anti-social-behaviour","location_type":"Force","location":{"latitude":"51.564090","street":{"id":971840,"name":"On or near Somerfield Road"},"longitude":"-0.101056"},"context":"","outcome_status":null,"persistent_id":"","id":98976289,"location_subtype":"","month":"2022-01"},{"category":"anti-social-behaviour","location_type":"Force","location":{"latitude":"51.565584","street":{"id":972106,"name":"On or near Petrol Station"},"longitude":"-0.102812"},"context":"","outcome_status":null,"persistent_id":"","id":98976290,"location_subtype":"","month":"2022-01"},{"category":"anti-social-behaviour","location_type":"Force","location":{"latitude":"51.561783","street":{"id":971838,"name":"On or near Vivian Comma Close"},"longitude":"-0.100215"},"context":"","outcome_status":null,"persistent_id":"","id":98976292,"location_subtype":"","month":"2022-01"},{"category":"anti-social-behaviour","location_type":"Force","location":{"latitude":"51.561783","street":{"id":971838,"name":"On or near Vivian Comma Close"},"longitude":"-0.100215"},"context":"","outcome_status":null,"persistent_id":"","id":98976293,"location_subtype":"","month":"2022-01"},{"category":"anti-social-behaviour","location_type":"Force","location":{"latitude":"51.561783","street":{"id":971838,"name":"On or near Vivian Comma Close"},"longitude":"-0.100215"},"context":"","outcome_status":null,"persistent_id":"","id":98976294,"location_subtype":"","month":"2022-01"},{"category":"anti-social-behaviour","location_type":"Force","location":{"latitude":"51.561783","street":{"id":971838,"name":"On or near Vivian Comma Close"},"longitude":"-0.100215"},"context":"","outcome_status":null,"persistent_id":"","id":98976295,"location_subtype":"","month":"2022-01"},{"category":"anti-social-behaviour","location_type":"Force","location":{"latitude":"51.561783","street":{"id":971838,"name":"On or near Vivian Comma Close"},"longitude":"-0.100215"},"context":"","outcome_status":null,"persistent_id":"","id":98976296,"location_subtype":"","month":"2022-01"},{"category":"anti-social-behaviour","location_type":"Force","location":{"latitude":"51.565344","street":{"id":971843,"name":"On or near Princess Crescent"},"longitude":"-0.098566"},"context":"","outcome_status":null,"persistent_id":"","id":98976297,"location_subtype":"","month":"2022-01"},{"category":"anti-social-behaviour","location_type":"Force","location":{"latitude":"51.565344","street":{"id":971843,"name":"On or near Princess Crescent"},"longitude":"-0.098566"},"context":"","outcome_status":null,"persistent_id":"","id":98976298,"location_subtype":"","month":"2022-01"},{"category":"anti-social-behaviour","location_type":"Force","location":{"latitude":"51.567338","street":{"id":971881,"name":"On or near Alexandra Grove"},"longitude":"-0.097876"},"context":"","outcome_status":null,"persistent_id":"","id":98976299,"location_subtype":"","month":"2022-01"},{"category":"anti-social-behaviour","location_type":"Force","location":{"latitude":"51.567338","street":{"id":971881,"name":"On or near Alexandra Grove"},"longitude":"-0.097876"},"context":"","outcome_status":null,"persistent_id":"","id":98976300,"location_subtype":"","month":"2022-01"},{"category":"anti-social-behaviour","location_type":"Force","location":{"latitude":"51.565344","street":{"id":971843,"name":"On or near Princess Crescent"},"longitude":"-0.098566"},"context":"","outcome_status":null,"persistent_id":"","id":98976301,"location_subtype":"","month":"2022-01"},{"category":"anti-social-behaviour","location_type":"Force","location":{"latitude":"51.570989","street":{"id":975133,"name":"On or near Pedestrian Subway"},"longitude":"-0.096194"},"context":"","outcome_status":null,"persistent_id":"","id":98976302,"location_subtype":"","month":"2022-01"},{"category":"anti-social-behaviour","location_type":"Force","location":{"latitude":"51.570989","street":{"id":975133,"name":"On or near Pedestrian Subway"},"longitude":"-0.096194"},"context":"","outcome_status":null,"persistent_id":"","id":98976303,"location_subtype":"","month":"2022-01"},{"category":"anti-social-behaviour","location_type":"Force","location":{"latitude":"51.577289","street":{"id":975125,"name":"On or near Supermarket"},"longitude":"-0.095412"},"context":"","outcome_status":null,"persistent_id":"","id":98976304,"location_subtype":"","month":"2022-01"},{"category":"anti-social-behaviour","location_type":"Force","location":{"latitude":"51.562713","street":{"id":971862,"name":"On or near Brownswood Road"},"longitude":"-0.096021"},"context":"","outcome_status":null,"persistent_id":"","id":98976305,"location_subtype":"","month":"2022-01"},{"category":"anti-social-behaviour","location_type":"Force","location":{"latitude":"51.562713","street":{"id":971862,"name":"On or near Brownswood Road"},"longitude":"-0.096021"},"context":"","outcome_status":null,"persistent_id":"","id":98976306,"location_subtype":"","month":"2022-01"},{"category":"anti-social-behaviour","location_type":"Force","location":{"latitude":"51.564892","street":{"id":971846,"name":"On or near Myddleton Avenue"},"longitude":"-0.095627"},"context":"","outcome_status":null,"persistent_id":"","id":98976308,"location_subtype":"","month":"2022-01"},{"category":"anti-social-behaviour","location_type":"Force","location":{"latitude":"51.564892","street":{"id":971846,"name":"On or near Myddleton Avenue"},"longitude":"-0.095627"},"context":"","outcome_status":null,"persistent_id":"","id":98976309,"location_subtype":"","month":"2022-01"},{"category":"anti-social-behaviour","location_type":"Force","location":{"latitude":"51.569026","street":{"id":971877,"name":"On or near Green Lanes"},"longitude":"-0.094372"},"context":"","outcome_status":null,"persistent_id":"","id":98976310,"location_subtype":"","month":"2022-01"},{"category":"anti-social-behaviour","location_type":"Force","location":{"latitude":"51.571113","street":{"id":975137,"name":"On or near Nightclub"},"longitude":"-0.095511"},"context":"","outcome_status":null,"persistent_id":"","id":98976311,"location_subtype":"","month":"2022-01"},{"category":"anti-social-behaviour","location_type":"Force","location":{"latitude":"51.571113","street":{"id":975137,"name":"On or near Nightclub"},"longitude":"-0.095511"},"context":"","outcome_status":null,"persistent_id":"","id":98976312,"location_subtype":"","month":"2022-01"},{"category":"anti-social-behaviour","location_type":"Force","location":{"latitude":"51.569026","street":{"id":971877,"name":"On or near Green Lanes"},"longitude":"-0.094372"},"context":"","outcome_status":null,"persistent_id":"","id":98976313,"location_subtype":"","month":"2022-01"},{"category":"anti-social-behaviour","location_type":"Force","location":{"latitude":"51.572841","street":{"id":975134,"name":"On or near Woodberry Grove"},"longitude":"-0.093418"},"context":"","outcome_status":null,"persistent_id":"","id":98976315,"location_subtype":"","month":"2022-01"},{"category":"anti-social-behaviour","location_type":"Force","location":{"latitude":"51.572841","street":{"id":975134,"name":"On or near Woodberry Grove"},"longitude":"-0.093418"},"context":"","outcome_status":null,"persistent_id":"","id":98976316,"location_subtype":"","month":"2022-01"},{"category":"anti-social-behaviour","location_type":"Force","location":{"latitude":"51.563591","street":{"id":971855,"name":"On or near Digby Crescent"},"longitude":"-0.095234"},"context":"","outcome_status":null,"persistent_id":"","id":98976317,"location_subtype":"","month":"2022-01"},{"category":"anti-social-behaviour","location_type":"Force","location":{"latitude":"51.563591","street":{"id":971855,"name":"On or near Digby Crescent"},"longitude":"-0.095234"},"context":"","outcome_status":null,"persistent_id":"","id":98976318,"location_subtype":"","month":"2022-01"},{"category":"anti-social-behaviour","location_type":"Force","location":{"latitude":"51.572841","street":{"id":975134,"name":"On or near Woodberry Grove"},"longitude":"-0.093418"},"context":"","outcome_status":null,"persistent_id":"","id":98976319,"location_subtype":"","month":"2022-01"},{"category":"anti-social-behaviour","location_type":"Force","location":{"latitude":"51.571173","street":{"id":975140,"name":"On or near Woodberry Down"},"longitude":"-0.092565"},"context":"","outcome_status":null,"persistent_id":"","id":98976320,"location_subtype":"","month":"2022-01"},{"category":"anti-social-behaviour","location_type":"Force","location":{"latitude":"51.565934","street":{"id":971861,"name":"On or near Castleview Close"},"longitude":"-0.093924"},"context":"","outcome_status":null,"persistent_id":"","id":98976321,"location_subtype":"","month":"2022-01"},{"category":"anti-social-behaviour","location_type":"Force","location":{"latitude":"51.572841","street":{"id":975134,"name":"On or near Woodberry Grove"},"longitude":"-0.093418"},"context":"","outcome_status":null,"persistent_id":"","id":98976323,"location_subtype":"","month":"2022-01"},{"category":"anti-social-behaviour","location_type":"Force","location":{"latitude":"51.572841","street":{"id":975134,"name":"On or near Woodberry Grove"},"longitude":"-0.093418"},"context":"","outcome_status":null,"persistent_id":"","id":98976324,"location_subtype":"","month":"2022-01"},{"category":"anti-social-behaviour","location_type":"Force","location":{"latitude":"51.572841","street":{"id":975134,"name":"On or near Woodberry Grove"},"longitude":"-0.093418"},"context":"","outcome_status":null,"persistent_id":"","id":98976325,"location_subtype":"","month":"2022-01"},{"category":"anti-social-behaviour","location_type":"Force","location":{"latitude":"51.563329","street":{"id":971890,"name":"On or near Greenway Close"},"longitude":"-0.090729"},"context":"","outcome_status":null,"persistent_id":"","id":98976328,"location_subtype":"","month":"2022-01"},{"category":"anti-social-behaviour","location_type":"Force","location":{"latitude":"51.570070","street":{"id":971919,"name":"On or near Towncourt Path"},"longitude":"-0.092178"},"context":"","outcome_status":null,"persistent_id":"","id":98976330,"location_subtype":"","month":"2022-01"},{"category":"anti-social-behaviour","location_type":"Force","location":{"latitude":"51.570070","street":{"id":971919,"name":"On or near Towncourt Path"},"longitude":"-0.092178"},"context":"","outcome_status":null,"persistent_id":"","id":98976331,"location_subtype":"","month":"2022-01"},{"category":"anti-social-behaviour","location_type":"Force","location":{"latitude":"51.570070","street":{"id":971919,"name":"On or near Towncourt Path"},"longitude":"-0.092178"},"context":"","outcome_status":null,"persistent_id":"","id":98976332,"location_subtype":"","month":"2022-01"},{"category":"anti-social-behaviour","location_type":"Force","location":{"latitude":"51.570070","street":{"id":971919,"name":"On or near Towncourt Path"},"longitude":"-0.092178"},"context":"","outcome_status":null,"persistent_id":"","id":98976333,"location_subtype":"","month":"2022-01"},{"category":"anti-social-behaviour","location_type":"Force","location":{"latitude":"51.570070","street":{"id":971919,"name":"On or near Towncourt Path"},"longitude":"-0.092178"},"context":"","outcome_status":null,"persistent_id":"","id":98976334,"location_subtype":"","month":"2022-01"},{"category":"anti-social-behaviour","location_type":"Force","location":{"latitude":"51.570070","street":{"id":971919,"name":"On or near Towncourt Path"},"longitude":"-0.092178"},"context":"","outcome_status":null,"persistent_id":"","id":98976335,"location_subtype":"","month":"2022-01"},{"category":"anti-social-behaviour","location_type":"Force","location":{"latitude":"51.572554","street":{"id":975141,"name":"On or near Seven Sisters Road"},"longitude":"-0.090674"},"context":"","outcome_status":null,"persistent_id":"","id":98976336,"location_subtype":"","month":"2022-01"},{"category":"anti-social-behaviour","location_type":"Force","location":{"latitude":"51.572554","street":{"id":975141,"name":"On or near Seven Sisters Road"},"longitude":"-0.090674"},"context":"","outcome_status":null,"persistent_id":"","id":98976337,"location_subtype":"","month":"2022-01"},{"category":"anti-social-behaviour","location_type":"Force","location":{"latitude":"51.572554","street":{"id":975141,"name":"On or near Seven Sisters Road"},"longitude":"-0.090674"},"context":"","outcome_status":null,"persistent_id":"","id":98976338,"location_subtype":"","month":"2022-01"},{"category":"anti-social-behaviour","location_type":"Force","location":{"latitude":"51.572554","street":{"id":975141,"name":"On or near Seven Sisters Road"},"longitude":"-0.090674"},"context":"","outcome_status":null,"persistent_id":"","id":98976339,"location_subtype":"","month":"2022-01"},{"category":"anti-social-behaviour","location_type":"Force","location":{"latitude":"51.555056","street":{"id":968354,"name":"On or near Petherton Road"},"longitude":"-0.090210"},"context":"","outcome_status":null,"persistent_id":"","id":98976340,"location_subtype":"","month":"2022-01"},{"category":"anti-social-behaviour","location_type":"Force","location":{"latitude":"51.554434","street":{"id":968360,"name":"On or near Green Lanes"},"longitude":"-0.088981"},"context":"","outcome_status":null,"persistent_id":"","id":98976345,"location_subtype":"","month":"2022-01"},{"category":"anti-social-behaviour","location_type":"Force","location":{"latitude":"51.549446","street":{"id":967519,"name":"On or near Kingdon Road"},"longitude":"-0.193068"},"context":"","outcome_status":null,"persistent_id":"","id":98971322,"location_subtype":"","month":"2022-01"},{"category":"anti-social-behaviour","location_type":"Force","location":{"latitude":"51.550764","street":{"id":967520,"name":"On or near Inglewood Road"},"longitude":"-0.192813"},"context":"","outcome_status":null,"persistent_id":"","id":98971323,"location_subtype":"","month":"2022-01"},{"category":"anti-social-behaviour","location_type":"Force","location":{"latitude":"51.542792","street":{"id":965351,"name":"On or near West End Lane"},"longitude":"-0.193072"},"context":"","outcome_status":null,"persistent_id":"","id":98971324,"location_subtype":"","month":"2022-01"},{"category":"anti-social-behaviour","location_type":"Force","location":{"latitude":"51.541133","street":{"id":965362,"name":"On or near Quex Road"},"longitude":"-0.192229"},"context":"","outcome_status":null,"persistent_id":"","id":98971325,"location_subtype":"","month":"2022-01"},{"category":"anti-social-behaviour","location_type":"Force","location":{"latitude":"51.541133","street":{"id":965362,"name":"On or near Quex Road"},"longitude":"-0.192229"},"context":"","outcome_status":null,"persistent_id":"","id":98971326,"location_subtype":"","month":"2022-01"},{"category":"anti-social-behaviour","location_type":"Force","location":{"latitude":"51.546319","street":{"id":967622,"name":"On or near Nightclub"},"longitude":"-0.191432"},"context":"","outcome_status":null,"persistent_id":"","id":98971327,"location_subtype":"","month":"2022-01"},{"category":"anti-social-behaviour","location_type":"Force","location":{"latitude":"51.546319","street":{"id":967622,"name":"On or near Nightclub"},"longitude":"-0.191432"},"context":"","outcome_status":null,"persistent_id":"","id":98971328,"location_subtype":"","month":"2022-01"},{"category":"anti-social-behaviour","location_type":"Force","location":{"latitude":"51.549395","street":{"id":967516,"name":"On or near Sandwell Crescent"},"longitude":"-0.192089"},"context":"","outcome_status":null,"persistent_id":"","id":98971329,"location_subtype":"","month":"2022-01"},{"category":"anti-social-behaviour","location_type":"Force","location":{"latitude":"51.541048","street":{"id":965353,"name":"On or near West End Lane"},"longitude":"-0.191958"},"context":"","outcome_status":null,"persistent_id":"","id":98971330,"location_subtype":"","month":"2022-01"},{"category":"anti-social-behaviour","location_type":"Force","location":{"latitude":"51.541048","street":{"id":965353,"name":"On or near West End Lane"},"longitude":"-0.191958"},"context":"","outcome_status":null,"persistent_id":"","id":98971331,"location_subtype":"","month":"2022-01"},{"category":"anti-social-behaviour","location_type":"Force","location":{"latitude":"51.540151","street":{"id":965401,"name":"On or near Bransdale Close"},"longitude":"-0.192066"},"context":"","outcome_status":null,"persistent_id":"","id":98971332,"location_subtype":"","month":"2022-01"},{"category":"anti-social-behaviour","location_type":"Force","location":{"latitude":"51.540151","street":{"id":965401,"name":"On or near Bransdale Close"},"longitude":"-0.192066"},"context":"","outcome_status":null,"persistent_id":"","id":98971333,"location_subtype":"","month":"2022-01"},{"category":"anti-social-behaviour","location_type":"Force","location":{"latitude":"51.540151","street":{"id":965401,"name":"On or near Bransdale Close"},"longitude":"-0.192066"},"context":"","outcome_status":null,"persistent_id":"","id":98971334,"location_subtype":"","month":"2022-01"},{"category":"anti-social-behaviour","location_type":"Force","location":{"latitude":"51.540151","street":{"id":965401,"name":"On or near Bransdale Close"},"longitude":"-0.192066"},"context":"","outcome_status":null,"persistent_id":"","id":98971335,"location_subtype":"","month":"2022-01"},{"category":"anti-social-behaviour","location_type":"Force","location":{"latitude":"51.547131","street":{"id":967620,"name":"On or near Blackburn Road"},"longitude":"-0.189900"},"context":"","outcome_status":null,"persistent_id":"","id":98971336,"location_subtype":"","month":"2022-01"},{"category":"anti-social-behaviour","location_type":"Force","location":{"latitude":"51.543111","street":{"id":965349,"name":"On or near Woodchurch Road"},"longitude":"-0.190997"},"context":"","outcome_status":null,"persistent_id":"","id":98971337,"location_subtype":"","month":"2022-01"},{"category":"anti-social-behaviour","location_type":"Force","location":{"latitude":"51.543111","street":{"id":965349,"name":"On or near Woodchurch Road"},"longitude":"-0.190997"},"context":"","outcome_status":null,"persistent_id":"","id":98971338,"location_subtype":"","month":"2022-01"},{"category":"anti-social-behaviour","location_type":"Force","location":{"latitude":"51.546423","street":{"id":967619,"name":"On or near Broadhurst Gardens"},"longitude":"-0.190029"},"context":"","outcome_status":null,"persistent_id":"","id":98971339,"location_subtype":"","month":"2022-01"},{"category":"anti-social-behaviour","location_type":"Force","location":{"latitude":"51.541750","street":{"id":965463,"name":"On or near St Mary's Mews"},"longitude":"-0.189089"},"context":"","outcome_status":null,"persistent_id":"","id":98971340,"location_subtype":"","month":"2022-01"},{"category":"anti-social-behaviour","location_type":"Force","location":{"latitude":"51.546423","street":{"id":967619,"name":"On or near Broadhurst Gardens"},"longitude":"-0.190029"},"context":"","outcome_status":null,"persistent_id":"","id":98971341,"location_subtype":"","month":"2022-01"},{"category":"anti-social-behaviour","location_type":"Force","location":{"latitude":"51.548950","street":{"id":967525,"name":"On or near Crown Close"},"longitude":"-0.188284"},"context":"","outcome_status":null,"persistent_id":"","id":98971342,"location_subtype":"","month":"2022-01"},{"category":"anti-social-behaviour","location_type":"Force","location":{"latitude":"51.548950","street":{"id":967525,"name":"On or near Crown Close"},"longitude":"-0.188284"},"context":"","outcome_status":null,"persistent_id":"","id":98971343,"location_subtype":"","month":"2022-01"},{"category":"anti-social-behaviour","location_type":"Force","location":{"latitude":"51.553250","street":{"id":967557,"name":"On or near Cannon Hill"},"longitude":"-0.191301"},"context":"","outcome_status":null,"persistent_id":"","id":98971345,"location_subtype":"","month":"2022-01"},{"category":"anti-social-behaviour","location_type":"Force","location":{"latitude":"51.541750","street":{"id":965463,"name":"On or near St Mary's Mews"},"longitude":"-0.189089"},"context":"","outcome_status":null,"persistent_id":"","id":98971347,"location_subtype":"","month":"2022-01"},{"category":"anti-social-behaviour","location_type":"Force","location":{"latitude":"51.546423","street":{"id":967619,"name":"On or near Broadhurst Gardens"},"longitude":"-0.190029"},"context":"","outcome_status":null,"persistent_id":"","id":98971350,"location_subtype":"","month":"2022-01"},{"category":"anti-social-behaviour","location_type":"Force","location":{"latitude":"51.543754","street":{"id":965365,"name":"On or near Priory Road"},"longitude":"-0.188995"},"context":"","outcome_status":null,"persistent_id":"","id":98971352,"location_subtype":"","month":"2022-01"},{"category":"anti-social-behaviour","location_type":"Force","location":{"latitude":"51.540064","street":{"id":965171,"name":"On or near Belsize Road"},"longitude":"-0.186474"},"context":"","outcome_status":null,"persistent_id":"","id":98971353,"location_subtype":"","month":"2022-01"},{"category":"anti-social-behaviour","location_type":"Force","location":{"latitude":"51.540064","street":{"id":965171,"name":"On or near Belsize Road"},"longitude":"-0.186474"},"context":"","outcome_status":null,"persistent_id":"","id":98971354,"location_subtype":"","month":"2022-01"},{"category":"anti-social-behaviour","location_type":"Force","location":{"latitude":"51.540064","street":{"id":965171,"name":"On or near Belsize Road"},"longitude":"-0.186474"},"context":"","outcome_status":null,"persistent_id":"","id":98971355,"location_subtype":"","month":"2022-01"},{"category":"anti-social-behaviour","location_type":"Force","location":{"latitude":"51.549414","street":{"id":967724,"name":"On or near Dresden Close"},"longitude":"-0.185742"},"context":"","outcome_status":null,"persistent_id":"","id":98971356,"location_subtype":"","month":"2022-01"},{"category":"anti-social-behaviour","location_type":"Force","location":{"latitude":"51.549414","street":{"id":967724,"name":"On or near Dresden Close"},"longitude":"-0.185742"},"context":"","outcome_status":null,"persistent_id":"","id":98971357,"location_subtype":"","month":"2022-01"},{"category":"anti-social-behaviour","location_type":"Force","location":{"latitude":"51.549422","street":{"id":967720,"name":"On or near Lithos Road"},"longitude":"-0.183953"},"context":"","outcome_status":null,"persistent_id":"","id":98971359,"location_subtype":"","month":"2022-01"},{"category":"anti-social-behaviour","location_type":"Force","location":{"latitude":"51.540234","street":{"id":965148,"name":"On or near Rowley Way"},"longitude":"-0.183468"},"context":"","outcome_status":null,"persistent_id":"","id":98971361,"location_subtype":"","month":"2022-01"},{"category":"anti-social-behaviour","location_type":"Force","location":{"latitude":"51.540234","street":{"id":965148,"name":"On or near Rowley Way"},"longitude":"-0.183468"},"context":"","outcome_status":null,"persistent_id":"","id":98971362,"location_subtype":"","month":"2022-01"},{"category":"anti-social-behaviour","location_type":"Force","location":{"latitude":"51.547051","street":{"id":967782,"name":"On or near Canfield Place"},"longitude":"-0.181192"},"context":"","outcome_status":null,"persistent_id":"","id":98971363,"location_subtype":"","month":"2022-01"},{"category":"anti-social-behaviour","location_type":"Force","location":{"latitude":"51.547051","street":{"id":967782,"name":"On or near Canfield Place"},"longitude":"-0.181192"},"context":"","outcome_status":null,"persistent_id":"","id":98971364,"location_subtype":"","month":"2022-01"},{"category":"anti-social-behaviour","location_type":"Force","location":{"latitude":"51.547945","street":{"id":967786,"name":"On or near Nightclub"},"longitude":"-0.181430"},"context":"","outcome_status":null,"persistent_id":"","id":98971365,"location_subtype":"","month":"2022-01"},{"category":"anti-social-behaviour","location_type":"Force","location":{"latitude":"51.561808","street":{"id":972304,"name":"On or near Whitestone Walk"},"longitude":"-0.180084"},"context":"","outcome_status":null,"persistent_id":"","id":98971367,"location_subtype":"","month":"2022-01"},{"category":"anti-social-behaviour","location_type":"Force","location":{"latitude":"51.547945","street":{"id":967786,"name":"On or near Nightclub"},"longitude":"-0.181430"},"context":"","outcome_status":null,"persistent_id":"","id":98971368,"location_subtype":"","month":"2022-01"},{"category":"anti-social-behaviour","location_type":"Force","location":{"latitude":"51.541738","street":{"id":965158,"name":"On or near Fairhazel Gardens"},"longitude":"-0.180120"},"context":"","outcome_status":null,"persistent_id":"","id":98971369,"location_subtype":"","month":"2022-01"},{"category":"anti-social-behaviour","location_type":"Force","location":{"latitude":"51.546333","street":{"id":967781,"name":"On or near Goldhurst Terrace"},"longitude":"-0.179014"},"context":"","outcome_status":null,"persistent_id":"","id":98971370,"location_subtype":"","month":"2022-01"},{"category":"anti-social-behaviour","location_type":"Force","location":{"latitude":"51.546333","street":{"id":967781,"name":"On or near Goldhurst Terrace"},"longitude":"-0.179014"},"context":"","outcome_status":null,"persistent_id":"","id":98971371,"location_subtype":"","month":"2022-01"},{"category":"anti-social-behaviour","location_type":"Force","location":{"latitude":"51.546333","street":{"id":967781,"name":"On or near Goldhurst Terrace"},"longitude":"-0.179014"},"context":"","outcome_status":null,"persistent_id":"","id":98971372,"location_subtype":"","month":"2022-01"},{"category":"anti-social-behaviour","location_type":"Force","location":{"latitude":"51.546333","street":{"id":967781,"name":"On or near Goldhurst Terrace"},"longitude":"-0.179014"},"context":"","outcome_status":null,"persistent_id":"","id":98971373,"location_subtype":"","month":"2022-01"},{"category":"anti-social-behaviour","location_type":"Force","location":{"latitude":"51.542220","street":{"id":965178,"name":"On or near Supermarket"},"longitude":"-0.178760"},"context":"","outcome_status":null,"persistent_id":"","id":98971374,"location_subtype":"","month":"2022-01"},{"category":"anti-social-behaviour","location_type":"Force","location":{"latitude":"51.546333","street":{"id":967781,"name":"On or near Goldhurst Terrace"},"longitude":"-0.179014"},"context":"","outcome_status":null,"persistent_id":"","id":98971375,"location_subtype":"","month":"2022-01"},{"category":"anti-social-behaviour","location_type":"Force","location":{"latitude":"51.556503","street":{"id":967753,"name":"On or near Holly Bush Vale"},"longitude":"-0.178968"},"context":"","outcome_status":null,"persistent_id":"","id":98971376,"location_subtype":"","month":"2022-01"},{"category":"anti-social-behaviour","location_type":"Force","location":{"latitude":"51.545717","street":{"id":965240,"name":"On or near Petrol Station"},"longitude":"-0.177538"},"context":"","outcome_status":null,"persistent_id":"","id":98971377,"location_subtype":"","month":"2022-01"},{"category":"anti-social-behaviour","location_type":"Force","location":{"latitude":"51.554503","street":{"id":967652,"name":"On or near Parking Area"},"longitude":"-0.176423"},"context":"","outcome_status":null,"persistent_id":"","id":98971378,"location_subtype":"","month":"2022-01"},{"category":"anti-social-behaviour","location_type":"Force","location":{"latitude":"51.554503","street":{"id":967652,"name":"On or near Parking Area"},"longitude":"-0.176423"},"context":"","outcome_status":null,"persistent_id":"","id":98971379,"location_subtype":"","month":"2022-01"},{"category":"anti-social-behaviour","location_type":"Force","location":{"latitude":"51.554503","street":{"id":967652,"name":"On or near Parking Area"},"longitude":"-0.176423"},"context":"","outcome_status":null,"persistent_id":"","id":98971380,"location_subtype":"","month":"2022-01"},{"category":"anti-social-behaviour","location_type":"Force","location":{"latitude":"51.554503","street":{"id":967652,"name":"On or near Parking Area"},"longitude":"-0.176423"},"context":"","outcome_status":null,"persistent_id":"","id":98971381,"location_subtype":"","month":"2022-01"},{"category":"anti-social-behaviour","location_type":"Force","location":{"latitude":"51.543084","street":{"id":965224,"name":"On or near Dobson Close"},"longitude":"-0.176519"},"context":"","outcome_status":null,"persistent_id":"","id":98971382,"location_subtype":"","month":"2022-01"},{"category":"anti-social-behaviour","location_type":"Force","location":{"latitude":"51.541747","street":{"id":965236,"name":"On or near Adelaide Road"},"longitude":"-0.174351"},"context":"","outcome_status":null,"persistent_id":"","id":98971383,"location_subtype":"","month":"2022-01"},{"category":"anti-social-behaviour","location_type":"Force","location":{"latitude":"51.569708","street":{"id":972327,"name":"On or near Spaniards Road"},"longitude":"-0.174011"},"context":"","outcome_status":null,"persistent_id":"","id":98971384,"location_subtype":"","month":"2022-01"},{"category":"anti-social-behaviour","location_type":"Force","location":{"latitude":"51.544871","street":{"id":965228,"name":"On or near College Crescent"},"longitude":"-0.175149"},"context":"","outcome_status":null,"persistent_id":"","id":98971385,"location_subtype":"","month":"2022-01"},{"category":"anti-social-behaviour","location_type":"Force","location":{"latitude":"51.542741","street":{"id":965233,"name":"On or near Avenue Road"},"longitude":"-0.174124"},"context":"","outcome_status":null,"persistent_id":"","id":98971386,"location_subtype":"","month":"2022-01"},{"category":"anti-social-behaviour","location_type":"Force","location":{"latitude":"51.552811","street":{"id":967665,"name":"On or near Rosslyn Park Mews"},"longitude":"-0.171081"},"context":"","outcome_status":null,"persistent_id":"","id":98971387,"location_subtype":"","month":"2022-01"},{"category":"anti-social-behaviour","location_type":"Force","location":{"latitude":"51.551565","street":{"id":967678,"name":"On or near Lyndhurst Gardens"},"longitude":"-0.171376"},"context":"","outcome_status":null,"persistent_id":"","id":98971388,"location_subtype":"","month":"2022-01"},{"category":"anti-social-behaviour","location_type":"Force","location":{"latitude":"51.551565","street":{"id":967678,"name":"On or near Lyndhurst Gardens"},"longitude":"-0.171376"},"context":"","outcome_status":null,"persistent_id":"","id":98971389,"location_subtype":"","month":"2022-01"},{"category":"anti-social-behaviour","location_type":"Force","location":{"latitude":"51.548799","street":{"id":967637,"name":"On or near Belsize Terrace"},"longitude":"-0.170997"},"context":"","outcome_status":null,"persistent_id":"","id":98971390,"location_subtype":"","month":"2022-01"},{"category":"anti-social-behaviour","location_type":"Force","location":{"latitude":"51.555985","street":{"id":967689,"name":"On or near Downshire Hill"},"longitude":"-0.169930"},"context":"","outcome_status":null,"persistent_id":"","id":98971391,"location_subtype":"","month":"2022-01"},{"category":"anti-social-behaviour","location_type":"Force","location":{"latitude":"51.548799","street":{"id":967637,"name":"On or near Belsize Terrace"},"longitude":"-0.170997"},"context":"","outcome_status":null,"persistent_id":"","id":98971392,"location_subtype":"","month":"2022-01"},{"category":"anti-social-behaviour","location_type":"Force","location":{"latitude":"51.547137","street":{"id":967794,"name":"On or near Belsize Square"},"longitude":"-0.170530"},"context":"","outcome_status":null,"persistent_id":"","id":98971393,"location_subtype":"","month":"2022-01"},{"category":"anti-social-behaviour","location_type":"Force","location":{"latitude":"51.543211","street":{"id":965190,"name":"On or near Briary Close"},"longitude":"-0.168452"},"context":"","outcome_status":null,"persistent_id":"","id":98971394,"location_subtype":"","month":"2022-01"},{"category":"anti-social-behaviour","location_type":"Force","location":{"latitude":"51.555801","street":{"id":967707,"name":"On or near Keats Grove"},"longitude":"-0.168495"},"context":"","outcome_status":null,"persistent_id":"","id":98971395,"location_subtype":"","month":"2022-01"},{"category":"anti-social-behaviour","location_type":"Force","location":{"latitude":"51.555801","street":{"id":967707,"name":"On or near Keats Grove"},"longitude":"-0.168495"},"context":"","outcome_status":null,"persistent_id":"","id":98971396,"location_subtype":"","month":"2022-01"},{"category":"anti-social-behaviour","location_type":"Force","location":{"latitude":"51.555801","street":{"id":967707,"name":"On or near Keats Grove"},"longitude":"-0.168495"},"context":"","outcome_status":null,"persistent_id":"","id":98971398,"location_subtype":"","month":"2022-01"},{"category":"anti-social-behaviour","location_type":"Force","location":{"latitude":"51.551604","street":{"id":967711,"name":"On or near Petrol Station"},"longitude":"-0.166975"},"context":"","outcome_status":null,"persistent_id":"","id":98972202,"location_subtype":"","month":"2022-01"},{"category":"anti-social-behaviour","location_type":"Force","location":{"latitude":"51.551604","street":{"id":967711,"name":"On or near Petrol Station"},"longitude":"-0.166975"},"context":"","outcome_status":null,"persistent_id":"","id":98972203,"location_subtype":"","month":"2022-01"},{"category":"anti-social-behaviour","location_type":"Force","location":{"latitude":"51.551604","street":{"id":967711,"name":"On or near Petrol Station"},"longitude":"-0.166975"},"context":"","outcome_status":null,"persistent_id":"","id":98972204,"location_subtype":"","month":"2022-01"},{"category":"anti-social-behaviour","location_type":"Force","location":{"latitude":"51.549068","street":{"id":967880,"name":"On or near Glenmore Road"},"longitude":"-0.166385"},"context":"","outcome_status":null,"persistent_id":"","id":98972205,"location_subtype":"","month":"2022-01"},{"category":"anti-social-behaviour","location_type":"Force","location":{"latitude":"51.550587","street":{"id":967883,"name":"On or near Downside Crescent"},"longitude":"-0.162891"},"context":"","outcome_status":null,"persistent_id":"","id":98972213,"location_subtype":"","month":"2022-01"},{"category":"anti-social-behaviour","location_type":"Force","location":{"latitude":"51.551593","street":{"id":967920,"name":"On or near Aspern Grove"},"longitude":"-0.164538"},"context":"","outcome_status":null,"persistent_id":"","id":98972206,"location_subtype":"","month":"2022-01"},{"category":"anti-social-behaviour","location_type":"Force","location":{"latitude":"51.551593","street":{"id":967920,"name":"On or near Aspern Grove"},"longitude":"-0.164538"},"context":"","outcome_status":null,"persistent_id":"","id":98972207,"location_subtype":"","month":"2022-01"},{"category":"anti-social-behaviour","location_type":"Force","location":{"latitude":"51.551593","street":{"id":967920,"name":"On or near Aspern Grove"},"longitude":"-0.164538"},"context":"","outcome_status":null,"persistent_id":"","id":98972208,"location_subtype":"","month":"2022-01"},{"category":"anti-social-behaviour","location_type":"Force","location":{"latitude":"51.555039","street":{"id":967893,"name":"On or near St Crispins Close"},"longitude":"-0.164659"},"context":"","outcome_status":null,"persistent_id":"","id":98972209,"location_subtype":"","month":"2022-01"},{"category":"anti-social-behaviour","location_type":"Force","location":{"latitude":"51.555039","street":{"id":967893,"name":"On or near St Crispins Close"},"longitude":"-0.164659"},"context":"","outcome_status":null,"persistent_id":"","id":98972210,"location_subtype":"","month":"2022-01"},{"category":"anti-social-behaviour","location_type":"Force","location":{"latitude":"51.555039","street":{"id":967893,"name":"On or near St Crispins Close"},"longitude":"-0.164659"},"context":"","outcome_status":null,"persistent_id":"","id":98972211,"location_subtype":"","month":"2022-01"},{"category":"anti-social-behaviour","location_type":"Force","location":{"latitude":"51.553842","street":{"id":967912,"name":"On or near Fleet Road"},"longitude":"-0.164029"},"context":"","outcome_status":null,"persistent_id":"","id":98972212,"location_subtype":"","month":"2022-01"},{"category":"anti-social-behaviour","location_type":"Force","location":{"latitude":"51.545483","street":{"id":965057,"name":"On or near Further\/higher Educational Building"},"longitude":"-0.161972"},"context":"","outcome_status":null,"persistent_id":"","id":98972214,"location_subtype":"","month":"2022-01"},{"category":"anti-social-behaviour","location_type":"Force","location":{"latitude":"51.545483","street":{"id":965057,"name":"On or near Further\/higher Educational Building"},"longitude":"-0.161972"},"context":"","outcome_status":null,"persistent_id":"","id":98972215,"location_subtype":"","month":"2022-01"},{"category":"anti-social-behaviour","location_type":"Force","location":{"latitude":"51.545483","street":{"id":965057,"name":"On or near Further\/higher Educational Building"},"longitude":"-0.161972"},"context":"","outcome_status":null,"persistent_id":"","id":98972216,"location_subtype":"","month":"2022-01"},{"category":"anti-social-behaviour","location_type":"Force","location":{"latitude":"51.553488","street":{"id":967913,"name":"On or near Fleet Road"},"longitude":"-0.161519"},"context":"","outcome_status":null,"persistent_id":"","id":98972217,"location_subtype":"","month":"2022-01"},{"category":"anti-social-behaviour","location_type":"Force","location":{"latitude":"51.548328","street":{"id":967886,"name":"On or near Antrim Grove"},"longitude":"-0.162203"},"context":"","outcome_status":null,"persistent_id":"","id":98972218,"location_subtype":"","month":"2022-01"},{"category":"anti-social-behaviour","location_type":"Force","location":{"latitude":"51.548328","street":{"id":967886,"name":"On or near Antrim Grove"},"longitude":"-0.162203"},"context":"","outcome_status":null,"persistent_id":"","id":98972219,"location_subtype":"","month":"2022-01"},{"category":"anti-social-behaviour","location_type":"Force","location":{"latitude":"51.548328","street":{"id":967886,"name":"On or near Antrim Grove"},"longitude":"-0.162203"},"context":"","outcome_status":null,"persistent_id":"","id":98972220,"location_subtype":"","month":"2022-01"},{"category":"anti-social-behaviour","location_type":"Force","location":{"latitude":"51.548328","street":{"id":967886,"name":"On or near Antrim Grove"},"longitude":"-0.162203"},"context":"","outcome_status":null,"persistent_id":"","id":98972221,"location_subtype":"","month":"2022-01"},{"category":"anti-social-behaviour","location_type":"Force","location":{"latitude":"51.548328","street":{"id":967886,"name":"On or near Antrim Grove"},"longitude":"-0.162203"},"context":"","outcome_status":null,"persistent_id":"","id":98972222,"location_subtype":"","month":"2022-01"},{"category":"anti-social-behaviour","location_type":"Force","location":{"latitude":"51.554515","street":{"id":967916,"name":"On or near Cressy Road"},"longitude":"-0.161060"},"context":"","outcome_status":null,"persistent_id":"","id":98972223,"location_subtype":"","month":"2022-01"},{"category":"anti-social-behaviour","location_type":"Force","location":{"latitude":"51.554515","street":{"id":967916,"name":"On or near Cressy Road"},"longitude":"-0.161060"},"context":"","outcome_status":null,"persistent_id":"","id":98972224,"location_subtype":"","month":"2022-01"},{"category":"anti-social-behaviour","location_type":"Force","location":{"latitude":"51.546454","street":{"id":967938,"name":"On or near England's Lane"},"longitude":"-0.161356"},"context":"","outcome_status":null,"persistent_id":"","id":98972225,"location_subtype":"","month":"2022-01"},{"category":"anti-social-behaviour","location_type":"Force","location":{"latitude":"51.553488","street":{"id":967913,"name":"On or near Fleet Road"},"longitude":"-0.161519"},"context":"","outcome_status":null,"persistent_id":"","id":98972226,"location_subtype":"","month":"2022-01"},{"category":"anti-social-behaviour","location_type":"Force","location":{"latitude":"51.551114","street":{"id":967890,"name":"On or near Upper Park Road"},"longitude":"-0.160375"},"context":"","outcome_status":null,"persistent_id":"","id":98972227,"location_subtype":"","month":"2022-01"},{"category":"anti-social-behaviour","location_type":"Force","location":{"latitude":"51.541667","street":{"id":965030,"name":"On or near Oppidans Road"},"longitude":"-0.160063"},"context":"","outcome_status":null,"persistent_id":"","id":98972228,"location_subtype":"","month":"2022-01"},{"category":"anti-social-behaviour","location_type":"Force","location":{"latitude":"51.547027","street":{"id":967931,"name":"On or near Stanbury Court"},"longitude":"-0.160064"},"context":"","outcome_status":null,"persistent_id":"","id":98972230,"location_subtype":"","month":"2022-01"},{"category":"anti-social-behaviour","location_type":"Force","location":{"latitude":"51.547027","street":{"id":967931,"name":"On or near Stanbury Court"},"longitude":"-0.160064"},"context":"","outcome_status":null,"persistent_id":"","id":98972231,"location_subtype":"","month":"2022-01"},{"category":"anti-social-behaviour","location_type":"Force","location":{"latitude":"51.543854","street":{"id":965041,"name":"On or near Eton Road"},"longitude":"-0.159571"},"context":"","outcome_status":null,"persistent_id":"","id":98972232,"location_subtype":"","month":"2022-01"},{"category":"anti-social-behaviour","location_type":"Force","location":{"latitude":"51.540335","street":{"id":965027,"name":"On or near Primrose Hill Road"},"longitude":"-0.159987"},"context":"","outcome_status":null,"persistent_id":"","id":98972233,"location_subtype":"","month":"2022-01"},{"category":"anti-social-behaviour","location_type":"Force","location":{"latitude":"51.540335","street":{"id":965027,"name":"On or near Primrose Hill Road"},"longitude":"-0.159987"},"context":"","outcome_status":null,"persistent_id":"","id":98972234,"location_subtype":"","month":"2022-01"},{"category":"anti-social-behaviour","location_type":"Force","location":{"latitude":"51.540335","street":{"id":965027,"name":"On or near Primrose Hill Road"},"longitude":"-0.159987"},"context":"","outcome_status":null,"persistent_id":"","id":98972235,"location_subtype":"","month":"2022-01"},{"category":"anti-social-behaviour","location_type":"Force","location":{"latitude":"51.545056","street":{"id":965042,"name":"On or near Eton Road"},"longitude":"-0.158268"},"context":"","outcome_status":null,"persistent_id":"","id":98972236,"location_subtype":"","month":"2022-01"},{"category":"anti-social-behaviour","location_type":"Force","location":{"latitude":"51.553522","street":{"id":967910,"name":"On or near Heathgate Place"},"longitude":"-0.158474"},"context":"","outcome_status":null,"persistent_id":"","id":98972237,"location_subtype":"","month":"2022-01"},{"category":"anti-social-behaviour","location_type":"Force","location":{"latitude":"51.541164","street":{"id":965050,"name":"On or near Chamberlain Street"},"longitude":"-0.157805"},"context":"","outcome_status":null,"persistent_id":"","id":98972238,"location_subtype":"","month":"2022-01"},{"category":"anti-social-behaviour","location_type":"Force","location":{"latitude":"51.555790","street":{"id":967837,"name":"On or near Savernake Road"},"longitude":"-0.155743"},"context":"","outcome_status":null,"persistent_id":"","id":98972239,"location_subtype":"","month":"2022-01"},{"category":"anti-social-behaviour","location_type":"Force","location":{"latitude":"51.549459","street":{"id":967805,"name":"On or near Thurlow Terrace"},"longitude":"-0.155148"},"context":"","outcome_status":null,"persistent_id":"","id":98972240,"location_subtype":"","month":"2022-01"},{"category":"anti-social-behaviour","location_type":"Force","location":{"latitude":"51.540924","street":{"id":965111,"name":"On or near Chalcot Square"},"longitude":"-0.155104"},"context":"","outcome_status":null,"persistent_id":"","id":98972241,"location_subtype":"","month":"2022-01"},{"category":"anti-social-behaviour","location_type":"Force","location":{"latitude":"51.540924","street":{"id":965111,"name":"On or near Chalcot Square"},"longitude":"-0.155104"},"context":"","outcome_status":null,"persistent_id":"","id":98972242,"location_subtype":"","month":"2022-01"},{"category":"anti-social-behaviour","location_type":"Force","location":{"latitude":"51.551998","street":{"id":967834,"name":"On or near Wellesley Road"},"longitude":"-0.153660"},"context":"","outcome_status":null,"persistent_id":"","id":98972243,"location_subtype":"","month":"2022-01"},{"category":"anti-social-behaviour","location_type":"Force","location":{"latitude":"51.551998","street":{"id":967834,"name":"On or near Wellesley Road"},"longitude":"-0.153660"},"context":"","outcome_status":null,"persistent_id":"","id":98972244,"location_subtype":"","month":"2022-01"},{"category":"anti-social-behaviour","location_type":"Force","location":{"latitude":"51.546767","street":{"id":967956,"name":"On or near Modbury Gardens"},"longitude":"-0.154983"},"context":"","outcome_status":null,"persistent_id":"","id":98972245,"location_subtype":"","month":"2022-01"},{"category":"anti-social-behaviour","location_type":"Force","location":{"latitude":"51.546767","street":{"id":967956,"name":"On or near Modbury Gardens"},"longitude":"-0.154983"},"context":"","outcome_status":null,"persistent_id":"","id":98972246,"location_subtype":"","month":"2022-01"},{"category":"anti-social-behaviour","location_type":"Force","location":{"latitude":"51.563863","street":{"id":972276,"name":"On or near Millfield Place"},"longitude":"-0.153353"},"context":"","outcome_status":null,"persistent_id":"","id":98972247,"location_subtype":"","month":"2022-01"},{"category":"anti-social-behaviour","location_type":"Force","location":{"latitude":"51.547904","street":{"id":967823,"name":"On or near Baptist Gardens"},"longitude":"-0.154620"},"context":"","outcome_status":null,"persistent_id":"","id":98972248,"location_subtype":"","month":"2022-01"},{"category":"anti-social-behaviour","location_type":"Force","location":{"latitude":"51.553711","street":{"id":967847,"name":"On or near Julia Street"},"longitude":"-0.152783"},"context":"","outcome_status":null,"persistent_id":"","id":98972251,"location_subtype":"","month":"2022-01"},{"category":"anti-social-behaviour","location_type":"Force","location":{"latitude":"51.549783","street":{"id":967820,"name":"On or near Gilden Crescent"},"longitude":"-0.152914"},"context":"","outcome_status":null,"persistent_id":"","id":98972252,"location_subtype":"","month":"2022-01"},{"category":"anti-social-behaviour","location_type":"Force","location":{"latitude":"51.545746","street":{"id":967947,"name":"On or near Truro Street"},"longitude":"-0.152962"},"context":"","outcome_status":null,"persistent_id":"","id":98972253,"location_subtype":"","month":"2022-01"},{"category":"anti-social-behaviour","location_type":"Force","location":{"latitude":"51.547176","street":{"id":967957,"name":"On or near Marsden Street"},"longitude":"-0.151837"},"context":"","outcome_status":null,"persistent_id":"","id":98972254,"location_subtype":"","month":"2022-01"},{"category":"anti-social-behaviour","location_type":"Force","location":{"latitude":"51.547176","street":{"id":967957,"name":"On or near Marsden Street"},"longitude":"-0.151837"},"context":"","outcome_status":null,"persistent_id":"","id":98972255,"location_subtype":"","month":"2022-01"},{"category":"anti-social-behaviour","location_type":"Force","location":{"latitude":"51.547176","street":{"id":967957,"name":"On or near Marsden Street"},"longitude":"-0.151837"},"context":"","outcome_status":null,"persistent_id":"","id":98972256,"location_subtype":"","month":"2022-01"},{"category":"anti-social-behaviour","location_type":"Force","location":{"latitude":"51.547836","street":{"id":967809,"name":"On or near Rhyl Street"},"longitude":"-0.150872"},"context":"","outcome_status":null,"persistent_id":"","id":98972257,"location_subtype":"","month":"2022-01"},{"category":"anti-social-behaviour","location_type":"Force","location":{"latitude":"51.548245","street":{"id":967825,"name":"On or near Athlone Street"},"longitude":"-0.148346"},"context":"","outcome_status":null,"persistent_id":"","id":98972271,"location_subtype":"","month":"2022-01"},{"category":"anti-social-behaviour","location_type":"Force","location":{"latitude":"51.542266","street":{"id":965086,"name":"On or near Juniper Crescent"},"longitude":"-0.151257"},"context":"","outcome_status":null,"persistent_id":"","id":98972261,"location_subtype":"","month":"2022-01"},{"category":"anti-social-behaviour","location_type":"Force","location":{"latitude":"51.557328","street":{"id":967844,"name":"On or near Lissenden Gardens"},"longitude":"-0.148958"},"context":"","outcome_status":null,"persistent_id":"","id":98972263,"location_subtype":"","month":"2022-01"},{"category":"anti-social-behaviour","location_type":"Force","location":{"latitude":"51.557328","street":{"id":967844,"name":"On or near Lissenden Gardens"},"longitude":"-0.148958"},"context":"","outcome_status":null,"persistent_id":"","id":98972264,"location_subtype":"","month":"2022-01"},{"category":"anti-social-behaviour","location_type":"Force","location":{"latitude":"51.557328","street":{"id":967844,"name":"On or near Lissenden Gardens"},"longitude":"-0.148958"},"context":"","outcome_status":null,"persistent_id":"","id":98972265,"location_subtype":"","month":"2022-01"},{"category":"anti-social-behaviour","location_type":"Force","location":{"latitude":"51.557328","street":{"id":967844,"name":"On or near Lissenden Gardens"},"longitude":"-0.148958"},"context":"","outcome_status":null,"persistent_id":"","id":98972266,"location_subtype":"","month":"2022-01"},{"category":"anti-social-behaviour","location_type":"Force","location":{"latitude":"51.557328","street":{"id":967844,"name":"On or near Lissenden Gardens"},"longitude":"-0.148958"},"context":"","outcome_status":null,"persistent_id":"","id":98972267,"location_subtype":"","month":"2022-01"},{"category":"anti-social-behaviour","location_type":"Force","location":{"latitude":"51.571023","street":{"id":972288,"name":"On or near Highgate High Street"},"longitude":"-0.148921"},"context":"","outcome_status":null,"persistent_id":"","id":98972268,"location_subtype":"","month":"2022-01"},{"category":"anti-social-behaviour","location_type":"Force","location":{"latitude":"51.571023","street":{"id":972288,"name":"On or near Highgate High Street"},"longitude":"-0.148921"},"context":"","outcome_status":null,"persistent_id":"","id":98972269,"location_subtype":"","month":"2022-01"},{"category":"anti-social-behaviour","location_type":"Force","location":{"latitude":"51.546880","street":{"id":967948,"name":"On or near Talacre Road"},"longitude":"-0.149036"},"context":"","outcome_status":null,"persistent_id":"","id":98972270,"location_subtype":"","month":"2022-01"},{"category":"anti-social-behaviour","location_type":"Force","location":{"latitude":"51.565995","street":{"id":972303,"name":"On or near Swain's Lane"},"longitude":"-0.146557"},"context":"","outcome_status":null,"persistent_id":"","id":98972274,"location_subtype":"","month":"2022-01"},{"category":"anti-social-behaviour","location_type":"Force","location":{"latitude":"51.565995","street":{"id":972303,"name":"On or near Swain's Lane"},"longitude":"-0.146557"},"context":"","outcome_status":null,"persistent_id":"","id":98972275,"location_subtype":"","month":"2022-01"},{"category":"anti-social-behaviour","location_type":"Force","location":{"latitude":"51.565995","street":{"id":972303,"name":"On or near Swain's Lane"},"longitude":"-0.146557"},"context":"","outcome_status":null,"persistent_id":"","id":98972276,"location_subtype":"","month":"2022-01"},{"category":"anti-social-behaviour","location_type":"Force","location":{"latitude":"51.543608","street":{"id":965101,"name":"On or near Ferdinand Place"},"longitude":"-0.148505"},"context":"","outcome_status":null,"persistent_id":"","id":98972277,"location_subtype":"","month":"2022-01"},{"category":"anti-social-behaviour","location_type":"Force","location":{"latitude":"51.540804","street":{"id":965098,"name":"On or near Gilbeys Yard"},"longitude":"-0.148648"},"context":"","outcome_status":null,"persistent_id":"","id":98972278,"location_subtype":"","month":"2022-01"},{"category":"anti-social-behaviour","location_type":"Force","location":{"latitude":"51.542507","street":{"id":965090,"name":"On or near Hawley Mews"},"longitude":"-0.146589"},"context":"","outcome_status":null,"persistent_id":"","id":98972279,"location_subtype":"","month":"2022-01"},{"category":"anti-social-behaviour","location_type":"Force","location":{"latitude":"51.542507","street":{"id":965090,"name":"On or near Hawley Mews"},"longitude":"-0.146589"},"context":"","outcome_status":null,"persistent_id":"","id":98972280,"location_subtype":"","month":"2022-01"},{"category":"anti-social-behaviour","location_type":"Force","location":{"latitude":"51.542507","street":{"id":965090,"name":"On or near Hawley Mews"},"longitude":"-0.146589"},"context":"","outcome_status":null,"persistent_id":"","id":98972281,"location_subtype":"","month":"2022-01"},{"category":"anti-social-behaviour","location_type":"Force","location":{"latitude":"51.542507","street":{"id":965090,"name":"On or near Hawley Mews"},"longitude":"-0.146589"},"context":"","outcome_status":null,"persistent_id":"","id":98972282,"location_subtype":"","month":"2022-01"},{"category":"anti-social-behaviour","location_type":"Force","location":{"latitude":"51.561662","street":{"id":972282,"name":"On or near Brookfield Park"},"longitude":"-0.146084"},"context":"","outcome_status":null,"persistent_id":"","id":98972283,"location_subtype":"","month":"2022-01"},{"category":"anti-social-behaviour","location_type":"Force","location":{"latitude":"51.561662","street":{"id":972282,"name":"On or near Brookfield Park"},"longitude":"-0.146084"},"context":"","outcome_status":null,"persistent_id":"","id":98972284,"location_subtype":"","month":"2022-01"},{"category":"anti-social-behaviour","location_type":"Force","location":{"latitude":"51.556516","street":{"id":967868,"name":"On or near Petrol Station"},"longitude":"-0.145918"},"context":"","outcome_status":null,"persistent_id":"","id":98972285,"location_subtype":"","month":"2022-01"},{"category":"anti-social-behaviour","location_type":"Force","location":{"latitude":"51.543091","street":{"id":965089,"name":"On or near Hawley Road"},"longitude":"-0.145974"},"context":"","outcome_status":null,"persistent_id":"","id":98972287,"location_subtype":"","month":"2022-01"},{"category":"anti-social-behaviour","location_type":"Force","location":{"latitude":"51.540169","street":{"id":965087,"name":"On or near Jamestown Road"},"longitude":"-0.145977"},"context":"","outcome_status":null,"persistent_id":"","id":98972288,"location_subtype":"","month":"2022-01"},{"category":"anti-social-behaviour","location_type":"Force","location":{"latitude":"51.546624","street":{"id":967961,"name":"On or near Dalby Street"},"longitude":"-0.147042"},"context":"","outcome_status":null,"persistent_id":"","id":98972289,"location_subtype":"","month":"2022-01"},{"category":"anti-social-behaviour","location_type":"Force","location":{"latitude":"51.542535","street":{"id":965088,"name":"On or near Hawley Street"},"longitude":"-0.146083"},"context":"","outcome_status":null,"persistent_id":"","id":98972290,"location_subtype":"","month":"2022-01"},{"category":"anti-social-behaviour","location_type":"Force","location":{"latitude":"51.542535","street":{"id":965088,"name":"On or near Hawley Street"},"longitude":"-0.146083"},"context":"","outcome_status":null,"persistent_id":"","id":98972291,"location_subtype":"","month":"2022-01"},{"category":"anti-social-behaviour","location_type":"Force","location":{"latitude":"51.540169","street":{"id":965087,"name":"On or near Jamestown Road"},"longitude":"-0.145977"},"context":"","outcome_status":null,"persistent_id":"","id":98972292,"location_subtype":"","month":"2022-01"},{"category":"anti-social-behaviour","location_type":"Force","location":{"latitude":"51.540169","street":{"id":965087,"name":"On or near Jamestown Road"},"longitude":"-0.145977"},"context":"","outcome_status":null,"persistent_id":"","id":98972293,"location_subtype":"","month":"2022-01"},{"category":"anti-social-behaviour","location_type":"Force","location":{"latitude":"51.563776","street":{"id":972112,"name":"On or near Chester Road"},"longitude":"-0.143286"},"context":"","outcome_status":null,"persistent_id":"","id":98972296,"location_subtype":"","month":"2022-01"},{"category":"anti-social-behaviour","location_type":"Force","location":{"latitude":"51.563776","street":{"id":972112,"name":"On or near Chester Road"},"longitude":"-0.143286"},"context":"","outcome_status":null,"persistent_id":"","id":98972297,"location_subtype":"","month":"2022-01"},{"category":"anti-social-behaviour","location_type":"Force","location":{"latitude":"51.557334","street":{"id":968062,"name":"On or near Twisden Road"},"longitude":"-0.144183"},"context":"","outcome_status":null,"persistent_id":"","id":98972303,"location_subtype":"","month":"2022-01"},{"category":"anti-social-behaviour","location_type":"Force","location":{"latitude":"51.544707","street":{"id":964914,"name":"On or near Lewis Street"},"longitude":"-0.144062"},"context":"","outcome_status":null,"persistent_id":"","id":98972306,"location_subtype":"","month":"2022-01"},{"category":"anti-social-behaviour","location_type":"Force","location":{"latitude":"51.540592","street":{"id":964929,"name":"On or near Theatre\/concert Hall"},"longitude":"-0.144316"},"context":"","outcome_status":null,"persistent_id":"","id":98972307,"location_subtype":"","month":"2022-01"},{"category":"anti-social-behaviour","location_type":"Force","location":{"latitude":"51.540592","street":{"id":964929,"name":"On or near Theatre\/concert Hall"},"longitude":"-0.144316"},"context":"","outcome_status":null,"persistent_id":"","id":98972308,"location_subtype":"","month":"2022-01"},{"category":"anti-social-behaviour","location_type":"Force","location":{"latitude":"51.540592","street":{"id":964929,"name":"On or near Theatre\/concert Hall"},"longitude":"-0.144316"},"context":"","outcome_status":null,"persistent_id":"","id":98972309,"location_subtype":"","month":"2022-01"},{"category":"anti-social-behaviour","location_type":"Force","location":{"latitude":"51.540592","street":{"id":964929,"name":"On or near Theatre\/concert Hall"},"longitude":"-0.144316"},"context":"","outcome_status":null,"persistent_id":"","id":98972310,"location_subtype":"","month":"2022-01"},{"category":"anti-social-behaviour","location_type":"Force","location":{"latitude":"51.540592","street":{"id":964929,"name":"On or near Theatre\/concert Hall"},"longitude":"-0.144316"},"context":"","outcome_status":null,"persistent_id":"","id":98972311,"location_subtype":"","month":"2022-01"},{"category":"anti-social-behaviour","location_type":"Force","location":{"latitude":"51.540592","street":{"id":964929,"name":"On or near Theatre\/concert Hall"},"longitude":"-0.144316"},"context":"","outcome_status":null,"persistent_id":"","id":98972312,"location_subtype":"","month":"2022-01"},{"category":"anti-social-behaviour","location_type":"Force","location":{"latitude":"51.540592","street":{"id":964929,"name":"On or near Theatre\/concert Hall"},"longitude":"-0.144316"},"context":"","outcome_status":null,"persistent_id":"","id":98972313,"location_subtype":"","month":"2022-01"},{"category":"anti-social-behaviour","location_type":"Force","location":{"latitude":"51.540592","street":{"id":964929,"name":"On or near Theatre\/concert Hall"},"longitude":"-0.144316"},"context":"","outcome_status":null,"persistent_id":"","id":98972314,"location_subtype":"","month":"2022-01"},{"category":"anti-social-behaviour","location_type":"Force","location":{"latitude":"51.545964","street":{"id":968133,"name":"On or near Castlehaven Road"},"longitude":"-0.143953"},"context":"","outcome_status":null,"persistent_id":"","id":98972315,"location_subtype":"","month":"2022-01"},{"category":"anti-social-behaviour","location_type":"Force","location":{"latitude":"51.556532","street":{"id":968065,"name":"On or near Ingestre Road"},"longitude":"-0.142932"},"context":"","outcome_status":null,"persistent_id":"","id":98972316,"location_subtype":"","month":"2022-01"},{"category":"anti-social-behaviour","location_type":"Force","location":{"latitude":"51.544707","street":{"id":964914,"name":"On or near Lewis Street"},"longitude":"-0.144062"},"context":"","outcome_status":null,"persistent_id":"","id":98972317,"location_subtype":"","month":"2022-01"},{"category":"anti-social-behaviour","location_type":"Force","location":{"latitude":"51.546643","street":{"id":968127,"name":"On or near Prince Of Wales Road"},"longitude":"-0.144229"},"context":"","outcome_status":null,"persistent_id":"","id":98972318,"location_subtype":"","month":"2022-01"},{"category":"anti-social-behaviour","location_type":"Force","location":{"latitude":"51.546643","street":{"id":968127,"name":"On or near Prince Of Wales Road"},"longitude":"-0.144229"},"context":"","outcome_status":null,"persistent_id":"","id":98972319,"location_subtype":"","month":"2022-01"},{"category":"anti-social-behaviour","location_type":"Force","location":{"latitude":"51.546643","street":{"id":968127,"name":"On or near Prince Of Wales Road"},"longitude":"-0.144229"},"context":"","outcome_status":null,"persistent_id":"","id":98972320,"location_subtype":"","month":"2022-01"},{"category":"anti-social-behaviour","location_type":"Force","location":{"latitude":"51.564519","street":{"id":972108,"name":"On or near Raydon Street"},"longitude":"-0.142505"},"context":"","outcome_status":null,"persistent_id":"","id":98972325,"location_subtype":"","month":"2022-01"},{"category":"anti-social-behaviour","location_type":"Force","location":{"latitude":"51.564519","street":{"id":972108,"name":"On or near Raydon Street"},"longitude":"-0.142505"},"context":"","outcome_status":null,"persistent_id":"","id":98972326,"location_subtype":"","month":"2022-01"},{"category":"anti-social-behaviour","location_type":"Force","location":{"latitude":"51.564519","street":{"id":972108,"name":"On or near Raydon Street"},"longitude":"-0.142505"},"context":"","outcome_status":null,"persistent_id":"","id":98972327,"location_subtype":"","month":"2022-01"},{"category":"anti-social-behaviour","location_type":"Force","location":{"latitude":"51.564519","street":{"id":972108,"name":"On or near Raydon Street"},"longitude":"-0.142505"},"context":"","outcome_status":null,"persistent_id":"","id":98972328,"location_subtype":"","month":"2022-01"},{"category":"anti-social-behaviour","location_type":"Force","location":{"latitude":"51.545566","street":{"id":968128,"name":"On or near Kelly Street"},"longitude":"-0.142700"},"context":"","outcome_status":null,"persistent_id":"","id":98972331,"location_subtype":"","month":"2022-01"},{"category":"anti-social-behaviour","location_type":"Force","location":{"latitude":"51.569219","street":{"id":972158,"name":"On or near Highgate Hill"},"longitude":"-0.142270"},"context":"","outcome_status":null,"persistent_id":"","id":98972332,"location_subtype":"","month":"2022-01"},{"category":"anti-social-behaviour","location_type":"Force","location":{"latitude":"51.564519","street":{"id":972108,"name":"On or near Raydon Street"},"longitude":"-0.142505"},"context":"","outcome_status":null,"persistent_id":"","id":98972334,"location_subtype":"","month":"2022-01"},{"category":"anti-social-behaviour","location_type":"Force","location":{"latitude":"51.567552","street":{"id":972147,"name":"On or near Highgate Hill"},"longitude":"-0.138659"},"context":"","outcome_status":null,"persistent_id":"","id":98972336,"location_subtype":"","month":"2022-01"},{"category":"anti-social-behaviour","location_type":"Force","location":{"latitude":"51.567552","street":{"id":972147,"name":"On or near Highgate Hill"},"longitude":"-0.138659"},"context":"","outcome_status":null,"persistent_id":"","id":98972337,"location_subtype":"","month":"2022-01"},{"category":"anti-social-behaviour","location_type":"Force","location":{"latitude":"51.548688","street":{"id":968053,"name":"On or near Raglan Street"},"longitude":"-0.142804"},"context":"","outcome_status":null,"persistent_id":"","id":98972339,"location_subtype":"","month":"2022-01"},{"category":"anti-social-behaviour","location_type":"Force","location":{"latitude":"51.548688","street":{"id":968053,"name":"On or near Raglan Street"},"longitude":"-0.142804"},"context":"","outcome_status":null,"persistent_id":"","id":98972340,"location_subtype":"","month":"2022-01"},{"category":"anti-social-behaviour","location_type":"Force","location":{"latitude":"51.554996","street":{"id":968072,"name":"On or near Burghley Road"},"longitude":"-0.141898"},"context":"","outcome_status":null,"persistent_id":"","id":98972342,"location_subtype":"","month":"2022-01"},{"category":"anti-social-behaviour","location_type":"Force","location":{"latitude":"51.554996","street":{"id":968072,"name":"On or near Burghley Road"},"longitude":"-0.141898"},"context":"","outcome_status":null,"persistent_id":"","id":98972343,"location_subtype":"","month":"2022-01"},{"category":"anti-social-behaviour","location_type":"Force","location":{"latitude":"51.548881","street":{"id":968038,"name":"On or near Old Dairy Mews"},"longitude":"-0.141339"},"context":"","outcome_status":null,"persistent_id":"","id":98972357,"location_subtype":"","month":"2022-01"},{"category":"anti-social-behaviour","location_type":"Force","location":{"latitude":"51.540728","street":{"id":964834,"name":"On or near Parking Area"},"longitude":"-0.141556"},"context":"","outcome_status":null,"persistent_id":"","id":98972345,"location_subtype":"","month":"2022-01"},{"category":"anti-social-behaviour","location_type":"Force","location":{"latitude":"51.546052","street":{"id":968125,"name":"On or near Shopping Area"},"longitude":"-0.142118"},"context":"","outcome_status":null,"persistent_id":"","id":98972346,"location_subtype":"","month":"2022-01"},{"category":"anti-social-behaviour","location_type":"Force","location":{"latitude":"51.546052","street":{"id":968125,"name":"On or near Shopping Area"},"longitude":"-0.142118"},"context":"","outcome_status":null,"persistent_id":"","id":98972347,"location_subtype":"","month":"2022-01"},{"category":"anti-social-behaviour","location_type":"Force","location":{"latitude":"51.546052","street":{"id":968125,"name":"On or near Shopping Area"},"longitude":"-0.142118"},"context":"","outcome_status":null,"persistent_id":"","id":98972348,"location_subtype":"","month":"2022-01"},{"category":"anti-social-behaviour","location_type":"Force","location":{"latitude":"51.552525","street":{"id":968101,"name":"On or near Fortess Walk"},"longitude":"-0.141479"},"context":"","outcome_status":null,"persistent_id":"","id":98972349,"location_subtype":"","month":"2022-01"},{"category":"anti-social-behaviour","location_type":"Force","location":{"latitude":"51.561019","street":{"id":972111,"name":"On or near Dartmouth Park Avenue"},"longitude":"-0.142388"},"context":"","outcome_status":null,"persistent_id":"","id":98972350,"location_subtype":"","month":"2022-01"},{"category":"anti-social-behaviour","location_type":"Force","location":{"latitude":"51.548881","street":{"id":968038,"name":"On or near Old Dairy Mews"},"longitude":"-0.141339"},"context":"","outcome_status":null,"persistent_id":"","id":98972353,"location_subtype":"","month":"2022-01"},{"category":"anti-social-behaviour","location_type":"Force","location":{"latitude":"51.548881","street":{"id":968038,"name":"On or near Old Dairy Mews"},"longitude":"-0.141339"},"context":"","outcome_status":null,"persistent_id":"","id":98972354,"location_subtype":"","month":"2022-01"},{"category":"anti-social-behaviour","location_type":"Force","location":{"latitude":"51.548881","street":{"id":968038,"name":"On or near Old Dairy Mews"},"longitude":"-0.141339"},"context":"","outcome_status":null,"persistent_id":"","id":98972355,"location_subtype":"","month":"2022-01"},{"category":"anti-social-behaviour","location_type":"Force","location":{"latitude":"51.548881","street":{"id":968038,"name":"On or near Old Dairy Mews"},"longitude":"-0.141339"},"context":"","outcome_status":null,"persistent_id":"","id":98972356,"location_subtype":"","month":"2022-01"},{"category":"anti-social-behaviour","location_type":"Force","location":{"latitude":"51.554588","street":{"id":968111,"name":"On or near Bellina Mews"},"longitude":"-0.140544"},"context":"","outcome_status":null,"persistent_id":"","id":98972360,"location_subtype":"","month":"2022-01"},{"category":"anti-social-behaviour","location_type":"Force","location":{"latitude":"51.569064","street":{"id":972444,"name":"On or near The Park"},"longitude":"-0.187586"},"context":"","outcome_status":null,"persistent_id":"","id":98972544,"location_subtype":"","month":"2022-01"},{"category":"anti-social-behaviour","location_type":"Force","location":{"latitude":"51.569715","street":{"id":972411,"name":"On or near Park Avenue"},"longitude":"-0.187805"},"context":"","outcome_status":null,"persistent_id":"","id":98972548,"location_subtype":"","month":"2022-01"},{"category":"anti-social-behaviour","location_type":"Force","location":{"latitude":"51.583886","street":{"id":974675,"name":"On or near Sutcliffe Close"},"longitude":"-0.183676"},"context":"","outcome_status":null,"persistent_id":"","id":98972557,"location_subtype":"","month":"2022-01"},{"category":"anti-social-behaviour","location_type":"Force","location":{"latitude":"51.586874","street":{"id":978743,"name":"On or near Eastholm"},"longitude":"-0.185592"},"context":"","outcome_status":null,"persistent_id":"","id":98972559,"location_subtype":"","month":"2022-01"},{"category":"anti-social-behaviour","location_type":"Force","location":{"latitude":"51.582600","street":{"id":974695,"name":"On or near Brunner Close"},"longitude":"-0.182486"},"context":"","outcome_status":null,"persistent_id":"","id":98972569,"location_subtype":"","month":"2022-01"},{"category":"anti-social-behaviour","location_type":"Force","location":{"latitude":"51.580583","street":{"id":974690,"name":"On or near Grey Close"},"longitude":"-0.181167"},"context":"","outcome_status":null,"persistent_id":"","id":98972574,"location_subtype":"","month":"2022-01"},{"category":"anti-social-behaviour","location_type":"Force","location":{"latitude":"51.587200","street":{"id":978740,"name":"On or near Maurice Walk"},"longitude":"-0.181653"},"context":"","outcome_status":null,"persistent_id":"","id":98972575,"location_subtype":"","month":"2022-01"},{"category":"anti-social-behaviour","location_type":"Force","location":{"latitude":"51.587200","street":{"id":978740,"name":"On or near Maurice Walk"},"longitude":"-0.181653"},"context":"","outcome_status":null,"persistent_id":"","id":98972576,"location_subtype":"","month":"2022-01"},{"category":"anti-social-behaviour","location_type":"Force","location":{"latitude":"51.578526","street":{"id":974681,"name":"On or near Neville Drive"},"longitude":"-0.177828"},"context":"","outcome_status":null,"persistent_id":"","id":98972611,"location_subtype":"","month":"2022-01"},{"category":"anti-social-behaviour","location_type":"Force","location":{"latitude":"51.586902","street":{"id":978737,"name":"On or near Edmunds Walk"},"longitude":"-0.167114"},"context":"","outcome_status":null,"persistent_id":"","id":98972641,"location_subtype":"","month":"2022-01"},{"category":"anti-social-behaviour","location_type":"Force","location":{"latitude":"51.589139","street":{"id":978531,"name":"On or near Fairlawn Avenue"},"longitude":"-0.162982"},"context":"","outcome_status":null,"persistent_id":"","id":98972650,"location_subtype":"","month":"2022-01"},{"category":"anti-social-behaviour","location_type":"Force","location":{"latitude":"51.587400","street":{"id":978524,"name":"On or near Ingram Road"},"longitude":"-0.162749"},"context":"","outcome_status":null,"persistent_id":"","id":98972653,"location_subtype":"","month":"2022-01"},{"category":"anti-social-behaviour","location_type":"Force","location":{"latitude":"51.586002","street":{"id":978608,"name":"On or near Sports\/recreation Area"},"longitude":"-0.159601"},"context":"","outcome_status":null,"persistent_id":"","id":98972660,"location_subtype":"","month":"2022-01"},{"category":"anti-social-behaviour","location_type":"Force","location":{"latitude":"51.554376","street":{"id":968102,"name":"On or near Fortess Road"},"longitude":"-0.140264"},"context":"","outcome_status":null,"persistent_id":"","id":98972818,"location_subtype":"","month":"2022-01"},{"category":"anti-social-behaviour","location_type":"Force","location":{"latitude":"51.554376","street":{"id":968102,"name":"On or near Fortess Road"},"longitude":"-0.140264"},"context":"","outcome_status":null,"persistent_id":"","id":98972819,"location_subtype":"","month":"2022-01"},{"category":"anti-social-behaviour","location_type":"Force","location":{"latitude":"51.554376","street":{"id":968102,"name":"On or near Fortess Road"},"longitude":"-0.140264"},"context":"","outcome_status":null,"persistent_id":"","id":98972820,"location_subtype":"","month":"2022-01"},{"category":"anti-social-behaviour","location_type":"Force","location":{"latitude":"51.554376","street":{"id":968102,"name":"On or near Fortess Road"},"longitude":"-0.140264"},"context":"","outcome_status":null,"persistent_id":"","id":98972821,"location_subtype":"","month":"2022-01"},{"category":"anti-social-behaviour","location_type":"Force","location":{"latitude":"51.558095","street":{"id":968110,"name":"On or near Churchill Road"},"longitude":"-0.140012"},"context":"","outcome_status":null,"persistent_id":"","id":98972822,"location_subtype":"","month":"2022-01"},{"category":"anti-social-behaviour","location_type":"Force","location":{"latitude":"51.544006","street":{"id":964852,"name":"On or near Reed's Place"},"longitude":"-0.140125"},"context":"","outcome_status":null,"persistent_id":"","id":98972825,"location_subtype":"","month":"2022-01"},{"category":"anti-social-behaviour","location_type":"Force","location":{"latitude":"51.542938","street":{"id":964869,"name":"On or near Jeffrey's Place"},"longitude":"-0.140284"},"context":"","outcome_status":null,"persistent_id":"","id":98972826,"location_subtype":"","month":"2022-01"},{"category":"anti-social-behaviour","location_type":"Force","location":{"latitude":"51.542500","street":{"id":964870,"name":"On or near Ivor Street"},"longitude":"-0.139898"},"context":"","outcome_status":null,"persistent_id":"","id":98972832,"location_subtype":"","month":"2022-01"},{"category":"anti-social-behaviour","location_type":"Force","location":{"latitude":"51.540541","street":{"id":964882,"name":"On or near Camden Street"},"longitude":"-0.139963"},"context":"","outcome_status":null,"persistent_id":"","id":98972834,"location_subtype":"","month":"2022-01"},{"category":"anti-social-behaviour","location_type":"Force","location":{"latitude":"51.540541","street":{"id":964882,"name":"On or near Camden Street"},"longitude":"-0.139963"},"context":"","outcome_status":null,"persistent_id":"","id":98972835,"location_subtype":"","month":"2022-01"},{"category":"anti-social-behaviour","location_type":"Force","location":{"latitude":"51.540541","street":{"id":964882,"name":"On or near Camden Street"},"longitude":"-0.139963"},"context":"","outcome_status":null,"persistent_id":"","id":98972836,"location_subtype":"","month":"2022-01"},{"category":"anti-social-behaviour","location_type":"Force","location":{"latitude":"51.540541","street":{"id":964882,"name":"On or near Camden Street"},"longitude":"-0.139963"},"context":"","outcome_status":null,"persistent_id":"","id":98972837,"location_subtype":"","month":"2022-01"},{"category":"anti-social-behaviour","location_type":"Force","location":{"latitude":"51.543015","street":{"id":964846,"name":"On or near Royal College Street"},"longitude":"-0.139473"},"context":"","outcome_status":null,"persistent_id":"","id":98972841,"location_subtype":"","month":"2022-01"},{"category":"anti-social-behaviour","location_type":"Force","location":{"latitude":"51.549995","street":{"id":968043,"name":"On or near Frideswide Place"},"longitude":"-0.140140"},"context":"","outcome_status":null,"persistent_id":"","id":98972846,"location_subtype":"","month":"2022-01"},{"category":"anti-social-behaviour","location_type":"Force","location":{"latitude":"51.543015","street":{"id":964846,"name":"On or near Royal College Street"},"longitude":"-0.139473"},"context":"","outcome_status":null,"persistent_id":"","id":98972850,"location_subtype":"","month":"2022-01"},{"category":"anti-social-behaviour","location_type":"Force","location":{"latitude":"51.543015","street":{"id":964846,"name":"On or near Royal College Street"},"longitude":"-0.139473"},"context":"","outcome_status":null,"persistent_id":"","id":98972851,"location_subtype":"","month":"2022-01"},{"category":"anti-social-behaviour","location_type":"Force","location":{"latitude":"51.553876","street":{"id":968085,"name":"On or near Ospringe Road"},"longitude":"-0.137039"},"context":"","outcome_status":null,"persistent_id":"","id":98972852,"location_subtype":"","month":"2022-01"},{"category":"anti-social-behaviour","location_type":"Force","location":{"latitude":"51.544940","street":{"id":964849,"name":"On or near Rochester Road"},"longitude":"-0.138356"},"context":"","outcome_status":null,"persistent_id":"","id":98972853,"location_subtype":"","month":"2022-01"},{"category":"anti-social-behaviour","location_type":"Force","location":{"latitude":"51.545871","street":{"id":968123,"name":"On or near Bartholomew Road"},"longitude":"-0.138635"},"context":"","outcome_status":null,"persistent_id":"","id":98972859,"location_subtype":"","month":"2022-01"},{"category":"anti-social-behaviour","location_type":"Force","location":{"latitude":"51.542990","street":{"id":964841,"name":"On or near St Pancras Way"},"longitude":"-0.137902"},"context":"","outcome_status":null,"persistent_id":"","id":98972860,"location_subtype":"","month":"2022-01"},{"category":"anti-social-behaviour","location_type":"Force","location":{"latitude":"51.544311","street":{"id":964851,"name":"On or near Rochester Mews"},"longitude":"-0.136709"},"context":"","outcome_status":null,"persistent_id":"","id":98972865,"location_subtype":"","month":"2022-01"},{"category":"anti-social-behaviour","location_type":"Force","location":{"latitude":"51.542000","street":{"id":964847,"name":"On or near Rousden Street"},"longitude":"-0.137236"},"context":"","outcome_status":null,"persistent_id":"","id":98972868,"location_subtype":"","month":"2022-01"},{"category":"anti-social-behaviour","location_type":"Force","location":{"latitude":"51.542403","street":{"id":964842,"name":"On or near St Pancras Way"},"longitude":"-0.137176"},"context":"","outcome_status":null,"persistent_id":"","id":98972872,"location_subtype":"","month":"2022-01"},{"category":"anti-social-behaviour","location_type":"Force","location":{"latitude":"51.542403","street":{"id":964842,"name":"On or near St Pancras Way"},"longitude":"-0.137176"},"context":"","outcome_status":null,"persistent_id":"","id":98972873,"location_subtype":"","month":"2022-01"},{"category":"anti-social-behaviour","location_type":"Force","location":{"latitude":"51.542403","street":{"id":964842,"name":"On or near St Pancras Way"},"longitude":"-0.137176"},"context":"","outcome_status":null,"persistent_id":"","id":98972874,"location_subtype":"","month":"2022-01"},{"category":"anti-social-behaviour","location_type":"Force","location":{"latitude":"51.542403","street":{"id":964842,"name":"On or near St Pancras Way"},"longitude":"-0.137176"},"context":"","outcome_status":null,"persistent_id":"","id":98972875,"location_subtype":"","month":"2022-01"},{"category":"anti-social-behaviour","location_type":"Force","location":{"latitude":"51.542403","street":{"id":964842,"name":"On or near St Pancras Way"},"longitude":"-0.137176"},"context":"","outcome_status":null,"persistent_id":"","id":98972876,"location_subtype":"","month":"2022-01"},{"category":"anti-social-behaviour","location_type":"Force","location":{"latitude":"51.542403","street":{"id":964842,"name":"On or near St Pancras Way"},"longitude":"-0.137176"},"context":"","outcome_status":null,"persistent_id":"","id":98972877,"location_subtype":"","month":"2022-01"},{"category":"anti-social-behaviour","location_type":"Force","location":{"latitude":"51.542403","street":{"id":964842,"name":"On or near St Pancras Way"},"longitude":"-0.137176"},"context":"","outcome_status":null,"persistent_id":"","id":98972878,"location_subtype":"","month":"2022-01"},{"category":"anti-social-behaviour","location_type":"Force","location":{"latitude":"51.542403","street":{"id":964842,"name":"On or near St Pancras Way"},"longitude":"-0.137176"},"context":"","outcome_status":null,"persistent_id":"","id":98972879,"location_subtype":"","month":"2022-01"},{"category":"anti-social-behaviour","location_type":"Force","location":{"latitude":"51.542403","street":{"id":964842,"name":"On or near St Pancras Way"},"longitude":"-0.137176"},"context":"","outcome_status":null,"persistent_id":"","id":98972880,"location_subtype":"","month":"2022-01"},{"category":"anti-social-behaviour","location_type":"Force","location":{"latitude":"51.542403","street":{"id":964842,"name":"On or near St Pancras Way"},"longitude":"-0.137176"},"context":"","outcome_status":null,"persistent_id":"","id":98972882,"location_subtype":"","month":"2022-01"},{"category":"anti-social-behaviour","location_type":"Force","location":{"latitude":"51.540060","street":{"id":964954,"name":"On or near Georgiana Street"},"longitude":"-0.136248"},"context":"","outcome_status":null,"persistent_id":"","id":98972889,"location_subtype":"","month":"2022-01"},{"category":"anti-social-behaviour","location_type":"Force","location":{"latitude":"51.540060","street":{"id":964954,"name":"On or near Georgiana Street"},"longitude":"-0.136248"},"context":"","outcome_status":null,"persistent_id":"","id":98972890,"location_subtype":"","month":"2022-01"},{"category":"anti-social-behaviour","location_type":"Force","location":{"latitude":"51.540060","street":{"id":964954,"name":"On or near Georgiana Street"},"longitude":"-0.136248"},"context":"","outcome_status":null,"persistent_id":"","id":98972891,"location_subtype":"","month":"2022-01"},{"category":"anti-social-behaviour","location_type":"Force","location":{"latitude":"51.544311","street":{"id":964851,"name":"On or near Rochester Mews"},"longitude":"-0.136709"},"context":"","outcome_status":null,"persistent_id":"","id":98972906,"location_subtype":"","month":"2022-01"},{"category":"anti-social-behaviour","location_type":"Force","location":{"latitude":"51.544311","street":{"id":964851,"name":"On or near Rochester Mews"},"longitude":"-0.136709"},"context":"","outcome_status":null,"persistent_id":"","id":98972907,"location_subtype":"","month":"2022-01"},{"category":"anti-social-behaviour","location_type":"Force","location":{"latitude":"51.541776","street":{"id":964934,"name":"On or near Wrotham Road"},"longitude":"-0.135053"},"context":"","outcome_status":null,"persistent_id":"","id":98972908,"location_subtype":"","month":"2022-01"},{"category":"anti-social-behaviour","location_type":"Force","location":{"latitude":"51.541776","street":{"id":964934,"name":"On or near Wrotham Road"},"longitude":"-0.135053"},"context":"","outcome_status":null,"persistent_id":"","id":98972909,"location_subtype":"","month":"2022-01"},{"category":"anti-social-behaviour","location_type":"Force","location":{"latitude":"51.551807","street":{"id":923593,"name":"On or near Leighton Crescent"},"longitude":"-0.134772"},"context":"","outcome_status":null,"persistent_id":"","id":98972913,"location_subtype":"","month":"2022-01"},{"category":"anti-social-behaviour","location_type":"Force","location":{"latitude":"51.548921","street":{"id":967973,"name":"On or near Oseney Crescent"},"longitude":"-0.133665"},"context":"","outcome_status":null,"persistent_id":"","id":98972928,"location_subtype":"","month":"2022-01"},{"category":"anti-social-behaviour","location_type":"Force","location":{"latitude":"51.548921","street":{"id":967973,"name":"On or near Oseney Crescent"},"longitude":"-0.133665"},"context":"","outcome_status":null,"persistent_id":"","id":98972929,"location_subtype":"","month":"2022-01"},{"category":"anti-social-behaviour","location_type":"Force","location":{"latitude":"51.548116","street":{"id":967983,"name":"On or near Busby Place"},"longitude":"-0.132255"},"context":"","outcome_status":null,"persistent_id":"","id":98972932,"location_subtype":"","month":"2022-01"},