[{"category":"anti-social-behaviour","location_type":"Force","location":{"latitude":"51.509980","street":{"id":956543,"name":"On or near Motorway Service Area"},"longitude":"-0.132331"},"context":"","outcome_status":null,"persistent_id":"","id":98969416,"location_subtype":"","month":"2022-01"},{"category":"anti-social-behaviour","location_type":"Force","location":{"latitude":"51.500439","street":{"id":953746,"name":"On or near Collinson Street"},"longitude":"-0.098747"},"context":"","outcome_status":null,"persistent_id":"","id":98979368,"location_subtype":"","month":"2022-01"},{"category":"anti-social-behaviour","location_type":"Force","location":{"latitude":"51.506153","street":{"id":956124,"name":"On or near Zoar Street"},"longitude":"-0.098408"},"context":"","outcome_status":null,"persistent_id":"","id":98979369,"location_subtype":"","month":"2022-01"},{"category":"anti-social-behaviour","location_type":"Force","location":{"latitude":"51.512952","street":{"id":587325,"name":"On or near St Paul's Church Yard"},"longitude":"-0.096814"},"context":"","outcome_status":null,"persistent_id":"","id":99102025,"location_subtype":"","month":"2022-01"},{"category":"anti-social-behaviour","location_type":"Force","location":{"latitude":"51.514203","street":{"id":587512,"name":"On or near Cheapside"},"longitude":"-0.094628"},"context":"","outcome_status":null,"persistent_id":"","id":99102030,"location_subtype":"","month":"2022-01"},{"category":"anti-social-behaviour","location_type":"Force","location":{"latitude":"51.514203","street":{"id":587512,"name":"On or near Cheapside"},"longitude":"-0.094628"},"context":"","outcome_status":null,"persistent_id":"","id":99102033,"location_subtype":"","month":"2022-01"},{"category":"anti-social-behaviour","location_type":"Force","location":{"latitude":"51.497475","street":{"id":953699,"name":"On or near Newington Causeway"},"longitude":"-0.098957"},"context":"","outcome_status":null,"persistent_id":"","id":98979366,"location_subtype":"","month":"2022-01"},{"category":"anti-social-behaviour","location_type":"Force","location":{"latitude":"51.497475","street":{"id":953699,"name":"On or near Newington Causeway"},"longitude":"-0.098957"},"context":"","outcome_status":null,"persistent_id":"","id":98979365,"location_subtype":"","month":"2022-01"},{"category":"anti-social-behaviour","location_type":"Force","location":{"latitude":"51.500439","street":{"id":953746,"name":"On or near Collinson Street"},"longitude":"-0.098747"},"context":"","outcome_status":null,"persistent_id":"","id":98979364,"location_subtype":"","month":"2022-01"},{"category":"anti-social-behaviour","location_type":"Force","location":{"latitude":"51.493819","street":{"id":953785,"name":"On or near Supermarket"},"longitude":"-0.099728"},"context":"","outcome_status":null,"persistent_id":"","id":98979363,"location_subtype":"","month":"2022-01"},{"category":"anti-social-behaviour","location_type":"Force","location":{"latitude":"51.493819","street":{"id":953785,"name":"On or near Supermarket"},"longitude":"-0.099728"},"context":"","outcome_status":null,"persistent_id":"","id":98979362,"location_subtype":"","month":"2022-01"},{"category":"anti-social-behaviour","location_type":"Force","location":{"latitude":"51.493135","street":{"id":953781,"name":"On or near A3"},"longitude":"-0.100304"},"context":"","outcome_status":null,"persistent_id":"","id":98979361,"location_subtype":"","month":"2022-01"},{"category":"anti-social-behaviour","location_type":"Force","location":{"latitude":"51.511783","street":{"id":956547,"name":"On or near Nightclub"},"longitude":"-0.129778"},"context":"","outcome_status":null,"persistent_id":"","id":98969448,"location_subtype":"","month":"2022-01"},{"category":"anti-social-behaviour","location_type":"Force","location":{"latitude":"51.506712","street":{"id":956659,"name":"On or near Craig's Court"},"longitude":"-0.126974"},"context":"","outcome_status":null,"persistent_id":"","id":98969658,"location_subtype":"","month":"2022-01"},{"category":"anti-social-behaviour","location_type":"Force","location":{"latitude":"51.503196","street":{"id":953311,"name":"On or near Downing Street"},"longitude":"-0.127032"},"context":"","outcome_status":null,"persistent_id":"","id":98969675,"location_subtype":"","month":"2022-01"},{"category":"anti-social-behaviour","location_type":"Force","location":{"latitude":"51.501490","street":{"id":953532,"name":"On or near Canon Row"},"longitude":"-0.125503"},"context":"","outcome_status":null,"persistent_id":"","id":98969685,"location_subtype":"","month":"2022-01"},{"category":"anti-social-behaviour","location_type":"Force","location":{"latitude":"51.509902","street":{"id":956586,"name":"On or near Theatre\/concert Hall"},"longitude":"-0.126310"},"context":"","outcome_status":null,"persistent_id":"","id":98969694,"location_subtype":"","month":"2022-01"},{"category":"anti-social-behaviour","location_type":"Force","location":{"latitude":"51.511748","street":{"id":956551,"name":"On or near Theatre\/concert Hall"},"longitude":"-0.125874"},"context":"","outcome_status":null,"persistent_id":"","id":98969702,"location_subtype":"","month":"2022-01"},{"category":"anti-social-behaviour","location_type":"Force","location":{"latitude":"51.508577","street":{"id":956212,"name":"On or near Nightclub"},"longitude":"-0.124419"},"context":"","outcome_status":null,"persistent_id":"","id":98969720,"location_subtype":"","month":"2022-01"},{"category":"anti-social-behaviour","location_type":"Force","location":{"latitude":"51.511315","street":{"id":956213,"name":"On or near Conference\/exhibition Centre"},"longitude":"-0.118528"},"context":"","outcome_status":null,"persistent_id":"","id":98969757,"location_subtype":"","month":"2022-01"},{"category":"anti-social-behaviour","location_type":"Force","location":{"latitude":"51.511315","street":{"id":956213,"name":"On or near Conference\/exhibition Centre"},"longitude":"-0.118528"},"context":"","outcome_status":null,"persistent_id":"","id":98969761,"location_subtype":"","month":"2022-01"},{"category":"anti-social-behaviour","location_type":"Force","location":{"latitude":"51.491806","street":{"id":949470,"name":"On or near Salamanca Place"},"longitude":"-0.120498"},"context":"","outcome_status":null,"persistent_id":"","id":98970948,"location_subtype":"","month":"2022-01"},{"category":"anti-social-behaviour","location_type":"Force","location":{"latitude":"51.502410","street":{"id":953486,"name":"On or near Pear Place"},"longitude":"-0.110538"},"context":"","outcome_status":null,"persistent_id":"","id":98978503,"location_subtype":"","month":"2022-01"},{"category":"anti-social-behaviour","location_type":"Force","location":{"latitude":"51.495185","street":{"id":953700,"name":"On or near Meadow Row"},"longitude":"-0.096920"},"context":"","outcome_status":null,"persistent_id":"","id":98981527,"location_subtype":"","month":"2022-01"},{"category":"anti-social-behaviour","location_type":"Force","location":{"latitude":"51.503196","street":{"id":953311,"name":"On or near Downing Street"},"longitude":"-0.127032"},"context":"","outcome_status":null,"persistent_id":"","id":98969704,"location_subtype":"","month":"2022-01"},{"category":"anti-social-behaviour","location_type":"Force","location":{"latitude":"51.511748","street":{"id":956551,"name":"On or near Theatre\/concert Hall"},"longitude":"-0.125874"},"context":"","outcome_status":null,"persistent_id":"","id":98969703,"location_subtype":"","month":"2022-01"},{"category":"anti-social-behaviour","location_type":"Force","location":{"latitude":"51.511748","street":{"id":956551,"name":"On or near Theatre\/concert Hall"},"longitude":"-0.125874"},"context":"","outcome_status":null,"persistent_id":"","id":98969701,"location_subtype":"","month":"2022-01"},{"category":"anti-social-behaviour","location_type":"Force","location":{"latitude":"51.511748","street":{"id":956551,"name":"On or near Theatre\/concert Hall"},"longitude":"-0.125874"},"context":"","outcome_status":null,"persistent_id":"","id":98969700,"location_subtype":"","month":"2022-01"},{"category":"anti-social-behaviour","location_type":"Force","location":{"latitude":"51.511748","street":{"id":956551,"name":"On or near Theatre\/concert Hall"},"longitude":"-0.125874"},"context":"","outcome_status":null,"persistent_id":"","id":98969699,"location_subtype":"","month":"2022-01"},{"category":"anti-social-behaviour","location_type":"Force","location":{"latitude":"51.509902","street":{"id":956586,"name":"On or near Theatre\/concert Hall"},"longitude":"-0.126310"},"context":"","outcome_status":null,"persistent_id":"","id":98969698,"location_subtype":"","month":"2022-01"},{"category":"anti-social-behaviour","location_type":"Force","location":{"latitude":"51.509902","street":{"id":956586,"name":"On or near Theatre\/concert Hall"},"longitude":"-0.126310"},"context":"","outcome_status":null,"persistent_id":"","id":98969697,"location_subtype":"","month":"2022-01"},{"category":"anti-social-behaviour","location_type":"Force","location":{"latitude":"51.509902","street":{"id":956586,"name":"On or near Theatre\/concert Hall"},"longitude":"-0.126310"},"context":"","outcome_status":null,"persistent_id":"","id":98969696,"location_subtype":"","month":"2022-01"},{"category":"anti-social-behaviour","location_type":"Force","location":{"latitude":"51.509902","street":{"id":956586,"name":"On or near Theatre\/concert Hall"},"longitude":"-0.126310"},"context":"","outcome_status":null,"persistent_id":"","id":98969695,"location_subtype":"","month":"2022-01"},{"category":"anti-social-behaviour","location_type":"Force","location":{"latitude":"51.509902","street":{"id":956586,"name":"On or near Theatre\/concert Hall"},"longitude":"-0.126310"},"context":"","outcome_status":null,"persistent_id":"","id":98969693,"location_subtype":"","month":"2022-01"},{"category":"anti-social-behaviour","location_type":"Force","location":{"latitude":"51.509902","street":{"id":956586,"name":"On or near Theatre\/concert Hall"},"longitude":"-0.126310"},"context":"","outcome_status":null,"persistent_id":"","id":98969692,"location_subtype":"","month":"2022-01"},{"category":"anti-social-behaviour","location_type":"Force","location":{"latitude":"51.509902","street":{"id":956586,"name":"On or near Theatre\/concert Hall"},"longitude":"-0.126310"},"context":"","outcome_status":null,"persistent_id":"","id":98969691,"location_subtype":"","month":"2022-01"},{"category":"anti-social-behaviour","location_type":"Force","location":{"latitude":"51.509902","street":{"id":956586,"name":"On or near Theatre\/concert Hall"},"longitude":"-0.126310"},"context":"","outcome_status":null,"persistent_id":"","id":98969690,"location_subtype":"","month":"2022-01"},{"category":"anti-social-behaviour","location_type":"Force","location":{"latitude":"51.500969","street":{"id":953533,"name":"On or near Bridge Street"},"longitude":"-0.124933"},"context":"","outcome_status":null,"persistent_id":"","id":98969689,"location_subtype":"","month":"2022-01"},{"category":"anti-social-behaviour","location_type":"Force","location":{"latitude":"51.500969","street":{"id":953533,"name":"On or near Bridge Street"},"longitude":"-0.124933"},"context":"","outcome_status":null,"persistent_id":"","id":98969688,"location_subtype":"","month":"2022-01"},{"category":"anti-social-behaviour","location_type":"Force","location":{"latitude":"51.493239","street":{"id":953414,"name":"On or near John Islip Street"},"longitude":"-0.127411"},"context":"","outcome_status":null,"persistent_id":"","id":98969687,"location_subtype":"","month":"2022-01"},{"category":"anti-social-behaviour","location_type":"Force","location":{"latitude":"51.501490","street":{"id":953532,"name":"On or near Canon Row"},"longitude":"-0.125503"},"context":"","outcome_status":null,"persistent_id":"","id":98969684,"location_subtype":"","month":"2022-01"},{"category":"anti-social-behaviour","location_type":"Force","location":{"latitude":"51.496706","street":{"id":953276,"name":"On or near Lord North Street"},"longitude":"-0.127154"},"context":"","outcome_status":null,"persistent_id":"","id":98969683,"location_subtype":"","month":"2022-01"},{"category":"anti-social-behaviour","location_type":"Force","location":{"latitude":"51.496706","street":{"id":953276,"name":"On or near Lord North Street"},"longitude":"-0.127154"},"context":"","outcome_status":null,"persistent_id":"","id":98969682,"location_subtype":"","month":"2022-01"},{"category":"anti-social-behaviour","location_type":"Force","location":{"latitude":"51.496706","street":{"id":953276,"name":"On or near Lord North Street"},"longitude":"-0.127154"},"context":"","outcome_status":null,"persistent_id":"","id":98969681,"location_subtype":"","month":"2022-01"},{"category":"anti-social-behaviour","location_type":"Force","location":{"latitude":"51.503196","street":{"id":953311,"name":"On or near Downing Street"},"longitude":"-0.127032"},"context":"","outcome_status":null,"persistent_id":"","id":98969680,"location_subtype":"","month":"2022-01"},{"category":"anti-social-behaviour","location_type":"Force","location":{"latitude":"51.503196","street":{"id":953311,"name":"On or near Downing Street"},"longitude":"-0.127032"},"context":"","outcome_status":null,"persistent_id":"","id":98969679,"location_subtype":"","month":"2022-01"},{"category":"anti-social-behaviour","location_type":"Force","location":{"latitude":"51.503196","street":{"id":953311,"name":"On or near Downing Street"},"longitude":"-0.127032"},"context":"","outcome_status":null,"persistent_id":"","id":98969678,"location_subtype":"","month":"2022-01"},{"category":"anti-social-behaviour","location_type":"Force","location":{"latitude":"51.503196","street":{"id":953311,"name":"On or near Downing Street"},"longitude":"-0.127032"},"context":"","outcome_status":null,"persistent_id":"","id":98969677,"location_subtype":"","month":"2022-01"},{"category":"anti-social-behaviour","location_type":"Force","location":{"latitude":"51.503196","street":{"id":953311,"name":"On or near Downing Street"},"longitude":"-0.127032"},"context":"","outcome_status":null,"persistent_id":"","id":98969676,"location_subtype":"","month":"2022-01"},{"category":"anti-social-behaviour","location_type":"Force","location":{"latitude":"51.503196","street":{"id":953311,"name":"On or near Downing Street"},"longitude":"-0.127032"},"context":"","outcome_status":null,"persistent_id":"","id":98969674,"location_subtype":"","month":"2022-01"},{"category":"anti-social-behaviour","location_type":"Force","location":{"latitude":"51.503196","street":{"id":953311,"name":"On or near Downing Street"},"longitude":"-0.127032"},"context":"","outcome_status":null,"persistent_id":"","id":98969673,"location_subtype":"","month":"2022-01"},{"category":"anti-social-behaviour","location_type":"Force","location":{"latitude":"51.503196","street":{"id":953311,"name":"On or near Downing Street"},"longitude":"-0.127032"},"context":"","outcome_status":null,"persistent_id":"","id":98969672,"location_subtype":"","month":"2022-01"},{"category":"anti-social-behaviour","location_type":"Force","location":{"latitude":"51.503196","street":{"id":953311,"name":"On or near Downing Street"},"longitude":"-0.127032"},"context":"","outcome_status":null,"persistent_id":"","id":98969671,"location_subtype":"","month":"2022-01"},{"category":"anti-social-behaviour","location_type":"Force","location":{"latitude":"51.503196","street":{"id":953311,"name":"On or near Downing Street"},"longitude":"-0.127032"},"context":"","outcome_status":null,"persistent_id":"","id":98969670,"location_subtype":"","month":"2022-01"},{"category":"anti-social-behaviour","location_type":"Force","location":{"latitude":"51.503196","street":{"id":953311,"name":"On or near Downing Street"},"longitude":"-0.127032"},"context":"","outcome_status":null,"persistent_id":"","id":98969669,"location_subtype":"","month":"2022-01"},{"category":"anti-social-behaviour","location_type":"Force","location":{"latitude":"51.503196","street":{"id":953311,"name":"On or near Downing Street"},"longitude":"-0.127032"},"context":"","outcome_status":null,"persistent_id":"","id":98969668,"location_subtype":"","month":"2022-01"},{"category":"anti-social-behaviour","location_type":"Force","location":{"latitude":"51.503196","street":{"id":953311,"name":"On or near Downing Street"},"longitude":"-0.127032"},"context":"","outcome_status":null,"persistent_id":"","id":98969667,"location_subtype":"","month":"2022-01"},{"category":"anti-social-behaviour","location_type":"Force","location":{"latitude":"51.503196","street":{"id":953311,"name":"On or near Downing Street"},"longitude":"-0.127032"},"context":"","outcome_status":null,"persistent_id":"","id":98969666,"location_subtype":"","month":"2022-01"},{"category":"anti-social-behaviour","location_type":"Force","location":{"latitude":"51.508592","street":{"id":956519,"name":"On or near Duncannon Street"},"longitude":"-0.126479"},"context":"","outcome_status":null,"persistent_id":"","id":98969665,"location_subtype":"","month":"2022-01"},{"category":"anti-social-behaviour","location_type":"Force","location":{"latitude":"51.495273","street":{"id":953421,"name":"On or near Dean Bradley Street"},"longitude":"-0.126954"},"context":"","outcome_status":null,"persistent_id":"","id":98969664,"location_subtype":"","month":"2022-01"},{"category":"anti-social-behaviour","location_type":"Force","location":{"latitude":"51.510678","street":{"id":956451,"name":"On or near St Martin's Lane"},"longitude":"-0.126999"},"context":"","outcome_status":null,"persistent_id":"","id":98969663,"location_subtype":"","month":"2022-01"},{"category":"anti-social-behaviour","location_type":"Force","location":{"latitude":"51.499400","street":{"id":953260,"name":"On or near The Sanctuary"},"longitude":"-0.129162"},"context":"","outcome_status":null,"persistent_id":"","id":98969662,"location_subtype":"","month":"2022-01"},{"category":"anti-social-behaviour","location_type":"Force","location":{"latitude":"51.506712","street":{"id":956659,"name":"On or near Craig's Court"},"longitude":"-0.126974"},"context":"","outcome_status":null,"persistent_id":"","id":98969661,"location_subtype":"","month":"2022-01"},{"category":"anti-social-behaviour","location_type":"Force","location":{"latitude":"51.506712","street":{"id":956659,"name":"On or near Craig's Court"},"longitude":"-0.126974"},"context":"","outcome_status":null,"persistent_id":"","id":98969660,"location_subtype":"","month":"2022-01"},{"category":"anti-social-behaviour","location_type":"Force","location":{"latitude":"51.506712","street":{"id":956659,"name":"On or near Craig's Court"},"longitude":"-0.126974"},"context":"","outcome_status":null,"persistent_id":"","id":98969659,"location_subtype":"","month":"2022-01"},{"category":"anti-social-behaviour","location_type":"Force","location":{"latitude":"51.511581","street":{"id":956526,"name":"On or near Cranbourn Street"},"longitude":"-0.127798"},"context":"","outcome_status":null,"persistent_id":"","id":98969657,"location_subtype":"","month":"2022-01"},{"category":"anti-social-behaviour","location_type":"Force","location":{"latitude":"51.510678","street":{"id":956451,"name":"On or near St Martin's Lane"},"longitude":"-0.126999"},"context":"","outcome_status":null,"persistent_id":"","id":98969656,"location_subtype":"","month":"2022-01"},{"category":"anti-social-behaviour","location_type":"Force","location":{"latitude":"51.510164","street":{"id":956585,"name":"On or near Theatre\/concert Hall"},"longitude":"-0.127525"},"context":"","outcome_status":null,"persistent_id":"","id":98969655,"location_subtype":"","month":"2022-01"},{"category":"anti-social-behaviour","location_type":"Force","location":{"latitude":"51.492669","street":{"id":953413,"name":"On or near Marsham Street"},"longitude":"-0.128919"},"context":"","outcome_status":null,"persistent_id":"","id":98969654,"location_subtype":"","month":"2022-01"},{"category":"anti-social-behaviour","location_type":"Force","location":{"latitude":"51.492669","street":{"id":953413,"name":"On or near Marsham Street"},"longitude":"-0.128919"},"context":"","outcome_status":null,"persistent_id":"","id":98969653,"location_subtype":"","month":"2022-01"},{"category":"anti-social-behaviour","location_type":"Force","location":{"latitude":"51.509874","street":{"id":956530,"name":"On or near Charing Cross Road"},"longitude":"-0.128459"},"context":"","outcome_status":null,"persistent_id":"","id":98969652,"location_subtype":"","month":"2022-01"},{"category":"anti-social-behaviour","location_type":"Force","location":{"latitude":"51.507309","street":{"id":956645,"name":"On or near Pedestrian Subway"},"longitude":"-0.128348"},"context":"","outcome_status":null,"persistent_id":"","id":98969482,"location_subtype":"","month":"2022-01"},{"category":"anti-social-behaviour","location_type":"Force","location":{"latitude":"51.512191","street":{"id":956602,"name":"On or near Shopping Area"},"longitude":"-0.128839"},"context":"","outcome_status":null,"persistent_id":"","id":98969481,"location_subtype":"","month":"2022-01"},{"category":"anti-social-behaviour","location_type":"Force","location":{"latitude":"51.512191","street":{"id":956602,"name":"On or near Shopping Area"},"longitude":"-0.128839"},"context":"","outcome_status":null,"persistent_id":"","id":98969480,"location_subtype":"","month":"2022-01"},{"category":"anti-social-behaviour","location_type":"Force","location":{"latitude":"51.509874","street":{"id":956530,"name":"On or near Charing Cross Road"},"longitude":"-0.128459"},"context":"","outcome_status":null,"persistent_id":"","id":98969479,"location_subtype":"","month":"2022-01"},{"category":"anti-social-behaviour","location_type":"Force","location":{"latitude":"51.492669","street":{"id":953413,"name":"On or near Marsham Street"},"longitude":"-0.128919"},"context":"","outcome_status":null,"persistent_id":"","id":98969478,"location_subtype":"","month":"2022-01"},{"category":"anti-social-behaviour","location_type":"Force","location":{"latitude":"51.501207","street":{"id":953429,"name":"On or near Great George Street"},"longitude":"-0.128569"},"context":"","outcome_status":null,"persistent_id":"","id":98969477,"location_subtype":"","month":"2022-01"},{"category":"anti-social-behaviour","location_type":"Force","location":{"latitude":"51.511715","street":{"id":956493,"name":"On or near Little Newport Street"},"longitude":"-0.128902"},"context":"","outcome_status":null,"persistent_id":"","id":98969476,"location_subtype":"","month":"2022-01"},{"category":"anti-social-behaviour","location_type":"Force","location":{"latitude":"51.511715","street":{"id":956493,"name":"On or near Little Newport Street"},"longitude":"-0.128902"},"context":"","outcome_status":null,"persistent_id":"","id":98969475,"location_subtype":"","month":"2022-01"},{"category":"anti-social-behaviour","location_type":"Force","location":{"latitude":"51.510835","street":{"id":956562,"name":"On or near Nightclub"},"longitude":"-0.128996"},"context":"","outcome_status":null,"persistent_id":"","id":98969474,"location_subtype":"","month":"2022-01"},{"category":"anti-social-behaviour","location_type":"Force","location":{"latitude":"51.511715","street":{"id":956493,"name":"On or near Little Newport Street"},"longitude":"-0.128902"},"context":"","outcome_status":null,"persistent_id":"","id":98969473,"location_subtype":"","month":"2022-01"},{"category":"anti-social-behaviour","location_type":"Force","location":{"latitude":"51.511715","street":{"id":956493,"name":"On or near Little Newport Street"},"longitude":"-0.128902"},"context":"","outcome_status":null,"persistent_id":"","id":98969472,"location_subtype":"","month":"2022-01"},{"category":"anti-social-behaviour","location_type":"Force","location":{"latitude":"51.511715","street":{"id":956493,"name":"On or near Little Newport Street"},"longitude":"-0.128902"},"context":"","outcome_status":null,"persistent_id":"","id":98969471,"location_subtype":"","month":"2022-01"},{"category":"anti-social-behaviour","location_type":"Force","location":{"latitude":"51.511715","street":{"id":956493,"name":"On or near Little Newport Street"},"longitude":"-0.128902"},"context":"","outcome_status":null,"persistent_id":"","id":98969470,"location_subtype":"","month":"2022-01"},{"category":"anti-social-behaviour","location_type":"Force","location":{"latitude":"51.507657","street":{"id":956660,"name":"On or near Cockspur Street"},"longitude":"-0.129890"},"context":"","outcome_status":null,"persistent_id":"","id":98969469,"location_subtype":"","month":"2022-01"},{"category":"anti-social-behaviour","location_type":"Force","location":{"latitude":"51.507657","street":{"id":956660,"name":"On or near Cockspur Street"},"longitude":"-0.129890"},"context":"","outcome_status":null,"persistent_id":"","id":98969468,"location_subtype":"","month":"2022-01"},{"category":"anti-social-behaviour","location_type":"Force","location":{"latitude":"51.510835","street":{"id":956562,"name":"On or near Nightclub"},"longitude":"-0.128996"},"context":"","outcome_status":null,"persistent_id":"","id":98969467,"location_subtype":"","month":"2022-01"},{"category":"anti-social-behaviour","location_type":"Force","location":{"latitude":"51.513158","street":{"id":956593,"name":"On or near Theatre\/concert Hall"},"longitude":"-0.129722"},"context":"","outcome_status":null,"persistent_id":"","id":98969466,"location_subtype":"","month":"2022-01"},{"category":"anti-social-behaviour","location_type":"Force","location":{"latitude":"51.513158","street":{"id":956593,"name":"On or near Theatre\/concert Hall"},"longitude":"-0.129722"},"context":"","outcome_status":null,"persistent_id":"","id":98969465,"location_subtype":"","month":"2022-01"},{"category":"anti-social-behaviour","location_type":"Force","location":{"latitude":"51.509787","street":{"id":956556,"name":"On or near Nightclub"},"longitude":"-0.129240"},"context":"","outcome_status":null,"persistent_id":"","id":98969464,"location_subtype":"","month":"2022-01"},{"category":"anti-social-behaviour","location_type":"Force","location":{"latitude":"51.509787","street":{"id":956556,"name":"On or near Nightclub"},"longitude":"-0.129240"},"context":"","outcome_status":null,"persistent_id":"","id":98969463,"location_subtype":"","month":"2022-01"},{"category":"anti-social-behaviour","location_type":"Force","location":{"latitude":"51.496909","street":{"id":953283,"name":"On or near Great Peter Street"},"longitude":"-0.129739"},"context":"","outcome_status":null,"persistent_id":"","id":98969462,"location_subtype":"","month":"2022-01"},{"category":"anti-social-behaviour","location_type":"Force","location":{"latitude":"51.496909","street":{"id":953283,"name":"On or near Great Peter Street"},"longitude":"-0.129739"},"context":"","outcome_status":null,"persistent_id":"","id":98969461,"location_subtype":"","month":"2022-01"},{"category":"anti-social-behaviour","location_type":"Force","location":{"latitude":"51.496909","street":{"id":953283,"name":"On or near Great Peter Street"},"longitude":"-0.129739"},"context":"","outcome_status":null,"persistent_id":"","id":98969460,"location_subtype":"","month":"2022-01"},{"category":"anti-social-behaviour","location_type":"Force","location":{"latitude":"51.496909","street":{"id":953283,"name":"On or near Great Peter Street"},"longitude":"-0.129739"},"context":"","outcome_status":null,"persistent_id":"","id":98969459,"location_subtype":"","month":"2022-01"},{"category":"anti-social-behaviour","location_type":"Force","location":{"latitude":"51.496909","street":{"id":953283,"name":"On or near Great Peter Street"},"longitude":"-0.129739"},"context":"","outcome_status":null,"persistent_id":"","id":98969458,"location_subtype":"","month":"2022-01"},{"category":"anti-social-behaviour","location_type":"Force","location":{"latitude":"51.496909","street":{"id":953283,"name":"On or near Great Peter Street"},"longitude":"-0.129739"},"context":"","outcome_status":null,"persistent_id":"","id":98969457,"location_subtype":"","month":"2022-01"},{"category":"anti-social-behaviour","location_type":"Force","location":{"latitude":"51.496909","street":{"id":953283,"name":"On or near Great Peter Street"},"longitude":"-0.129739"},"context":"","outcome_status":null,"persistent_id":"","id":98969456,"location_subtype":"","month":"2022-01"},{"category":"anti-social-behaviour","location_type":"Force","location":{"latitude":"51.496909","street":{"id":953283,"name":"On or near Great Peter Street"},"longitude":"-0.129739"},"context":"","outcome_status":null,"persistent_id":"","id":98969455,"location_subtype":"","month":"2022-01"},{"category":"anti-social-behaviour","location_type":"Force","location":{"latitude":"51.496909","street":{"id":953283,"name":"On or near Great Peter Street"},"longitude":"-0.129739"},"context":"","outcome_status":null,"persistent_id":"","id":98969454,"location_subtype":"","month":"2022-01"},{"category":"anti-social-behaviour","location_type":"Force","location":{"latitude":"51.496909","street":{"id":953283,"name":"On or near Great Peter Street"},"longitude":"-0.129739"},"context":"","outcome_status":null,"persistent_id":"","id":98969453,"location_subtype":"","month":"2022-01"},{"category":"anti-social-behaviour","location_type":"Force","location":{"latitude":"51.514046","street":{"id":956529,"name":"On or near Charing Cross Road"},"longitude":"-0.129599"},"context":"","outcome_status":null,"persistent_id":"","id":98969452,"location_subtype":"","month":"2022-01"},{"category":"anti-social-behaviour","location_type":"Force","location":{"latitude":"51.514046","street":{"id":956529,"name":"On or near Charing Cross Road"},"longitude":"-0.129599"},"context":"","outcome_status":null,"persistent_id":"","id":98969451,"location_subtype":"","month":"2022-01"},{"category":"anti-social-behaviour","location_type":"Force","location":{"latitude":"51.514046","street":{"id":956529,"name":"On or near Charing Cross Road"},"longitude":"-0.129599"},"context":"","outcome_status":null,"persistent_id":"","id":98969450,"location_subtype":"","month":"2022-01"},{"category":"anti-social-behaviour","location_type":"Force","location":{"latitude":"51.509787","street":{"id":956556,"name":"On or near Nightclub"},"longitude":"-0.129240"},"context":"","outcome_status":null,"persistent_id":"","id":98969449,"location_subtype":"","month":"2022-01"},{"category":"anti-social-behaviour","location_type":"Force","location":{"latitude":"51.509428","street":{"id":956477,"name":"On or near Orange Street"},"longitude":"-0.130379"},"context":"","outcome_status":null,"persistent_id":"","id":98969447,"location_subtype":"","month":"2022-01"},{"category":"anti-social-behaviour","location_type":"Force","location":{"latitude":"51.509428","street":{"id":956477,"name":"On or near Orange Street"},"longitude":"-0.130379"},"context":"","outcome_status":null,"persistent_id":"","id":98969446,"location_subtype":"","month":"2022-01"},{"category":"anti-social-behaviour","location_type":"Force","location":{"latitude":"51.493930","street":{"id":953410,"name":"On or near Page Street"},"longitude":"-0.129573"},"context":"","outcome_status":null,"persistent_id":"","id":98969445,"location_subtype":"","month":"2022-01"},{"category":"anti-social-behaviour","location_type":"Force","location":{"latitude":"51.513474","street":{"id":956484,"name":"On or near Moor Street"},"longitude":"-0.129824"},"context":"","outcome_status":null,"persistent_id":"","id":98969444,"location_subtype":"","month":"2022-01"},{"category":"anti-social-behaviour","location_type":"Force","location":{"latitude":"51.509428","street":{"id":956477,"name":"On or near Orange Street"},"longitude":"-0.130379"},"context":"","outcome_status":null,"persistent_id":"","id":98969443,"location_subtype":"","month":"2022-01"},{"category":"anti-social-behaviour","location_type":"Force","location":{"latitude":"51.510827","street":{"id":956579,"name":"On or near Nightclub"},"longitude":"-0.130697"},"context":"","outcome_status":null,"persistent_id":"","id":98969441,"location_subtype":"","month":"2022-01"},{"category":"anti-social-behaviour","location_type":"Force","location":{"latitude":"51.510827","street":{"id":956579,"name":"On or near Nightclub"},"longitude":"-0.130697"},"context":"","outcome_status":null,"persistent_id":"","id":98969440,"location_subtype":"","month":"2022-01"},{"category":"anti-social-behaviour","location_type":"Force","location":{"latitude":"51.510827","street":{"id":956579,"name":"On or near Nightclub"},"longitude":"-0.130697"},"context":"","outcome_status":null,"persistent_id":"","id":98969439,"location_subtype":"","month":"2022-01"},{"category":"anti-social-behaviour","location_type":"Force","location":{"latitude":"51.490621","street":{"id":949718,"name":"On or near Causton Street"},"longitude":"-0.131322"},"context":"","outcome_status":null,"persistent_id":"","id":98969438,"location_subtype":"","month":"2022-01"},{"category":"anti-social-behaviour","location_type":"Force","location":{"latitude":"51.511128","street":{"id":956580,"name":"On or near Nightclub"},"longitude":"-0.129834"},"context":"","outcome_status":null,"persistent_id":"","id":98969437,"location_subtype":"","month":"2022-01"},{"category":"anti-social-behaviour","location_type":"Force","location":{"latitude":"51.489334","street":{"id":949709,"name":"On or near Drummond Gate"},"longitude":"-0.131792"},"context":"","outcome_status":null,"persistent_id":"","id":98969436,"location_subtype":"","month":"2022-01"},{"category":"anti-social-behaviour","location_type":"Force","location":{"latitude":"51.494730","street":{"id":953409,"name":"On or near Regency Street"},"longitude":"-0.132393"},"context":"","outcome_status":null,"persistent_id":"","id":98969435,"location_subtype":"","month":"2022-01"},{"category":"anti-social-behaviour","location_type":"Force","location":{"latitude":"51.492970","street":{"id":953399,"name":"On or near Vincent Street"},"longitude":"-0.131398"},"context":"","outcome_status":null,"persistent_id":"","id":98969434,"location_subtype":"","month":"2022-01"},{"category":"anti-social-behaviour","location_type":"Force","location":{"latitude":"51.514007","street":{"id":956581,"name":"On or near Nightclub"},"longitude":"-0.131085"},"context":"","outcome_status":null,"persistent_id":"","id":98969432,"location_subtype":"","month":"2022-01"},{"category":"anti-social-behaviour","location_type":"Force","location":{"latitude":"51.514007","street":{"id":956581,"name":"On or near Nightclub"},"longitude":"-0.131085"},"context":"","outcome_status":null,"persistent_id":"","id":98969431,"location_subtype":"","month":"2022-01"},{"category":"anti-social-behaviour","location_type":"Force","location":{"latitude":"51.514007","street":{"id":956581,"name":"On or near Nightclub"},"longitude":"-0.131085"},"context":"","outcome_status":null,"persistent_id":"","id":98969430,"location_subtype":"","month":"2022-01"},{"category":"anti-social-behaviour","location_type":"Force","location":{"latitude":"51.514007","street":{"id":956581,"name":"On or near Nightclub"},"longitude":"-0.131085"},"context":"","outcome_status":null,"persistent_id":"","id":98969429,"location_subtype":"","month":"2022-01"},{"category":"anti-social-behaviour","location_type":"Force","location":{"latitude":"51.514007","street":{"id":956581,"name":"On or near Nightclub"},"longitude":"-0.131085"},"context":"","outcome_status":null,"persistent_id":"","id":98969428,"location_subtype":"","month":"2022-01"},{"category":"anti-social-behaviour","location_type":"Force","location":{"latitude":"51.510856","street":{"id":956428,"name":"On or near Parking Area"},"longitude":"-0.131416"},"context":"","outcome_status":null,"persistent_id":"","id":98969427,"location_subtype":"","month":"2022-01"},{"category":"anti-social-behaviour","location_type":"Force","location":{"latitude":"51.498328","street":{"id":953294,"name":"On or near Abbey Orchard Street"},"longitude":"-0.131338"},"context":"","outcome_status":null,"persistent_id":"","id":98969426,"location_subtype":"","month":"2022-01"},{"category":"anti-social-behaviour","location_type":"Force","location":{"latitude":"51.509514","street":{"id":956429,"name":"On or near Parking Area"},"longitude":"-0.131284"},"context":"","outcome_status":null,"persistent_id":"","id":98969425,"location_subtype":"","month":"2022-01"},{"category":"anti-social-behaviour","location_type":"Force","location":{"latitude":"51.511985","street":{"id":956432,"name":"On or near Shopping Area"},"longitude":"-0.131701"},"context":"","outcome_status":null,"persistent_id":"","id":98969424,"location_subtype":"","month":"2022-01"},{"category":"anti-social-behaviour","location_type":"Force","location":{"latitude":"51.497183","street":{"id":953270,"name":"On or near Perkin's Rents"},"longitude":"-0.132249"},"context":"","outcome_status":null,"persistent_id":"","id":98969423,"location_subtype":"","month":"2022-01"},{"category":"anti-social-behaviour","location_type":"Force","location":{"latitude":"51.513664","street":{"id":956513,"name":"On or near Frith Street"},"longitude":"-0.131575"},"context":"","outcome_status":null,"persistent_id":"","id":98969422,"location_subtype":"","month":"2022-01"},{"category":"anti-social-behaviour","location_type":"Force","location":{"latitude":"51.508926","street":{"id":956502,"name":"On or near Haymarket"},"longitude":"-0.132187"},"context":"","outcome_status":null,"persistent_id":"","id":98969421,"location_subtype":"","month":"2022-01"},{"category":"anti-social-behaviour","location_type":"Force","location":{"latitude":"51.508123","street":{"id":956670,"name":"On or near Theatre\/concert Hall"},"longitude":"-0.132032"},"context":"","outcome_status":null,"persistent_id":"","id":98969420,"location_subtype":"","month":"2022-01"},{"category":"anti-social-behaviour","location_type":"Force","location":{"latitude":"51.508926","street":{"id":956502,"name":"On or near Haymarket"},"longitude":"-0.132187"},"context":"","outcome_status":null,"persistent_id":"","id":98969419,"location_subtype":"","month":"2022-01"},{"category":"anti-social-behaviour","location_type":"Force","location":{"latitude":"51.507569","street":{"id":956649,"name":"On or near Waterloo Place"},"longitude":"-0.132833"},"context":"","outcome_status":null,"persistent_id":"","id":98969417,"location_subtype":"","month":"2022-01"},{"category":"anti-social-behaviour","location_type":"Force","location":{"latitude":"51.507569","street":{"id":956649,"name":"On or near Waterloo Place"},"longitude":"-0.132833"},"context":"","outcome_status":null,"persistent_id":"","id":98969418,"location_subtype":"","month":"2022-01"},{"category":"anti-social-behaviour","location_type":"Force","location":{"latitude":"51.506153","street":{"id":956124,"name":"On or near Zoar Street"},"longitude":"-0.098408"},"context":"","outcome_status":null,"persistent_id":"","id":98979370,"location_subtype":"","month":"2022-01"},{"category":"anti-social-behaviour","location_type":"Force","location":{"latitude":"51.509980","street":{"id":956543,"name":"On or near Motorway Service Area"},"longitude":"-0.132331"},"context":"","outcome_status":null,"persistent_id":"","id":98969415,"location_subtype":"","month":"2022-01"},{"category":"anti-social-behaviour","location_type":"Force","location":{"latitude":"51.511790","street":{"id":956461,"name":"On or near Shaftesbury Avenue"},"longitude":"-0.132473"},"context":"","outcome_status":null,"persistent_id":"","id":98969414,"location_subtype":"","month":"2022-01"},{"category":"anti-social-behaviour","location_type":"Force","location":{"latitude":"51.509371","street":{"id":956452,"name":"On or near St James's Market"},"longitude":"-0.133033"},"context":"","outcome_status":null,"persistent_id":"","id":98969413,"location_subtype":"","month":"2022-01"},{"category":"anti-social-behaviour","location_type":"Force","location":{"latitude":"51.495745","street":{"id":953256,"name":"On or near Parking Area"},"longitude":"-0.132308"},"context":"","outcome_status":null,"persistent_id":"","id":98969412,"location_subtype":"","month":"2022-01"},{"category":"anti-social-behaviour","location_type":"Force","location":{"latitude":"51.495745","street":{"id":953256,"name":"On or near Parking Area"},"longitude":"-0.132308"},"context":"","outcome_status":null,"persistent_id":"","id":98969411,"location_subtype":"","month":"2022-01"},{"category":"anti-social-behaviour","location_type":"Force","location":{"latitude":"51.495745","street":{"id":953256,"name":"On or near Parking Area"},"longitude":"-0.132308"},"context":"","outcome_status":null,"persistent_id":"","id":98969410,"location_subtype":"","month":"2022-01"},{"category":"anti-social-behaviour","location_type":"Force","location":{"latitude":"51.495745","street":{"id":953256,"name":"On or near Parking Area"},"longitude":"-0.132308"},"context":"","outcome_status":null,"persistent_id":"","id":98969409,"location_subtype":"","month":"2022-01"},{"category":"anti-social-behaviour","location_type":"Force","location":{"latitude":"51.510893","street":{"id":956463,"name":"On or near Rupert Street"},"longitude":"-0.132639"},"context":"","outcome_status":null,"persistent_id":"","id":98969407,"location_subtype":"","month":"2022-01"},{"category":"anti-social-behaviour","location_type":"Force","location":{"latitude":"51.510893","street":{"id":956463,"name":"On or near Rupert Street"},"longitude":"-0.132639"},"context":"","outcome_status":null,"persistent_id":"","id":98969406,"location_subtype":"","month":"2022-01"},{"category":"anti-social-behaviour","location_type":"Force","location":{"latitude":"51.510893","street":{"id":956463,"name":"On or near Rupert Street"},"longitude":"-0.132639"},"context":"","outcome_status":null,"persistent_id":"","id":98969405,"location_subtype":"","month":"2022-01"},{"category":"anti-social-behaviour","location_type":"Force","location":{"latitude":"51.510893","street":{"id":956463,"name":"On or near Rupert Street"},"longitude":"-0.132639"},"context":"","outcome_status":null,"persistent_id":"","id":98969404,"location_subtype":"","month":"2022-01"},{"category":"anti-social-behaviour","location_type":"Force","location":{"latitude":"51.510893","street":{"id":956463,"name":"On or near Rupert Street"},"longitude":"-0.132639"},"context":"","outcome_status":null,"persistent_id":"","id":98969403,"location_subtype":"","month":"2022-01"},{"category":"anti-social-behaviour","location_type":"Force","location":{"latitude":"51.510893","street":{"id":956463,"name":"On or near Rupert Street"},"longitude":"-0.132639"},"context":"","outcome_status":null,"persistent_id":"","id":98969402,"location_subtype":"","month":"2022-01"},{"category":"anti-social-behaviour","location_type":"Force","location":{"latitude":"51.510893","street":{"id":956463,"name":"On or near Rupert Street"},"longitude":"-0.132639"},"context":"","outcome_status":null,"persistent_id":"","id":98969401,"location_subtype":"","month":"2022-01"},{"category":"anti-social-behaviour","location_type":"Force","location":{"latitude":"51.510893","street":{"id":956463,"name":"On or near Rupert Street"},"longitude":"-0.132639"},"context":"","outcome_status":null,"persistent_id":"","id":98969400,"location_subtype":"","month":"2022-01"},{"category":"anti-social-behaviour","location_type":"Force","location":{"latitude":"51.513096","street":{"id":956537,"name":"On or near Bourchier Street"},"longitude":"-0.132593"},"context":"","outcome_status":null,"persistent_id":"","id":98969399,"location_subtype":"","month":"2022-01"},{"category":"anti-social-behaviour","location_type":"Force","location":{"latitude":"51.513096","street":{"id":956537,"name":"On or near Bourchier Street"},"longitude":"-0.132593"},"context":"","outcome_status":null,"persistent_id":"","id":98969398,"location_subtype":"","month":"2022-01"},{"category":"anti-social-behaviour","location_type":"Force","location":{"latitude":"51.511790","street":{"id":956461,"name":"On or near Shaftesbury Avenue"},"longitude":"-0.132473"},"context":"","outcome_status":null,"persistent_id":"","id":98969396,"location_subtype":"","month":"2022-01"},{"category":"anti-social-behaviour","location_type":"Force","location":{"latitude":"51.512482","street":{"id":956588,"name":"On or near Nightclub"},"longitude":"-0.134160"},"context":"","outcome_status":null,"persistent_id":"","id":98969392,"location_subtype":"","month":"2022-01"},{"category":"anti-social-behaviour","location_type":"Force","location":{"latitude":"51.512720","street":{"id":956474,"name":"On or near Peter Street"},"longitude":"-0.134395"},"context":"","outcome_status":null,"persistent_id":"","id":98969391,"location_subtype":"","month":"2022-01"},{"category":"anti-social-behaviour","location_type":"Force","location":{"latitude":"51.497407","street":{"id":953292,"name":"On or near Artillery Row"},"longitude":"-0.135640"},"context":"","outcome_status":null,"persistent_id":"","id":98969389,"location_subtype":"","month":"2022-01"},{"category":"anti-social-behaviour","location_type":"Force","location":{"latitude":"51.508581","street":{"id":956540,"name":"On or near Babmaes Street"},"longitude":"-0.134838"},"context":"","outcome_status":null,"persistent_id":"","id":98969388,"location_subtype":"","month":"2022-01"},{"category":"anti-social-behaviour","location_type":"Force","location":{"latitude":"51.510006","street":{"id":956472,"name":"On or near Piccadilly Circus"},"longitude":"-0.135054"},"context":"","outcome_status":null,"persistent_id":"","id":98969387,"location_subtype":"","month":"2022-01"},{"category":"anti-social-behaviour","location_type":"Force","location":{"latitude":"51.510006","street":{"id":956472,"name":"On or near Piccadilly Circus"},"longitude":"-0.135054"},"context":"","outcome_status":null,"persistent_id":"","id":98969386,"location_subtype":"","month":"2022-01"},{"category":"anti-social-behaviour","location_type":"Force","location":{"latitude":"51.510006","street":{"id":956472,"name":"On or near Piccadilly Circus"},"longitude":"-0.135054"},"context":"","outcome_status":null,"persistent_id":"","id":98969385,"location_subtype":"","month":"2022-01"},{"category":"anti-social-behaviour","location_type":"Force","location":{"latitude":"51.489929","street":{"id":949679,"name":"On or near Tachbrook Street"},"longitude":"-0.135844"},"context":"","outcome_status":null,"persistent_id":"","id":98969384,"location_subtype":"","month":"2022-01"},{"category":"anti-social-behaviour","location_type":"Force","location":{"latitude":"51.489929","street":{"id":949679,"name":"On or near Tachbrook Street"},"longitude":"-0.135844"},"context":"","outcome_status":null,"persistent_id":"","id":98969383,"location_subtype":"","month":"2022-01"},{"category":"anti-social-behaviour","location_type":"Force","location":{"latitude":"51.489929","street":{"id":949679,"name":"On or near Tachbrook Street"},"longitude":"-0.135844"},"context":"","outcome_status":null,"persistent_id":"","id":98969381,"location_subtype":"","month":"2022-01"},{"category":"anti-social-behaviour","location_type":"Force","location":{"latitude":"51.513145","street":{"id":956499,"name":"On or near Hopkins Street"},"longitude":"-0.135098"},"context":"","outcome_status":null,"persistent_id":"","id":98969379,"location_subtype":"","month":"2022-01"},{"category":"anti-social-behaviour","location_type":"Force","location":{"latitude":"51.492155","street":{"id":949736,"name":"On or near Hospital"},"longitude":"-0.136128"},"context":"","outcome_status":null,"persistent_id":"","id":98969378,"location_subtype":"","month":"2022-01"},{"category":"anti-social-behaviour","location_type":"Force","location":{"latitude":"51.513081","street":{"id":956498,"name":"On or near Ingestre Place"},"longitude":"-0.135605"},"context":"","outcome_status":null,"persistent_id":"","id":98969377,"location_subtype":"","month":"2022-01"},{"category":"anti-social-behaviour","location_type":"Force","location":{"latitude":"51.511394","street":{"id":956491,"name":"On or near Lower James Street"},"longitude":"-0.136424"},"context":"","outcome_status":null,"persistent_id":"","id":98969375,"location_subtype":"","month":"2022-01"},{"category":"anti-social-behaviour","location_type":"Force","location":{"latitude":"51.508862","street":{"id":956589,"name":"On or near Sports\/recreation Area"},"longitude":"-0.136657"},"context":"","outcome_status":null,"persistent_id":"","id":98969374,"location_subtype":"","month":"2022-01"},{"category":"anti-social-behaviour","location_type":"Force","location":{"latitude":"51.508499","street":{"id":956497,"name":"On or near Jermyn Street"},"longitude":"-0.136455"},"context":"","outcome_status":null,"persistent_id":"","id":98969373,"location_subtype":"","month":"2022-01"},{"category":"anti-social-behaviour","location_type":"Force","location":{"latitude":"51.508499","street":{"id":956497,"name":"On or near Jermyn Street"},"longitude":"-0.136455"},"context":"","outcome_status":null,"persistent_id":"","id":98969372,"location_subtype":"","month":"2022-01"},{"category":"anti-social-behaviour","location_type":"Force","location":{"latitude":"51.508499","street":{"id":956497,"name":"On or near Jermyn Street"},"longitude":"-0.136455"},"context":"","outcome_status":null,"persistent_id":"","id":98969371,"location_subtype":"","month":"2022-01"},{"category":"anti-social-behaviour","location_type":"Force","location":{"latitude":"51.508499","street":{"id":956497,"name":"On or near Jermyn Street"},"longitude":"-0.136455"},"context":"","outcome_status":null,"persistent_id":"","id":98969370,"location_subtype":"","month":"2022-01"},{"category":"anti-social-behaviour","location_type":"Force","location":{"latitude":"51.508499","street":{"id":956497,"name":"On or near Jermyn Street"},"longitude":"-0.136455"},"context":"","outcome_status":null,"persistent_id":"","id":98969369,"location_subtype":"","month":"2022-01"},{"category":"anti-social-behaviour","location_type":"Force","location":{"latitude":"51.496680","street":{"id":953279,"name":"On or near Howick Place"},"longitude":"-0.137427"},"context":"","outcome_status":null,"persistent_id":"","id":98969366,"location_subtype":"","month":"2022-01"},{"category":"anti-social-behaviour","location_type":"Force","location":{"latitude":"51.508862","street":{"id":956589,"name":"On or near Sports\/recreation Area"},"longitude":"-0.136657"},"context":"","outcome_status":null,"persistent_id":"","id":98969365,"location_subtype":"","month":"2022-01"},{"category":"anti-social-behaviour","location_type":"Force","location":{"latitude":"51.508862","street":{"id":956589,"name":"On or near Sports\/recreation Area"},"longitude":"-0.136657"},"context":"","outcome_status":null,"persistent_id":"","id":98969364,"location_subtype":"","month":"2022-01"},{"category":"anti-social-behaviour","location_type":"Force","location":{"latitude":"51.508862","street":{"id":956589,"name":"On or near Sports\/recreation Area"},"longitude":"-0.136657"},"context":"","outcome_status":null,"persistent_id":"","id":98969363,"location_subtype":"","month":"2022-01"},{"category":"anti-social-behaviour","location_type":"Force","location":{"latitude":"51.496680","street":{"id":953279,"name":"On or near Howick Place"},"longitude":"-0.137427"},"context":"","outcome_status":null,"persistent_id":"","id":98969362,"location_subtype":"","month":"2022-01"},{"category":"anti-social-behaviour","location_type":"Force","location":{"latitude":"51.494661","street":{"id":953422,"name":"On or near Coburg Close"},"longitude":"-0.137668"},"context":"","outcome_status":null,"persistent_id":"","id":98969360,"location_subtype":"","month":"2022-01"},{"category":"anti-social-behaviour","location_type":"Force","location":{"latitude":"51.494661","street":{"id":953422,"name":"On or near Coburg Close"},"longitude":"-0.137668"},"context":"","outcome_status":null,"persistent_id":"","id":98969359,"location_subtype":"","month":"2022-01"},{"category":"anti-social-behaviour","location_type":"Force","location":{"latitude":"51.494661","street":{"id":953422,"name":"On or near Coburg Close"},"longitude":"-0.137668"},"context":"","outcome_status":null,"persistent_id":"","id":98969358,"location_subtype":"","month":"2022-01"},{"category":"anti-social-behaviour","location_type":"Force","location":{"latitude":"51.514606","street":{"id":956471,"name":"On or near Poland Street"},"longitude":"-0.137071"},"context":"","outcome_status":null,"persistent_id":"","id":98969357,"location_subtype":"","month":"2022-01"},{"category":"anti-social-behaviour","location_type":"Force","location":{"latitude":"51.507386","street":{"id":956682,"name":"On or near Masons Yard"},"longitude":"-0.137682"},"context":"","outcome_status":null,"persistent_id":"","id":98969356,"location_subtype":"","month":"2022-01"},{"category":"anti-social-behaviour","location_type":"Force","location":{"latitude":"51.489509","street":{"id":949698,"name":"On or near Moreton Place"},"longitude":"-0.137734"},"context":"","outcome_status":null,"persistent_id":"","id":98969355,"location_subtype":"","month":"2022-01"},{"category":"anti-social-behaviour","location_type":"Force","location":{"latitude":"51.489509","street":{"id":949698,"name":"On or near Moreton Place"},"longitude":"-0.137734"},"context":"","outcome_status":null,"persistent_id":"","id":98969354,"location_subtype":"","month":"2022-01"},{"category":"anti-social-behaviour","location_type":"Force","location":{"latitude":"51.489509","street":{"id":949698,"name":"On or near Moreton Place"},"longitude":"-0.137734"},"context":"","outcome_status":null,"persistent_id":"","id":98969353,"location_subtype":"","month":"2022-01"},{"category":"anti-social-behaviour","location_type":"Force","location":{"latitude":"51.491519","street":{"id":949680,"name":"On or near Tachbrook Street"},"longitude":"-0.138012"},"context":"","outcome_status":null,"persistent_id":"","id":98969352,"location_subtype":"","month":"2022-01"},{"category":"anti-social-behaviour","location_type":"Force","location":{"latitude":"51.512226","street":{"id":956446,"name":"On or near Upper James Street"},"longitude":"-0.137298"},"context":"","outcome_status":null,"persistent_id":"","id":98969351,"location_subtype":"","month":"2022-01"},{"category":"anti-social-behaviour","location_type":"Force","location":{"latitude":"51.509324","street":{"id":956448,"name":"On or near Swallow Street"},"longitude":"-0.137430"},"context":"","outcome_status":null,"persistent_id":"","id":98969350,"location_subtype":"","month":"2022-01"},{"category":"anti-social-behaviour","location_type":"Force","location":{"latitude":"51.509324","street":{"id":956448,"name":"On or near Swallow Street"},"longitude":"-0.137430"},"context":"","outcome_status":null,"persistent_id":"","id":98969349,"location_subtype":"","month":"2022-01"},{"category":"anti-social-behaviour","location_type":"Force","location":{"latitude":"51.509324","street":{"id":956448,"name":"On or near Swallow Street"},"longitude":"-0.137430"},"context":"","outcome_status":null,"persistent_id":"","id":98969348,"location_subtype":"","month":"2022-01"},{"category":"anti-social-behaviour","location_type":"Force","location":{"latitude":"51.506206","street":{"id":956654,"name":"On or near Pall Mall Place"},"longitude":"-0.137572"},"context":"","outcome_status":null,"persistent_id":"","id":98969346,"location_subtype":"","month":"2022-01"},{"category":"anti-social-behaviour","location_type":"Force","location":{"latitude":"51.490316","street":{"id":949656,"name":"On or near Denbigh Street"},"longitude":"-0.139242"},"context":"","outcome_status":null,"persistent_id":"","id":98969340,"location_subtype":"","month":"2022-01"},{"category":"anti-social-behaviour","location_type":"Force","location":{"latitude":"51.490316","street":{"id":949656,"name":"On or near Denbigh Street"},"longitude":"-0.139242"},"context":"","outcome_status":null,"persistent_id":"","id":98969339,"location_subtype":"","month":"2022-01"},{"category":"anti-social-behaviour","location_type":"Force","location":{"latitude":"51.490316","street":{"id":949656,"name":"On or near Denbigh Street"},"longitude":"-0.139242"},"context":"","outcome_status":null,"persistent_id":"","id":98969338,"location_subtype":"","month":"2022-01"},{"category":"anti-social-behaviour","location_type":"Force","location":{"latitude":"51.490316","street":{"id":949656,"name":"On or near Denbigh Street"},"longitude":"-0.139242"},"context":"","outcome_status":null,"persistent_id":"","id":98969337,"location_subtype":"","month":"2022-01"},{"category":"anti-social-behaviour","location_type":"Force","location":{"latitude":"51.490316","street":{"id":949656,"name":"On or near Denbigh Street"},"longitude":"-0.139242"},"context":"","outcome_status":null,"persistent_id":"","id":98969336,"location_subtype":"","month":"2022-01"},{"category":"anti-social-behaviour","location_type":"Force","location":{"latitude":"51.493007","street":{"id":953384,"name":"On or near Upper Tachbrook Street"},"longitude":"-0.139378"},"context":"","outcome_status":null,"persistent_id":"","id":98969334,"location_subtype":"","month":"2022-01"},{"category":"anti-social-behaviour","location_type":"Force","location":{"latitude":"51.490316","street":{"id":949656,"name":"On or near Denbigh Street"},"longitude":"-0.139242"},"context":"","outcome_status":null,"persistent_id":"","id":98969333,"location_subtype":"","month":"2022-01"},{"category":"anti-social-behaviour","location_type":"Force","location":{"latitude":"51.490316","street":{"id":949656,"name":"On or near Denbigh Street"},"longitude":"-0.139242"},"context":"","outcome_status":null,"persistent_id":"","id":98969332,"location_subtype":"","month":"2022-01"},{"category":"anti-social-behaviour","location_type":"Force","location":{"latitude":"51.510275","street":{"id":956311,"name":"On or near Vigo Street"},"longitude":"-0.138977"},"context":"","outcome_status":null,"persistent_id":"","id":98969331,"location_subtype":"","month":"2022-01"},{"category":"anti-social-behaviour","location_type":"Force","location":{"latitude":"51.511868","street":{"id":956364,"name":"On or near Nightclub"},"longitude":"-0.138480"},"context":"","outcome_status":null,"persistent_id":"","id":98969329,"location_subtype":"","month":"2022-01"},{"category":"anti-social-behaviour","location_type":"Force","location":{"latitude":"51.492187","street":{"id":949670,"name":"On or near Supermarket"},"longitude":"-0.139325"},"context":"","outcome_status":null,"persistent_id":"","id":98969328,"location_subtype":"","month":"2022-01"},{"category":"anti-social-behaviour","location_type":"Force","location":{"latitude":"51.492187","street":{"id":949670,"name":"On or near Supermarket"},"longitude":"-0.139325"},"context":"","outcome_status":null,"persistent_id":"","id":98969327,"location_subtype":"","month":"2022-01"},{"category":"anti-social-behaviour","location_type":"Force","location":{"latitude":"51.492187","street":{"id":949670,"name":"On or near Supermarket"},"longitude":"-0.139325"},"context":"","outcome_status":null,"persistent_id":"","id":98969326,"location_subtype":"","month":"2022-01"},{"category":"anti-social-behaviour","location_type":"Force","location":{"latitude":"51.492187","street":{"id":949670,"name":"On or near Supermarket"},"longitude":"-0.139325"},"context":"","outcome_status":null,"persistent_id":"","id":98969325,"location_subtype":"","month":"2022-01"},{"category":"anti-social-behaviour","location_type":"Force","location":{"latitude":"51.492187","street":{"id":949670,"name":"On or near Supermarket"},"longitude":"-0.139325"},"context":"","outcome_status":null,"persistent_id":"","id":98969324,"location_subtype":"","month":"2022-01"},{"category":"anti-social-behaviour","location_type":"Force","location":{"latitude":"51.489733","street":{"id":949658,"name":"On or near Denbigh Place"},"longitude":"-0.139900"},"context":"","outcome_status":null,"persistent_id":"","id":98969323,"location_subtype":"","month":"2022-01"},{"category":"anti-social-behaviour","location_type":"Force","location":{"latitude":"51.489733","street":{"id":949658,"name":"On or near Denbigh Place"},"longitude":"-0.139900"},"context":"","outcome_status":null,"persistent_id":"","id":98969322,"location_subtype":"","month":"2022-01"},{"category":"anti-social-behaviour","location_type":"Force","location":{"latitude":"51.514289","street":{"id":956341,"name":"On or near Great Marlborough Street"},"longitude":"-0.139231"},"context":"","outcome_status":null,"persistent_id":"","id":98969320,"location_subtype":"","month":"2022-01"},{"category":"anti-social-behaviour","location_type":"Force","location":{"latitude":"51.514289","street":{"id":956341,"name":"On or near Great Marlborough Street"},"longitude":"-0.139231"},"context":"","outcome_status":null,"persistent_id":"","id":98969319,"location_subtype":"","month":"2022-01"},{"category":"anti-social-behaviour","location_type":"Force","location":{"latitude":"51.492635","street":{"id":953387,"name":"On or near Longmoore Street"},"longitude":"-0.140344"},"context":"","outcome_status":null,"persistent_id":"","id":98969318,"location_subtype":"","month":"2022-01"},{"category":"anti-social-behaviour","location_type":"Force","location":{"latitude":"51.492635","street":{"id":953387,"name":"On or near Longmoore Street"},"longitude":"-0.140344"},"context":"","outcome_status":null,"persistent_id":"","id":98969317,"location_subtype":"","month":"2022-01"},{"category":"anti-social-behaviour","location_type":"Force","location":{"latitude":"51.491460","street":{"id":949644,"name":"On or near Warwick Square"},"longitude":"-0.140507"},"context":"","outcome_status":null,"persistent_id":"","id":98969316,"location_subtype":"","month":"2022-01"},{"category":"anti-social-behaviour","location_type":"Force","location":{"latitude":"51.512098","street":{"id":956308,"name":"On or near Parking Area"},"longitude":"-0.139407"},"context":"","outcome_status":null,"persistent_id":"","id":98969315,"location_subtype":"","month":"2022-01"},{"category":"anti-social-behaviour","location_type":"Force","location":{"latitude":"51.512098","street":{"id":956308,"name":"On or near Parking Area"},"longitude":"-0.139407"},"context":"","outcome_status":null,"persistent_id":"","id":98969314,"location_subtype":"","month":"2022-01"},{"category":"anti-social-behaviour","location_type":"Force","location":{"latitude":"51.512098","street":{"id":956308,"name":"On or near Parking Area"},"longitude":"-0.139407"},"context":"","outcome_status":null,"persistent_id":"","id":98969313,"location_subtype":"","month":"2022-01"},{"category":"anti-social-behaviour","location_type":"Force","location":{"latitude":"51.508266","street":{"id":956694,"name":"On or near Nightclub"},"longitude":"-0.139866"},"context":"","outcome_status":null,"persistent_id":"","id":98969312,"location_subtype":"","month":"2022-01"},{"category":"anti-social-behaviour","location_type":"Force","location":{"latitude":"51.508266","street":{"id":956694,"name":"On or near Nightclub"},"longitude":"-0.139866"},"context":"","outcome_status":null,"persistent_id":"","id":98969310,"location_subtype":"","month":"2022-01"},{"category":"anti-social-behaviour","location_type":"Force","location":{"latitude":"51.514527","street":{"id":956360,"name":"On or near Nightclub"},"longitude":"-0.140057"},"context":"","outcome_status":null,"persistent_id":"","id":98969309,"location_subtype":"","month":"2022-01"},{"category":"anti-social-behaviour","location_type":"Force","location":{"latitude":"51.510632","street":{"id":956307,"name":"On or near Parking Area"},"longitude":"-0.140519"},"context":"","outcome_status":null,"persistent_id":"","id":98969308,"location_subtype":"","month":"2022-01"},{"category":"anti-social-behaviour","location_type":"Force","location":{"latitude":"51.514347","street":{"id":956356,"name":"On or near Argyll Street"},"longitude":"-0.140569"},"context":"","outcome_status":null,"persistent_id":"","id":98969156,"location_subtype":"","month":"2022-01"},{"category":"anti-social-behaviour","location_type":"Force","location":{"latitude":"51.496188","street":{"id":953352,"name":"On or near Ashley Place"},"longitude":"-0.140948"},"context":"","outcome_status":null,"persistent_id":"","id":98969154,"location_subtype":"","month":"2022-01"},{"category":"anti-social-behaviour","location_type":"Force","location":{"latitude":"51.514347","street":{"id":956356,"name":"On or near Argyll Street"},"longitude":"-0.140569"},"context":"","outcome_status":null,"persistent_id":"","id":98969145,"location_subtype":"","month":"2022-01"},{"category":"anti-social-behaviour","location_type":"Force","location":{"latitude":"51.514347","street":{"id":956356,"name":"On or near Argyll Street"},"longitude":"-0.140569"},"context":"","outcome_status":null,"persistent_id":"","id":98969144,"location_subtype":"","month":"2022-01"},{"category":"anti-social-behaviour","location_type":"Force","location":{"latitude":"51.509980","street":{"id":956543,"name":"On or near Motorway Service Area"},"longitude":"-0.132331"},"context":"","outcome_status":null,"persistent_id":"","id":98979655,"location_subtype":"","month":"2022-01"},{"category":"anti-social-behaviour","location_type":"Force","location":{"latitude":"51.514295","street":{"id":956531,"name":"On or near Chapone Place"},"longitude":"-0.132789"},"context":"","outcome_status":null,"persistent_id":"","id":98979654,"location_subtype":"","month":"2022-01"},{"category":"anti-social-behaviour","location_type":"Force","location":{"latitude":"51.514295","street":{"id":956531,"name":"On or near Chapone Place"},"longitude":"-0.132789"},"context":"","outcome_status":null,"persistent_id":"","id":98979653,"location_subtype":"","month":"2022-01"},{"category":"anti-social-behaviour","location_type":"Force","location":{"latitude":"51.514295","street":{"id":956531,"name":"On or near Chapone Place"},"longitude":"-0.132789"},"context":"","outcome_status":null,"persistent_id":"","id":98979652,"location_subtype":"","month":"2022-01"},{"category":"anti-social-behaviour","location_type":"Force","location":{"latitude":"51.509371","street":{"id":956452,"name":"On or near St James's Market"},"longitude":"-0.133033"},"context":"","outcome_status":null,"persistent_id":"","id":98979650,"location_subtype":"","month":"2022-01"},{"category":"anti-social-behaviour","location_type":"Force","location":{"latitude":"51.498734","street":{"id":953301,"name":"On or near Police Station"},"longitude":"-0.133122"},"context":"","outcome_status":null,"persistent_id":"","id":98979649,"location_subtype":"","month":"2022-01"},{"category":"anti-social-behaviour","location_type":"Force","location":{"latitude":"51.498734","street":{"id":953301,"name":"On or near Police Station"},"longitude":"-0.133122"},"context":"","outcome_status":null,"persistent_id":"","id":98979648,"location_subtype":"","month":"2022-01"},{"category":"anti-social-behaviour","location_type":"Force","location":{"latitude":"51.498734","street":{"id":953301,"name":"On or near Police Station"},"longitude":"-0.133122"},"context":"","outcome_status":null,"persistent_id":"","id":98979647,"location_subtype":"","month":"2022-01"},{"category":"anti-social-behaviour","location_type":"Force","location":{"latitude":"51.498734","street":{"id":953301,"name":"On or near Police Station"},"longitude":"-0.133122"},"context":"","outcome_status":null,"persistent_id":"","id":98979646,"location_subtype":"","month":"2022-01"},{"category":"anti-social-behaviour","location_type":"Force","location":{"latitude":"51.498734","street":{"id":953301,"name":"On or near Police Station"},"longitude":"-0.133122"},"context":"","outcome_status":null,"persistent_id":"","id":98979645,"location_subtype":"","month":"2022-01"},{"category":"anti-social-behaviour","location_type":"Force","location":{"latitude":"51.501992","street":{"id":953531,"name":"On or near Derby Gate"},"longitude":"-0.125381"},"context":"","outcome_status":null,"persistent_id":"","id":98420515,"location_subtype":"","month":"2022-01"},{"category":"anti-social-behaviour","location_type":"Force","location":{"latitude":"51.498734","street":{"id":953301,"name":"On or near Police Station"},"longitude":"-0.133122"},"context":"","outcome_status":null,"persistent_id":"","id":98979644,"location_subtype":"","month":"2022-01"},{"category":"anti-social-behaviour","location_type":"Force","location":{"latitude":"51.498734","street":{"id":953301,"name":"On or near Police Station"},"longitude":"-0.133122"},"context":"","outcome_status":null,"persistent_id":"","id":98979643,"location_subtype":"","month":"2022-01"},{"category":"anti-social-behaviour","location_type":"Force","location":{"latitude":"51.498734","street":{"id":953301,"name":"On or near Police Station"},"longitude":"-0.133122"},"context":"","outcome_status":null,"persistent_id":"","id":98979642,"location_subtype":"","month":"2022-01"},{"category":"anti-social-behaviour","location_type":"Force","location":{"latitude":"51.498734","street":{"id":953301,"name":"On or near Police Station"},"longitude":"-0.133122"},"context":"","outcome_status":null,"persistent_id":"","id":98979641,"location_subtype":"","month":"2022-01"},{"category":"anti-social-behaviour","location_type":"Force","location":{"latitude":"51.498734","street":{"id":953301,"name":"On or near Police Station"},"longitude":"-0.133122"},"context":"","outcome_status":null,"persistent_id":"","id":98979640,"location_subtype":"","month":"2022-01"},{"category":"anti-social-behaviour","location_type":"Force","location":{"latitude":"51.498734","street":{"id":953301,"name":"On or near Police Station"},"longitude":"-0.133122"},"context":"","outcome_status":null,"persistent_id":"","id":98979637,"location_subtype":"","month":"2022-01"},{"category":"anti-social-behaviour","location_type":"Force","location":{"latitude":"51.498734","street":{"id":953301,"name":"On or near Police Station"},"longitude":"-0.133122"},"context":"","outcome_status":null,"persistent_id":"","id":98979636,"location_subtype":"","month":"2022-01"},{"category":"anti-social-behaviour","location_type":"Force","location":{"latitude":"51.498734","street":{"id":953301,"name":"On or near Police Station"},"longitude":"-0.133122"},"context":"","outcome_status":null,"persistent_id":"","id":98979635,"location_subtype":"","month":"2022-01"},{"category":"anti-social-behaviour","location_type":"Force","location":{"latitude":"51.498734","street":{"id":953301,"name":"On or near Police Station"},"longitude":"-0.133122"},"context":"","outcome_status":null,"persistent_id":"","id":98979639,"location_subtype":"","month":"2022-01"},{"category":"anti-social-behaviour","location_type":"Force","location":{"latitude":"51.491629","street":{"id":949691,"name":"On or near Osbert Street"},"longitude":"-0.134738"},"context":"","outcome_status":null,"persistent_id":"","id":98979634,"location_subtype":"","month":"2022-01"},{"category":"anti-social-behaviour","location_type":"Force","location":{"latitude":"51.512330","street":{"id":956574,"name":"On or near Nightclub"},"longitude":"-0.133633"},"context":"","outcome_status":null,"persistent_id":"","id":98979631,"location_subtype":"","month":"2022-01"},{"category":"anti-social-behaviour","location_type":"Force","location":{"latitude":"51.512330","street":{"id":956574,"name":"On or near Nightclub"},"longitude":"-0.133633"},"context":"","outcome_status":null,"persistent_id":"","id":98979630,"location_subtype":"","month":"2022-01"},{"category":"anti-social-behaviour","location_type":"Force","location":{"latitude":"51.497235","street":{"id":953261,"name":"On or near Strutton Ground"},"longitude":"-0.133860"},"context":"","outcome_status":null,"persistent_id":"","id":98979629,"location_subtype":"","month":"2022-01"},{"category":"anti-social-behaviour","location_type":"Force","location":{"latitude":"51.498734","street":{"id":953301,"name":"On or near Police Station"},"longitude":"-0.133122"},"context":"","outcome_status":null,"persistent_id":"","id":98979638,"location_subtype":"","month":"2022-01"},{"category":"anti-social-behaviour","location_type":"Force","location":{"latitude":"51.497235","street":{"id":953261,"name":"On or near Strutton Ground"},"longitude":"-0.133860"},"context":"","outcome_status":null,"persistent_id":"","id":98979628,"location_subtype":"","month":"2022-01"},{"category":"anti-social-behaviour","location_type":"Force","location":{"latitude":"51.511238","street":{"id":956559,"name":"On or near Theatre\/concert Hall"},"longitude":"-0.133922"},"context":"","outcome_status":null,"persistent_id":"","id":98979627,"location_subtype":"","month":"2022-01"},{"category":"anti-social-behaviour","location_type":"Force","location":{"latitude":"51.511238","street":{"id":956559,"name":"On or near Theatre\/concert Hall"},"longitude":"-0.133922"},"context":"","outcome_status":null,"persistent_id":"","id":98979626,"location_subtype":"","month":"2022-01"},{"category":"anti-social-behaviour","location_type":"Force","location":{"latitude":"51.513833","street":{"id":956442,"name":"On or near Wardour Street"},"longitude":"-0.134292"},"context":"","outcome_status":null,"persistent_id":"","id":98979625,"location_subtype":"","month":"2022-01"},{"category":"anti-social-behaviour","location_type":"Force","location":{"latitude":"51.512482","street":{"id":956588,"name":"On or near Nightclub"},"longitude":"-0.134160"},"context":"","outcome_status":null,"persistent_id":"","id":98979624,"location_subtype":"","month":"2022-01"},{"category":"anti-social-behaviour","location_type":"Force","location":{"latitude":"51.493923","street":{"id":953777,"name":"On or near Elephant Road"},"longitude":"-0.098384"},"context":"","outcome_status":null,"persistent_id":"","id":98979383,"location_subtype":"","month":"2022-01"},{"category":"anti-social-behaviour","location_type":"Force","location":{"latitude":"51.500439","street":{"id":953746,"name":"On or near Collinson Street"},"longitude":"-0.098747"},"context":"","outcome_status":null,"persistent_id":"","id":98979381,"location_subtype":"","month":"2022-01"},{"category":"anti-social-behaviour","location_type":"Force","location":{"latitude":"51.492472","street":{"id":953783,"name":"On or near Shopping Area"},"longitude":"-0.099309"},"context":"","outcome_status":null,"persistent_id":"","id":98979380,"location_subtype":"","month":"2022-01"},{"category":"anti-social-behaviour","location_type":"Force","location":{"latitude":"51.501210","street":{"id":953719,"name":"On or near Sudrey Street"},"longitude":"-0.098038"},"context":"","outcome_status":null,"persistent_id":"","id":98979379,"location_subtype":"","month":"2022-01"},{"category":"anti-social-behaviour","location_type":"Force","location":{"latitude":"51.512147","street":{"id":587463,"name":"On or near Tower Royal"},"longitude":"-0.092077"},"context":"","outcome_status":null,"persistent_id":"","id":99101634,"location_subtype":"","month":"2022-01"},{"category":"anti-social-behaviour","location_type":"Force","location":{"latitude":"51.501210","street":{"id":953719,"name":"On or near Sudrey Street"},"longitude":"-0.098038"},"context":"","outcome_status":null,"persistent_id":"","id":98979378,"location_subtype":"","month":"2022-01"},{"category":"anti-social-behaviour","location_type":"Force","location":{"latitude":"51.501210","street":{"id":953719,"name":"On or near Sudrey Street"},"longitude":"-0.098038"},"context":"","outcome_status":null,"persistent_id":"","id":98979377,"location_subtype":"","month":"2022-01"},{"category":"anti-social-behaviour","location_type":"Force","location":{"latitude":"51.510182","street":{"id":587456,"name":"On or near Parking Area"},"longitude":"-0.092865"},"context":"","outcome_status":null,"persistent_id":"","id":99101861,"location_subtype":"","month":"2022-01"},{"category":"anti-social-behaviour","location_type":"Force","location":{"latitude":"51.501210","street":{"id":953719,"name":"On or near Sudrey Street"},"longitude":"-0.098038"},"context":"","outcome_status":null,"persistent_id":"","id":98979376,"location_subtype":"","month":"2022-01"},{"category":"anti-social-behaviour","location_type":"Force","location":{"latitude":"51.498281","street":{"id":953690,"name":"On or near Parking Area"},"longitude":"-0.098750"},"context":"","outcome_status":null,"persistent_id":"","id":98979373,"location_subtype":"","month":"2022-01"},{"category":"anti-social-behaviour","location_type":"Force","location":{"latitude":"51.492472","street":{"id":953783,"name":"On or near Shopping Area"},"longitude":"-0.099309"},"context":"","outcome_status":null,"persistent_id":"","id":98979371,"location_subtype":"","month":"2022-01"},{"category":"anti-social-behaviour","location_type":"Force","location":{"latitude":"51.493135","street":{"id":953781,"name":"On or near A3"},"longitude":"-0.100304"},"context":"","outcome_status":null,"persistent_id":"","id":98979360,"location_subtype":"","month":"2022-01"},{"category":"anti-social-behaviour","location_type":"Force","location":{"latitude":"51.512650","street":{"id":587331,"name":"On or near St Andrew's Hill"},"longitude":"-0.101452"},"context":"","outcome_status":null,"persistent_id":"","id":99102279,"location_subtype":"","month":"2022-01"},{"category":"anti-social-behaviour","location_type":"Force","location":{"latitude":"51.503784","street":{"id":953715,"name":"On or near Union Street"},"longitude":"-0.098147"},"context":"","outcome_status":null,"persistent_id":"","id":98979367,"location_subtype":"","month":"2022-01"},{"category":"anti-social-behaviour","location_type":"Force","location":{"latitude":"51.493135","street":{"id":953781,"name":"On or near A3"},"longitude":"-0.100304"},"context":"","outcome_status":null,"persistent_id":"","id":98979358,"location_subtype":"","month":"2022-01"},{"category":"anti-social-behaviour","location_type":"Force","location":{"latitude":"51.493135","street":{"id":953781,"name":"On or near A3"},"longitude":"-0.100304"},"context":"","outcome_status":null,"persistent_id":"","id":98979357,"location_subtype":"","month":"2022-01"},{"category":"anti-social-behaviour","location_type":"Force","location":{"latitude":"51.512088","street":{"id":587395,"name":"On or near St Swithin's Lane"},"longitude":"-0.088995"},"context":"","outcome_status":null,"persistent_id":"","id":99102328,"location_subtype":"","month":"2022-01"},{"category":"anti-social-behaviour","location_type":"Force","location":{"latitude":"51.495928","street":{"id":953689,"name":"On or near Pedestrian Subway"},"longitude":"-0.100073"},"context":"","outcome_status":null,"persistent_id":"","id":98979355,"location_subtype":"","month":"2022-01"},{"category":"anti-social-behaviour","location_type":"Force","location":{"latitude":"51.495928","street":{"id":953689,"name":"On or near Pedestrian Subway"},"longitude":"-0.100073"},"context":"","outcome_status":null,"persistent_id":"","id":98979354,"location_subtype":"","month":"2022-01"},{"category":"anti-social-behaviour","location_type":"Force","location":{"latitude":"51.510182","street":{"id":587456,"name":"On or near Parking Area"},"longitude":"-0.092865"},"context":"","outcome_status":null,"persistent_id":"","id":99102364,"location_subtype":"","month":"2022-01"},{"category":"anti-social-behaviour","location_type":"Force","location":{"latitude":"51.511560","street":{"id":587506,"name":"On or near Dowgate Hill"},"longitude":"-0.090804"},"context":"","outcome_status":null,"persistent_id":"","id":99102382,"location_subtype":"","month":"2022-01"},{"category":"anti-social-behaviour","location_type":"Force","location":{"latitude":"51.513268","street":{"id":587352,"name":"On or near Dean's Court"},"longitude":"-0.100202"},"context":"","outcome_status":null,"persistent_id":"","id":99102398,"location_subtype":"","month":"2022-01"},{"category":"anti-social-behaviour","location_type":"Force","location":{"latitude":"51.490130","street":{"id":949265,"name":"On or near Peacock Street"},"longitude":"-0.100717"},"context":"","outcome_status":null,"persistent_id":"","id":98979353,"location_subtype":"","month":"2022-01"},{"category":"anti-social-behaviour","location_type":"Force","location":{"latitude":"51.513928","street":{"id":587555,"name":"On or near Pleydell Street"},"longitude":"-0.108231"},"context":"","outcome_status":null,"persistent_id":"","id":99102420,"location_subtype":"","month":"2022-01"},{"category":"anti-social-behaviour","location_type":"Force","location":{"latitude":"51.512959","street":{"id":587460,"name":"On or near Watling Court"},"longitude":"-0.094464"},"context":"","outcome_status":null,"persistent_id":"","id":99102443,"location_subtype":"","month":"2022-01"},{"category":"anti-social-behaviour","location_type":"Force","location":{"latitude":"51.490130","street":{"id":949265,"name":"On or near Peacock Street"},"longitude":"-0.100717"},"context":"","outcome_status":null,"persistent_id":"","id":98979352,"location_subtype":"","month":"2022-01"},{"category":"anti-social-behaviour","location_type":"Force","location":{"latitude":"51.491944","street":{"id":953773,"name":"On or near Hampton Street"},"longitude":"-0.100022"},"context":"","outcome_status":null,"persistent_id":"","id":98979351,"location_subtype":"","month":"2022-01"},{"category":"anti-social-behaviour","location_type":"Force","location":{"latitude":"51.502800","street":{"id":953733,"name":"On or near Loman Street"},"longitude":"-0.100133"},"context":"","outcome_status":null,"persistent_id":"","id":98979349,"location_subtype":"","month":"2022-01"},{"category":"anti-social-behaviour","location_type":"Force","location":{"latitude":"51.512887","street":{"id":587566,"name":"On or near Bridewell Place"},"longitude":"-0.104973"},"context":"","outcome_status":null,"persistent_id":"","id":99102524,"location_subtype":"","month":"2022-01"},{"category":"anti-social-behaviour","location_type":"Force","location":{"latitude":"51.514482","street":{"id":587483,"name":"On or near Old Jewry"},"longitude":"-0.090797"},"context":"","outcome_status":null,"persistent_id":"","id":99102533,"location_subtype":"","month":"2022-01"},{"category":"anti-social-behaviour","location_type":"Force","location":{"latitude":"51.491523","street":{"id":949279,"name":"On or near Kennington Lane"},"longitude":"-0.102935"},"context":"","outcome_status":null,"persistent_id":"","id":98979344,"location_subtype":"","month":"2022-01"},{"category":"anti-social-behaviour","location_type":"Force","location":{"latitude":"51.504831","street":{"id":953744,"name":"On or near Dolben Street"},"longitude":"-0.102311"},"context":"","outcome_status":null,"persistent_id":"","id":98979342,"location_subtype":"","month":"2022-01"},{"category":"anti-social-behaviour","location_type":"Force","location":{"latitude":"51.495804","street":{"id":953697,"name":"On or near Princess Street"},"longitude":"-0.102383"},"context":"","outcome_status":null,"persistent_id":"","id":98979341,"location_subtype":"","month":"2022-01"},{"category":"anti-social-behaviour","location_type":"Force","location":{"latitude":"51.514203","street":{"id":587512,"name":"On or near Cheapside"},"longitude":"-0.094628"},"context":"","outcome_status":null,"persistent_id":"","id":99102584,"location_subtype":"","month":"2022-01"},{"category":"anti-social-behaviour","location_type":"Force","location":{"latitude":"51.492278","street":{"id":953766,"name":"On or near Newington Butts"},"longitude":"-0.101766"},"context":"","outcome_status":null,"persistent_id":"","id":98979340,"location_subtype":"","month":"2022-01"},{"category":"anti-social-behaviour","location_type":"Force","location":{"latitude":"51.492278","street":{"id":953766,"name":"On or near Newington Butts"},"longitude":"-0.101766"},"context":"","outcome_status":null,"persistent_id":"","id":98979339,"location_subtype":"","month":"2022-01"},{"category":"anti-social-behaviour","location_type":"Force","location":{"latitude":"51.514420","street":{"id":587457,"name":"On or near Wood Street"},"longitude":"-0.094720"},"context":"","outcome_status":null,"persistent_id":"","id":99102566,"location_subtype":"","month":"2022-01"},{"category":"anti-social-behaviour","location_type":"Force","location":{"latitude":"51.492278","street":{"id":953766,"name":"On or near Newington Butts"},"longitude":"-0.101766"},"context":"","outcome_status":null,"persistent_id":"","id":98979338,"location_subtype":"","month":"2022-01"},{"category":"anti-social-behaviour","location_type":"Force","location":{"latitude":"51.492278","street":{"id":953766,"name":"On or near Newington Butts"},"longitude":"-0.101766"},"context":"","outcome_status":null,"persistent_id":"","id":98979337,"location_subtype":"","month":"2022-01"},{"category":"anti-social-behaviour","location_type":"Force","location":{"latitude":"51.507420","street":{"id":956134,"name":"On or near Castle Yard"},"longitude":"-0.101655"},"context":"","outcome_status":null,"persistent_id":"","id":98979336,"location_subtype":"","month":"2022-01"},{"category":"anti-social-behaviour","location_type":"Force","location":{"latitude":"51.491806","street":{"id":949470,"name":"On or near Salamanca Place"},"longitude":"-0.120498"},"context":"","outcome_status":null,"persistent_id":"","id":98970949,"location_subtype":"","month":"2022-01"},{"category":"anti-social-behaviour","location_type":"Force","location":{"latitude":"51.491806","street":{"id":949470,"name":"On or near Salamanca Place"},"longitude":"-0.120498"},"context":"","outcome_status":null,"persistent_id":"","id":98970950,"location_subtype":"","month":"2022-01"},{"category":"anti-social-behaviour","location_type":"Force","location":{"latitude":"51.500769","street":{"id":953527,"name":"On or near Pedestrian Subway"},"longitude":"-0.119222"},"context":"","outcome_status":null,"persistent_id":"","id":98970958,"location_subtype":"","month":"2022-01"},{"category":"anti-social-behaviour","location_type":"Force","location":{"latitude":"51.500769","street":{"id":953527,"name":"On or near Pedestrian Subway"},"longitude":"-0.119222"},"context":"","outcome_status":null,"persistent_id":"","id":98970959,"location_subtype":"","month":"2022-01"},{"category":"anti-social-behaviour","location_type":"Force","location":{"latitude":"51.500769","street":{"id":953527,"name":"On or near Pedestrian Subway"},"longitude":"-0.119222"},"context":"","outcome_status":null,"persistent_id":"","id":98970960,"location_subtype":"","month":"2022-01"},{"category":"anti-social-behaviour","location_type":"Force","location":{"latitude":"51.491806","street":{"id":949470,"name":"On or near Salamanca Place"},"longitude":"-0.120498"},"context":"","outcome_status":null,"persistent_id":"","id":98970971,"location_subtype":"","month":"2022-01"},{"category":"anti-social-behaviour","location_type":"Force","location":{"latitude":"51.493106","street":{"id":953547,"name":"On or near Lambeth High Street"},"longitude":"-0.120257"},"context":"","outcome_status":null,"persistent_id":"","id":98970974,"location_subtype":"","month":"2022-01"},{"category":"anti-social-behaviour","location_type":"Force","location":{"latitude":"51.493106","street":{"id":953547,"name":"On or near Lambeth High Street"},"longitude":"-0.120257"},"context":"","outcome_status":null,"persistent_id":"","id":98970975,"location_subtype":"","month":"2022-01"},{"category":"anti-social-behaviour","location_type":"Force","location":{"latitude":"51.489903","street":{"id":949463,"name":"On or near Vauxhall Walk"},"longitude":"-0.120159"},"context":"","outcome_status":null,"persistent_id":"","id":98970979,"location_subtype":"","month":"2022-01"},{"category":"anti-social-behaviour","location_type":"Force","location":{"latitude":"51.492278","street":{"id":953766,"name":"On or near Newington Butts"},"longitude":"-0.101766"},"context":"","outcome_status":null,"persistent_id":"","id":98979335,"location_subtype":"","month":"2022-01"},{"category":"anti-social-behaviour","location_type":"Force","location":{"latitude":"51.492278","street":{"id":953766,"name":"On or near Newington Butts"},"longitude":"-0.101766"},"context":"","outcome_status":null,"persistent_id":"","id":98979334,"location_subtype":"","month":"2022-01"},{"category":"anti-social-behaviour","location_type":"Force","location":{"latitude":"51.503693","street":{"id":953739,"name":"On or near Great Suffolk Street"},"longitude":"-0.101450"},"context":"","outcome_status":null,"persistent_id":"","id":98979333,"location_subtype":"","month":"2022-01"},{"category":"anti-social-behaviour","location_type":"Force","location":{"latitude":"51.507420","street":{"id":956134,"name":"On or near Castle Yard"},"longitude":"-0.101655"},"context":"","outcome_status":null,"persistent_id":"","id":98979332,"location_subtype":"","month":"2022-01"},{"category":"anti-social-behaviour","location_type":"Force","location":{"latitude":"51.503219","street":{"id":953731,"name":"On or near Nelson Square"},"longitude":"-0.103271"},"context":"","outcome_status":null,"persistent_id":"","id":98979329,"location_subtype":"","month":"2022-01"},{"category":"anti-social-behaviour","location_type":"Force","location":{"latitude":"51.506064","street":{"id":956135,"name":"On or near Burrell Street"},"longitude":"-0.103470"},"context":"","outcome_status":null,"persistent_id":"","id":98979328,"location_subtype":"","month":"2022-01"},{"category":"anti-social-behaviour","location_type":"Force","location":{"latitude":"51.504831","street":{"id":953744,"name":"On or near Dolben Street"},"longitude":"-0.102311"},"context":"","outcome_status":null,"persistent_id":"","id":98979327,"location_subtype":"","month":"2022-01"},{"category":"anti-social-behaviour","location_type":"Force","location":{"latitude":"51.504831","street":{"id":953744,"name":"On or near Dolben Street"},"longitude":"-0.102311"},"context":"","outcome_status":null,"persistent_id":"","id":98979326,"location_subtype":"","month":"2022-01"},{"category":"anti-social-behaviour","location_type":"Force","location":{"latitude":"51.498345","street":{"id":953695,"name":"On or near Rotary Street"},"longitude":"-0.103272"},"context":"","outcome_status":null,"persistent_id":"","id":98979324,"location_subtype":"","month":"2022-01"},{"category":"anti-social-behaviour","location_type":"Force","location":{"latitude":"51.499253","street":{"id":953732,"name":"On or near Milcote Street"},"longitude":"-0.103219"},"context":"","outcome_status":null,"persistent_id":"","id":98979323,"location_subtype":"","month":"2022-01"},{"category":"anti-social-behaviour","location_type":"Force","location":{"latitude":"51.507420","street":{"id":956134,"name":"On or near Castle Yard"},"longitude":"-0.101655"},"context":"","outcome_status":null,"persistent_id":"","id":98979330,"location_subtype":"","month":"2022-01"},{"category":"anti-social-behaviour","location_type":"Force","location":{"latitude":"51.499219","street":{"id":953755,"name":"On or near Further\/higher Educational Building"},"longitude":"-0.104474"},"context":"","outcome_status":null,"persistent_id":"","id":98979321,"location_subtype":"","month":"2022-01"},{"category":"anti-social-behaviour","location_type":"Force","location":{"latitude":"51.499219","street":{"id":953755,"name":"On or near Further\/higher Educational Building"},"longitude":"-0.104474"},"context":"","outcome_status":null,"persistent_id":"","id":98979320,"location_subtype":"","month":"2022-01"},{"category":"anti-social-behaviour","location_type":"Force","location":{"latitude":"51.503510","street":{"id":953749,"name":"On or near Blackfriars Road"},"longitude":"-0.104584"},"context":"","outcome_status":null,"persistent_id":"","id":98979319,"location_subtype":"","month":"2022-01"},{"category":"anti-social-behaviour","location_type":"Force","location":{"latitude":"51.506064","street":{"id":956135,"name":"On or near Burrell Street"},"longitude":"-0.103470"},"context":"","outcome_status":null,"persistent_id":"","id":98979318,"location_subtype":"","month":"2022-01"},{"category":"anti-social-behaviour","location_type":"Force","location":{"latitude":"51.506064","street":{"id":956135,"name":"On or near Burrell Street"},"longitude":"-0.103470"},"context":"","outcome_status":null,"persistent_id":"","id":98979317,"location_subtype":"","month":"2022-01"},{"category":"anti-social-behaviour","location_type":"Force","location":{"latitude":"51.499219","street":{"id":953755,"name":"On or near Further\/higher Educational Building"},"longitude":"-0.104474"},"context":"","outcome_status":null,"persistent_id":"","id":98979316,"location_subtype":"","month":"2022-01"},{"category":"anti-social-behaviour","location_type":"Force","location":{"latitude":"51.499219","street":{"id":953755,"name":"On or near Further\/higher Educational Building"},"longitude":"-0.104474"},"context":"","outcome_status":null,"persistent_id":"","id":98979315,"location_subtype":"","month":"2022-01"},{"category":"anti-social-behaviour","location_type":"Force","location":{"latitude":"51.499219","street":{"id":953755,"name":"On or near Further\/higher Educational Building"},"longitude":"-0.104474"},"context":"","outcome_status":null,"persistent_id":"","id":98979314,"location_subtype":"","month":"2022-01"},{"category":"anti-social-behaviour","location_type":"Force","location":{"latitude":"51.499219","street":{"id":953755,"name":"On or near Further\/higher Educational Building"},"longitude":"-0.104474"},"context":"","outcome_status":null,"persistent_id":"","id":98979313,"location_subtype":"","month":"2022-01"},{"category":"anti-social-behaviour","location_type":"Force","location":{"latitude":"51.495531","street":{"id":953433,"name":"On or near West Square"},"longitude":"-0.105521"},"context":"","outcome_status":null,"persistent_id":"","id":98979312,"location_subtype":"","month":"2022-01"},{"category":"anti-social-behaviour","location_type":"Force","location":{"latitude":"51.499219","street":{"id":953755,"name":"On or near Further\/higher Educational Building"},"longitude":"-0.104474"},"context":"","outcome_status":null,"persistent_id":"","id":98979309,"location_subtype":"","month":"2022-01"},{"category":"anti-social-behaviour","location_type":"Force","location":{"latitude":"51.499219","street":{"id":953755,"name":"On or near Further\/higher Educational Building"},"longitude":"-0.104474"},"context":"","outcome_status":null,"persistent_id":"","id":98979308,"location_subtype":"","month":"2022-01"},{"category":"anti-social-behaviour","location_type":"Force","location":{"latitude":"51.494405","street":{"id":953568,"name":"On or near Orient Street"},"longitude":"-0.105409"},"context":"","outcome_status":null,"persistent_id":"","id":98979307,"location_subtype":"","month":"2022-01"},{"category":"anti-social-behaviour","location_type":"Force","location":{"latitude":"51.508257","street":{"id":956095,"name":"On or near A201"},"longitude":"-0.104503"},"context":"","outcome_status":null,"persistent_id":"","id":98979306,"location_subtype":"","month":"2022-01"},{"category":"anti-social-behaviour","location_type":"Force","location":{"latitude":"51.506340","street":{"id":956280,"name":"On or near Paris Garden"},"longitude":"-0.106110"},"context":"","outcome_status":null,"persistent_id":"","id":98979305,"location_subtype":"","month":"2022-01"},{"category":"anti-social-behaviour","location_type":"Force","location":{"latitude":"51.506340","street":{"id":956280,"name":"On or near Paris Garden"},"longitude":"-0.106110"},"context":"","outcome_status":null,"persistent_id":"","id":98979304,"location_subtype":"","month":"2022-01"},{"category":"anti-social-behaviour","location_type":"Force","location":{"latitude":"51.503350","street":{"id":953517,"name":"On or near Further\/higher Educational Building"},"longitude":"-0.105830"},"context":"","outcome_status":null,"persistent_id":"","id":98979303,"location_subtype":"","month":"2022-01"},{"category":"anti-social-behaviour","location_type":"Force","location":{"latitude":"51.499572","street":{"id":953472,"name":"On or near Waterloo Road"},"longitude":"-0.106823"},"context":"","outcome_status":null,"persistent_id":"","id":98979301,"location_subtype":"","month":"2022-01"},{"category":"anti-social-behaviour","location_type":"Force","location":{"latitude":"51.499572","street":{"id":953472,"name":"On or near Waterloo Road"},"longitude":"-0.106823"},"context":"","outcome_status":null,"persistent_id":"","id":98979300,"location_subtype":"","month":"2022-01"},{"category":"anti-social-behaviour","location_type":"Force","location":{"latitude":"51.500039","street":{"id":953471,"name":"On or near Webber Row"},"longitude":"-0.107365"},"context":"","outcome_status":null,"persistent_id":"","id":98979299,"location_subtype":"","month":"2022-01"},{"category":"anti-social-behaviour","location_type":"Force","location":{"latitude":"51.500039","street":{"id":953471,"name":"On or near Webber Row"},"longitude":"-0.107365"},"context":"","outcome_status":null,"persistent_id":"","id":98979298,"location_subtype":"","month":"2022-01"},{"category":"anti-social-behaviour","location_type":"Force","location":{"latitude":"51.500039","street":{"id":953471,"name":"On or near Webber Row"},"longitude":"-0.107365"},"context":"","outcome_status":null,"persistent_id":"","id":98979297,"location_subtype":"","month":"2022-01"},{"category":"anti-social-behaviour","location_type":"Force","location":{"latitude":"51.500039","street":{"id":953471,"name":"On or near Webber Row"},"longitude":"-0.107365"},"context":"","outcome_status":null,"persistent_id":"","id":98979296,"location_subtype":"","month":"2022-01"},{"category":"anti-social-behaviour","location_type":"Force","location":{"latitude":"51.500039","street":{"id":953471,"name":"On or near Webber Row"},"longitude":"-0.107365"},"context":"","outcome_status":null,"persistent_id":"","id":98979295,"location_subtype":"","month":"2022-01"},{"category":"anti-social-behaviour","location_type":"Force","location":{"latitude":"51.508055","street":{"id":956265,"name":"On or near Barge House Street"},"longitude":"-0.108143"},"context":"","outcome_status":null,"persistent_id":"","id":98979294,"location_subtype":"","month":"2022-01"},{"category":"anti-social-behaviour","location_type":"Force","location":{"latitude":"51.495030","street":{"id":953455,"name":"On or near Brook Drive"},"longitude":"-0.109604"},"context":"","outcome_status":null,"persistent_id":"","id":98979292,"location_subtype":"","month":"2022-01"},{"category":"anti-social-behaviour","location_type":"Force","location":{"latitude":"51.504831","street":{"id":953744,"name":"On or near Dolben Street"},"longitude":"-0.102311"},"context":"","outcome_status":null,"persistent_id":"","id":98978624,"location_subtype":"","month":"2022-01"},{"category":"anti-social-behaviour","location_type":"Force","location":{"latitude":"51.491317","street":{"id":949250,"name":"On or near Further\/higher Educational Building"},"longitude":"-0.104053"},"context":"","outcome_status":null,"persistent_id":"","id":98978612,"location_subtype":"","month":"2022-01"},{"category":"anti-social-behaviour","location_type":"Force","location":{"latitude":"51.492393","street":{"id":953775,"name":"On or near George Mathers Road"},"longitude":"-0.104426"},"context":"","outcome_status":null,"persistent_id":"","id":98978599,"location_subtype":"","month":"2022-01"},{"category":"anti-social-behaviour","location_type":"Force","location":{"latitude":"51.492393","street":{"id":953775,"name":"On or near George Mathers Road"},"longitude":"-0.104426"},"context":"","outcome_status":null,"persistent_id":"","id":98978598,"location_subtype":"","month":"2022-01"},{"category":"anti-social-behaviour","location_type":"Force","location":{"latitude":"51.491921","street":{"id":953565,"name":"On or near Renfrew Road"},"longitude":"-0.105814"},"context":"","outcome_status":null,"persistent_id":"","id":98978593,"location_subtype":"","month":"2022-01"},{"category":"anti-social-behaviour","location_type":"Force","location":{"latitude":"51.503350","street":{"id":953517,"name":"On or near Further\/higher Educational Building"},"longitude":"-0.105830"},"context":"","outcome_status":null,"persistent_id":"","id":98978574,"location_subtype":"","month":"2022-01"},