[{"category":"anti-social-behaviour","location_type":"Force","location":{"latitude":"51.542436","street":{"id":965334,"name":"On or near Buckley Road"},"longitude":"-0.200916"},"context":"","outcome_status":null,"persistent_id":"","id":98977961,"location_subtype":"","month":"2022-01"},{"category":"anti-social-behaviour","location_type":"Force","location":{"latitude":"51.551325","street":{"id":967123,"name":"On or near Grand Avenue East"},"longitude":"-0.275469"},"context":"","outcome_status":null,"persistent_id":"","id":98976451,"location_subtype":"","month":"2022-01"},{"category":"anti-social-behaviour","location_type":"Force","location":{"latitude":"51.545418","street":{"id":965706,"name":"On or near Conduit Way"},"longitude":"-0.268236"},"context":"","outcome_status":null,"persistent_id":"","id":98976467,"location_subtype":"","month":"2022-01"},{"category":"anti-social-behaviour","location_type":"Force","location":{"latitude":"51.590478","street":{"id":979135,"name":"On or near Evelyn Avenue"},"longitude":"-0.259060"},"context":"","outcome_status":null,"persistent_id":"","id":98976515,"location_subtype":"","month":"2022-01"},{"category":"anti-social-behaviour","location_type":"Force","location":{"latitude":"51.549883","street":{"id":967568,"name":"On or near Shoot-up Hill"},"longitude":"-0.206882"},"context":"","outcome_status":null,"persistent_id":"","id":98971280,"location_subtype":"","month":"2022-01"},{"category":"anti-social-behaviour","location_type":"Force","location":{"latitude":"51.540229","street":{"id":965390,"name":"On or near Glengall Passage"},"longitude":"-0.196548"},"context":"","outcome_status":null,"persistent_id":"","id":98971312,"location_subtype":"","month":"2022-01"},{"category":"anti-social-behaviour","location_type":"Force","location":{"latitude":"51.552242","street":{"id":967018,"name":"On or near Nightclub"},"longitude":"-0.298859"},"context":"","outcome_status":null,"persistent_id":"","id":98975650,"location_subtype":"","month":"2022-01"},{"category":"anti-social-behaviour","location_type":"Force","location":{"latitude":"51.572900","street":{"id":972846,"name":"On or near Preston Waye"},"longitude":"-0.295938"},"context":"","outcome_status":null,"persistent_id":"","id":98975666,"location_subtype":"","month":"2022-01"},{"category":"anti-social-behaviour","location_type":"Force","location":{"latitude":"51.574136","street":{"id":974110,"name":"On or near Preston Road"},"longitude":"-0.294362"},"context":"","outcome_status":null,"persistent_id":"","id":98975697,"location_subtype":"","month":"2022-01"},{"category":"anti-social-behaviour","location_type":"Force","location":{"latitude":"51.552505","street":{"id":967002,"name":"On or near Parking Area"},"longitude":"-0.294046"},"context":"","outcome_status":null,"persistent_id":"","id":98975713,"location_subtype":"","month":"2022-01"},{"category":"anti-social-behaviour","location_type":"Force","location":{"latitude":"51.590072","street":{"id":979132,"name":"On or near Hay Lane"},"longitude":"-0.254773"},"context":"","outcome_status":null,"persistent_id":"","id":98977188,"location_subtype":"","month":"2022-01"},{"category":"anti-social-behaviour","location_type":"Force","location":{"latitude":"51.583703","street":{"id":974217,"name":"On or near Goldsmith Avenue"},"longitude":"-0.250355"},"context":"","outcome_status":null,"persistent_id":"","id":98977217,"location_subtype":"","month":"2022-01"},{"category":"anti-social-behaviour","location_type":"Force","location":{"latitude":"51.550641","street":{"id":967315,"name":"On or near Knapp Close"},"longitude":"-0.249951"},"context":"","outcome_status":null,"persistent_id":"","id":98977233,"location_subtype":"","month":"2022-01"},{"category":"anti-social-behaviour","location_type":"Force","location":{"latitude":"51.548352","street":{"id":967508,"name":"On or near Dean Road"},"longitude":"-0.224495"},"context":"","outcome_status":null,"persistent_id":"","id":98977841,"location_subtype":"","month":"2022-01"},{"category":"anti-social-behaviour","location_type":"Force","location":{"latitude":"51.549576","street":{"id":967446,"name":"On or near Station Parade"},"longitude":"-0.222154"},"context":"","outcome_status":null,"persistent_id":"","id":98977858,"location_subtype":"","month":"2022-01"},{"category":"anti-social-behaviour","location_type":"Force","location":{"latitude":"51.555144","street":{"id":967487,"name":"On or near Blackstone Road"},"longitude":"-0.220509"},"context":"","outcome_status":null,"persistent_id":"","id":98977874,"location_subtype":"","month":"2022-01"},{"category":"anti-social-behaviour","location_type":"Force","location":{"latitude":"51.540351","street":{"id":965510,"name":"On or near The Avenue"},"longitude":"-0.212175"},"context":"","outcome_status":null,"persistent_id":"","id":98977906,"location_subtype":"","month":"2022-01"},{"category":"anti-social-behaviour","location_type":"Force","location":{"latitude":"51.541643","street":{"id":965414,"name":"On or near Willesden Lane"},"longitude":"-0.198453"},"context":"","outcome_status":null,"persistent_id":"","id":98977969,"location_subtype":"","month":"2022-01"},{"category":"anti-social-behaviour","location_type":"Force","location":{"latitude":"51.586456","street":{"id":974239,"name":"On or near Edgware Road The Hyde"},"longitude":"-0.250423"},"context":"","outcome_status":null,"persistent_id":"","id":98983364,"location_subtype":"","month":"2022-01"},{"category":"anti-social-behaviour","location_type":"Force","location":{"latitude":"51.573296","street":{"id":974524,"name":"On or near Jade Close"},"longitude":"-0.214331"},"context":"","outcome_status":null,"persistent_id":"","id":98983965,"location_subtype":"","month":"2022-01"},{"category":"anti-social-behaviour","location_type":"Force","location":{"latitude":"51.566910","street":{"id":972478,"name":"On or near Pennine Lane"},"longitude":"-0.210686"},"context":"","outcome_status":null,"persistent_id":"","id":98984004,"location_subtype":"","month":"2022-01"},{"category":"anti-social-behaviour","location_type":"Force","location":{"latitude":"51.560451","street":{"id":972426,"name":"On or near Briardale Gardens"},"longitude":"-0.197003"},"context":"","outcome_status":null,"persistent_id":"","id":98984137,"location_subtype":"","month":"2022-01"},{"category":"anti-social-behaviour","location_type":"Force","location":{"latitude":"51.553115","street":{"id":967041,"name":"On or near High Road"},"longitude":"-0.295192"},"context":"","outcome_status":null,"persistent_id":"","id":98975703,"location_subtype":"","month":"2022-01"},{"category":"anti-social-behaviour","location_type":"Force","location":{"latitude":"51.553115","street":{"id":967041,"name":"On or near High Road"},"longitude":"-0.295192"},"context":"","outcome_status":null,"persistent_id":"","id":98975704,"location_subtype":"","month":"2022-01"},{"category":"anti-social-behaviour","location_type":"Force","location":{"latitude":"51.543083","street":{"id":965903,"name":"On or near Stanley Avenue"},"longitude":"-0.294182"},"context":"","outcome_status":null,"persistent_id":"","id":98975705,"location_subtype":"","month":"2022-01"},{"category":"anti-social-behaviour","location_type":"Force","location":{"latitude":"51.551981","street":{"id":967009,"name":"On or near Rupert Avenue"},"longitude":"-0.293893"},"context":"","outcome_status":null,"persistent_id":"","id":98975707,"location_subtype":"","month":"2022-01"},{"category":"anti-social-behaviour","location_type":"Force","location":{"latitude":"51.563905","street":{"id":972826,"name":"On or near St Augustine's Avenue"},"longitude":"-0.295163"},"context":"","outcome_status":null,"persistent_id":"","id":98975708,"location_subtype":"","month":"2022-01"},{"category":"anti-social-behaviour","location_type":"Force","location":{"latitude":"51.563905","street":{"id":972826,"name":"On or near St Augustine's Avenue"},"longitude":"-0.295163"},"context":"","outcome_status":null,"persistent_id":"","id":98975709,"location_subtype":"","month":"2022-01"},{"category":"anti-social-behaviour","location_type":"Force","location":{"latitude":"51.549576","street":{"id":967446,"name":"On or near Station Parade"},"longitude":"-0.222154"},"context":"","outcome_status":null,"persistent_id":"","id":98975575,"location_subtype":"","month":"2022-01"},{"category":"anti-social-behaviour","location_type":"Force","location":{"latitude":"51.551769","street":{"id":967020,"name":"On or near Supermarket"},"longitude":"-0.296035"},"context":"","outcome_status":null,"persistent_id":"","id":98975683,"location_subtype":"","month":"2022-01"},{"category":"anti-social-behaviour","location_type":"Force","location":{"latitude":"51.552765","street":{"id":967005,"name":"On or near Turton Road"},"longitude":"-0.298349"},"context":"","outcome_status":null,"persistent_id":"","id":98975665,"location_subtype":"","month":"2022-01"},{"category":"anti-social-behaviour","location_type":"Force","location":{"latitude":"51.551769","street":{"id":967020,"name":"On or near Supermarket"},"longitude":"-0.296035"},"context":"","outcome_status":null,"persistent_id":"","id":98975681,"location_subtype":"","month":"2022-01"},{"category":"anti-social-behaviour","location_type":"Force","location":{"latitude":"51.551769","street":{"id":967020,"name":"On or near Supermarket"},"longitude":"-0.296035"},"context":"","outcome_status":null,"persistent_id":"","id":98975682,"location_subtype":"","month":"2022-01"},{"category":"anti-social-behaviour","location_type":"Force","location":{"latitude":"51.551769","street":{"id":967020,"name":"On or near Supermarket"},"longitude":"-0.296035"},"context":"","outcome_status":null,"persistent_id":"","id":98975684,"location_subtype":"","month":"2022-01"},{"category":"anti-social-behaviour","location_type":"Force","location":{"latitude":"51.551769","street":{"id":967020,"name":"On or near Supermarket"},"longitude":"-0.296035"},"context":"","outcome_status":null,"persistent_id":"","id":98975685,"location_subtype":"","month":"2022-01"},{"category":"anti-social-behaviour","location_type":"Force","location":{"latitude":"51.540232","street":{"id":965901,"name":"On or near Sunleigh Road"},"longitude":"-0.296005"},"context":"","outcome_status":null,"persistent_id":"","id":98975688,"location_subtype":"","month":"2022-01"},{"category":"anti-social-behaviour","location_type":"Force","location":{"latitude":"51.555257","street":{"id":967031,"name":"On or near Princes Court"},"longitude":"-0.295314"},"context":"","outcome_status":null,"persistent_id":"","id":98975691,"location_subtype":"","month":"2022-01"},{"category":"anti-social-behaviour","location_type":"Force","location":{"latitude":"51.570729","street":{"id":972855,"name":"On or near Supermarket"},"longitude":"-0.295110"},"context":"","outcome_status":null,"persistent_id":"","id":98975693,"location_subtype":"","month":"2022-01"},{"category":"anti-social-behaviour","location_type":"Force","location":{"latitude":"51.553115","street":{"id":967041,"name":"On or near High Road"},"longitude":"-0.295192"},"context":"","outcome_status":null,"persistent_id":"","id":98975698,"location_subtype":"","month":"2022-01"},{"category":"anti-social-behaviour","location_type":"Force","location":{"latitude":"51.553115","street":{"id":967041,"name":"On or near High Road"},"longitude":"-0.295192"},"context":"","outcome_status":null,"persistent_id":"","id":98975701,"location_subtype":"","month":"2022-01"},{"category":"anti-social-behaviour","location_type":"Force","location":{"latitude":"51.549310","street":{"id":967297,"name":"On or near Belton Road"},"longitude":"-0.236704"},"context":"","outcome_status":null,"persistent_id":"","id":98977314,"location_subtype":"","month":"2022-01"},{"category":"anti-social-behaviour","location_type":"Force","location":{"latitude":"51.552940","street":{"id":967166,"name":"On or near Rosemead Avenue"},"longitude":"-0.292458"},"context":"","outcome_status":null,"persistent_id":"","id":98975719,"location_subtype":"","month":"2022-01"},{"category":"anti-social-behaviour","location_type":"Force","location":{"latitude":"51.552940","street":{"id":967166,"name":"On or near Rosemead Avenue"},"longitude":"-0.292458"},"context":"","outcome_status":null,"persistent_id":"","id":98975720,"location_subtype":"","month":"2022-01"},{"category":"anti-social-behaviour","location_type":"Force","location":{"latitude":"51.552940","street":{"id":967166,"name":"On or near Rosemead Avenue"},"longitude":"-0.292458"},"context":"","outcome_status":null,"persistent_id":"","id":98975721,"location_subtype":"","month":"2022-01"},{"category":"anti-social-behaviour","location_type":"Force","location":{"latitude":"51.587336","street":{"id":979262,"name":"On or near Clifton Road"},"longitude":"-0.289436"},"context":"","outcome_status":null,"persistent_id":"","id":98974869,"location_subtype":"","month":"2022-01"},{"category":"anti-social-behaviour","location_type":"Force","location":{"latitude":"51.588553","street":{"id":979255,"name":"On or near St Paul's Avenue"},"longitude":"-0.287759"},"context":"","outcome_status":null,"persistent_id":"","id":98974870,"location_subtype":"","month":"2022-01"},{"category":"anti-social-behaviour","location_type":"Force","location":{"latitude":"51.588858","street":{"id":979256,"name":"On or near Ruskin Gardens"},"longitude":"-0.286477"},"context":"","outcome_status":null,"persistent_id":"","id":98974872,"location_subtype":"","month":"2022-01"},{"category":"anti-social-behaviour","location_type":"Force","location":{"latitude":"51.553115","street":{"id":967041,"name":"On or near High Road"},"longitude":"-0.295192"},"context":"","outcome_status":null,"persistent_id":"","id":98975702,"location_subtype":"","month":"2022-01"},{"category":"anti-social-behaviour","location_type":"Force","location":{"latitude":"51.589294","street":{"id":979200,"name":"On or near Cowbridge Road"},"longitude":"-0.284916"},"context":"","outcome_status":null,"persistent_id":"","id":98974874,"location_subtype":"","month":"2022-01"},{"category":"anti-social-behaviour","location_type":"Force","location":{"latitude":"51.589294","street":{"id":979200,"name":"On or near Cowbridge Road"},"longitude":"-0.284916"},"context":"","outcome_status":null,"persistent_id":"","id":98974875,"location_subtype":"","month":"2022-01"},{"category":"anti-social-behaviour","location_type":"Force","location":{"latitude":"51.589294","street":{"id":979200,"name":"On or near Cowbridge Road"},"longitude":"-0.284916"},"context":"","outcome_status":null,"persistent_id":"","id":98974876,"location_subtype":"","month":"2022-01"},{"category":"anti-social-behaviour","location_type":"Force","location":{"latitude":"51.589294","street":{"id":979200,"name":"On or near Cowbridge Road"},"longitude":"-0.284916"},"context":"","outcome_status":null,"persistent_id":"","id":98974877,"location_subtype":"","month":"2022-01"},{"category":"anti-social-behaviour","location_type":"Force","location":{"latitude":"51.551981","street":{"id":967009,"name":"On or near Rupert Avenue"},"longitude":"-0.293893"},"context":"","outcome_status":null,"persistent_id":"","id":98975706,"location_subtype":"","month":"2022-01"},{"category":"anti-social-behaviour","location_type":"Force","location":{"latitude":"51.552940","street":{"id":967166,"name":"On or near Rosemead Avenue"},"longitude":"-0.292458"},"context":"","outcome_status":null,"persistent_id":"","id":98975722,"location_subtype":"","month":"2022-01"},{"category":"anti-social-behaviour","location_type":"Force","location":{"latitude":"51.563905","street":{"id":972826,"name":"On or near St Augustine's Avenue"},"longitude":"-0.295163"},"context":"","outcome_status":null,"persistent_id":"","id":98975710,"location_subtype":"","month":"2022-01"},{"category":"anti-social-behaviour","location_type":"Force","location":{"latitude":"51.560809","street":{"id":972782,"name":"On or near Wembley Hill Road"},"longitude":"-0.291874"},"context":"","outcome_status":null,"persistent_id":"","id":98975714,"location_subtype":"","month":"2022-01"},{"category":"anti-social-behaviour","location_type":"Force","location":{"latitude":"51.553858","street":{"id":967047,"name":"On or near Dukes Way"},"longitude":"-0.294385"},"context":"","outcome_status":null,"persistent_id":"","id":98975715,"location_subtype":"","month":"2022-01"},{"category":"anti-social-behaviour","location_type":"Force","location":{"latitude":"51.571994","street":{"id":972739,"name":"On or near Uxendon Crescent"},"longitude":"-0.292999"},"context":"","outcome_status":null,"persistent_id":"","id":98975716,"location_subtype":"","month":"2022-01"},{"category":"anti-social-behaviour","location_type":"Force","location":{"latitude":"51.546744","street":{"id":965830,"name":"On or near Bridgeway"},"longitude":"-0.292444"},"context":"","outcome_status":null,"persistent_id":"","id":98975717,"location_subtype":"","month":"2022-01"},{"category":"anti-social-behaviour","location_type":"Force","location":{"latitude":"51.552940","street":{"id":967166,"name":"On or near Rosemead Avenue"},"longitude":"-0.292458"},"context":"","outcome_status":null,"persistent_id":"","id":98975718,"location_subtype":"","month":"2022-01"},{"category":"anti-social-behaviour","location_type":"Force","location":{"latitude":"51.560809","street":{"id":972782,"name":"On or near Wembley Hill Road"},"longitude":"-0.291874"},"context":"","outcome_status":null,"persistent_id":"","id":98975723,"location_subtype":"","month":"2022-01"},{"category":"anti-social-behaviour","location_type":"Force","location":{"latitude":"51.560809","street":{"id":972782,"name":"On or near Wembley Hill Road"},"longitude":"-0.291874"},"context":"","outcome_status":null,"persistent_id":"","id":98975724,"location_subtype":"","month":"2022-01"},{"category":"anti-social-behaviour","location_type":"Force","location":{"latitude":"51.560809","street":{"id":972782,"name":"On or near Wembley Hill Road"},"longitude":"-0.291874"},"context":"","outcome_status":null,"persistent_id":"","id":98975725,"location_subtype":"","month":"2022-01"},{"category":"anti-social-behaviour","location_type":"Force","location":{"latitude":"51.564330","street":{"id":972720,"name":"On or near Gabrielle Close"},"longitude":"-0.287919"},"context":"","outcome_status":null,"persistent_id":"","id":98975726,"location_subtype":"","month":"2022-01"},{"category":"anti-social-behaviour","location_type":"Force","location":{"latitude":"51.575921","street":{"id":974164,"name":"On or near Ledway Drive"},"longitude":"-0.287873"},"context":"","outcome_status":null,"persistent_id":"","id":98975727,"location_subtype":"","month":"2022-01"},{"category":"anti-social-behaviour","location_type":"Force","location":{"latitude":"51.544150","street":{"id":965924,"name":"On or near Braemar Avenue"},"longitude":"-0.298945"},"context":"","outcome_status":null,"persistent_id":"","id":98975652,"location_subtype":"","month":"2022-01"},{"category":"anti-social-behaviour","location_type":"Force","location":{"latitude":"51.552242","street":{"id":967018,"name":"On or near Nightclub"},"longitude":"-0.298859"},"context":"","outcome_status":null,"persistent_id":"","id":98975648,"location_subtype":"","month":"2022-01"},{"category":"anti-social-behaviour","location_type":"Force","location":{"latitude":"51.552242","street":{"id":967018,"name":"On or near Nightclub"},"longitude":"-0.298859"},"context":"","outcome_status":null,"persistent_id":"","id":98975649,"location_subtype":"","month":"2022-01"},{"category":"anti-social-behaviour","location_type":"Force","location":{"latitude":"51.544150","street":{"id":965924,"name":"On or near Braemar Avenue"},"longitude":"-0.298945"},"context":"","outcome_status":null,"persistent_id":"","id":98975653,"location_subtype":"","month":"2022-01"},{"category":"anti-social-behaviour","location_type":"Force","location":{"latitude":"51.548154","street":{"id":967112,"name":"On or near Swinderby Road"},"longitude":"-0.299113"},"context":"","outcome_status":null,"persistent_id":"","id":98975654,"location_subtype":"","month":"2022-01"},{"category":"anti-social-behaviour","location_type":"Force","location":{"latitude":"51.581320","street":{"id":974044,"name":"On or near Palace Court"},"longitude":"-0.296821"},"context":"","outcome_status":null,"persistent_id":"","id":98975656,"location_subtype":"","month":"2022-01"},{"category":"anti-social-behaviour","location_type":"Force","location":{"latitude":"51.581320","street":{"id":974044,"name":"On or near Palace Court"},"longitude":"-0.296821"},"context":"","outcome_status":null,"persistent_id":"","id":98975657,"location_subtype":"","month":"2022-01"},{"category":"anti-social-behaviour","location_type":"Force","location":{"latitude":"51.551833","street":{"id":967015,"name":"On or near Curtis Lane"},"longitude":"-0.297937"},"context":"","outcome_status":null,"persistent_id":"","id":98975658,"location_subtype":"","month":"2022-01"},{"category":"anti-social-behaviour","location_type":"Force","location":{"latitude":"51.551833","street":{"id":967015,"name":"On or near Curtis Lane"},"longitude":"-0.297937"},"context":"","outcome_status":null,"persistent_id":"","id":98975659,"location_subtype":"","month":"2022-01"},{"category":"anti-social-behaviour","location_type":"Force","location":{"latitude":"51.563025","street":{"id":972832,"name":"On or near Hirst Crescent"},"longitude":"-0.297707"},"context":"","outcome_status":null,"persistent_id":"","id":98975660,"location_subtype":"","month":"2022-01"},{"category":"anti-social-behaviour","location_type":"Force","location":{"latitude":"51.550271","street":{"id":967004,"name":"On or near Union Road"},"longitude":"-0.296899"},"context":"","outcome_status":null,"persistent_id":"","id":98975661,"location_subtype":"","month":"2022-01"},{"category":"anti-social-behaviour","location_type":"Force","location":{"latitude":"51.550271","street":{"id":967004,"name":"On or near Union Road"},"longitude":"-0.296899"},"context":"","outcome_status":null,"persistent_id":"","id":98975662,"location_subtype":"","month":"2022-01"},{"category":"anti-social-behaviour","location_type":"Force","location":{"latitude":"51.540366","street":{"id":965926,"name":"On or near Atlip Road"},"longitude":"-0.297817"},"context":"","outcome_status":null,"persistent_id":"","id":98975663,"location_subtype":"","month":"2022-01"},{"category":"anti-social-behaviour","location_type":"Force","location":{"latitude":"51.552765","street":{"id":967005,"name":"On or near Turton Road"},"longitude":"-0.298349"},"context":"","outcome_status":null,"persistent_id":"","id":98975664,"location_subtype":"","month":"2022-01"},{"category":"anti-social-behaviour","location_type":"Force","location":{"latitude":"51.572900","street":{"id":972846,"name":"On or near Preston Waye"},"longitude":"-0.295938"},"context":"","outcome_status":null,"persistent_id":"","id":98975667,"location_subtype":"","month":"2022-01"},{"category":"anti-social-behaviour","location_type":"Force","location":{"latitude":"51.572900","street":{"id":972846,"name":"On or near Preston Waye"},"longitude":"-0.295938"},"context":"","outcome_status":null,"persistent_id":"","id":98975668,"location_subtype":"","month":"2022-01"},{"category":"anti-social-behaviour","location_type":"Force","location":{"latitude":"51.542460","street":{"id":965915,"name":"On or near Ealing Road"},"longitude":"-0.297710"},"context":"","outcome_status":null,"persistent_id":"","id":98975669,"location_subtype":"","month":"2022-01"},{"category":"anti-social-behaviour","location_type":"Force","location":{"latitude":"51.550826","street":{"id":967016,"name":"On or near Copland Road"},"longitude":"-0.297354"},"context":"","outcome_status":null,"persistent_id":"","id":98975670,"location_subtype":"","month":"2022-01"},{"category":"anti-social-behaviour","location_type":"Force","location":{"latitude":"51.542460","street":{"id":965915,"name":"On or near Ealing Road"},"longitude":"-0.297710"},"context":"","outcome_status":null,"persistent_id":"","id":98975671,"location_subtype":"","month":"2022-01"},{"category":"anti-social-behaviour","location_type":"Force","location":{"latitude":"51.542460","street":{"id":965915,"name":"On or near Ealing Road"},"longitude":"-0.297710"},"context":"","outcome_status":null,"persistent_id":"","id":98975672,"location_subtype":"","month":"2022-01"},{"category":"anti-social-behaviour","location_type":"Force","location":{"latitude":"51.542460","street":{"id":965915,"name":"On or near Ealing Road"},"longitude":"-0.297710"},"context":"","outcome_status":null,"persistent_id":"","id":98975673,"location_subtype":"","month":"2022-01"},{"category":"anti-social-behaviour","location_type":"Force","location":{"latitude":"51.542460","street":{"id":965915,"name":"On or near Ealing Road"},"longitude":"-0.297710"},"context":"","outcome_status":null,"persistent_id":"","id":98975674,"location_subtype":"","month":"2022-01"},{"category":"anti-social-behaviour","location_type":"Force","location":{"latitude":"51.542460","street":{"id":965915,"name":"On or near Ealing Road"},"longitude":"-0.297710"},"context":"","outcome_status":null,"persistent_id":"","id":98975675,"location_subtype":"","month":"2022-01"},{"category":"anti-social-behaviour","location_type":"Force","location":{"latitude":"51.550271","street":{"id":967004,"name":"On or near Union Road"},"longitude":"-0.296899"},"context":"","outcome_status":null,"persistent_id":"","id":98975676,"location_subtype":"","month":"2022-01"},{"category":"anti-social-behaviour","location_type":"Force","location":{"latitude":"51.550271","street":{"id":967004,"name":"On or near Union Road"},"longitude":"-0.296899"},"context":"","outcome_status":null,"persistent_id":"","id":98975677,"location_subtype":"","month":"2022-01"},{"category":"anti-social-behaviour","location_type":"Force","location":{"latitude":"51.559259","street":{"id":967023,"name":"On or near The Dene"},"longitude":"-0.296001"},"context":"","outcome_status":null,"persistent_id":"","id":98975678,"location_subtype":"","month":"2022-01"},{"category":"anti-social-behaviour","location_type":"Force","location":{"latitude":"51.544457","street":{"id":965902,"name":"On or near Stanley Close"},"longitude":"-0.296554"},"context":"","outcome_status":null,"persistent_id":"","id":98975679,"location_subtype":"","month":"2022-01"},{"category":"anti-social-behaviour","location_type":"Force","location":{"latitude":"51.544457","street":{"id":965902,"name":"On or near Stanley Close"},"longitude":"-0.296554"},"context":"","outcome_status":null,"persistent_id":"","id":98975680,"location_subtype":"","month":"2022-01"},{"category":"anti-social-behaviour","location_type":"Force","location":{"latitude":"51.551769","street":{"id":967020,"name":"On or near Supermarket"},"longitude":"-0.296035"},"context":"","outcome_status":null,"persistent_id":"","id":98975686,"location_subtype":"","month":"2022-01"},{"category":"anti-social-behaviour","location_type":"Force","location":{"latitude":"51.552888","street":{"id":967019,"name":"On or near Shopping Area"},"longitude":"-0.296325"},"context":"","outcome_status":null,"persistent_id":"","id":98975687,"location_subtype":"","month":"2022-01"},{"category":"anti-social-behaviour","location_type":"Force","location":{"latitude":"51.540232","street":{"id":965901,"name":"On or near Sunleigh Road"},"longitude":"-0.296005"},"context":"","outcome_status":null,"persistent_id":"","id":98975689,"location_subtype":"","month":"2022-01"},{"category":"anti-social-behaviour","location_type":"Force","location":{"latitude":"51.540232","street":{"id":965901,"name":"On or near Sunleigh Road"},"longitude":"-0.296005"},"context":"","outcome_status":null,"persistent_id":"","id":98975690,"location_subtype":"","month":"2022-01"},{"category":"anti-social-behaviour","location_type":"Force","location":{"latitude":"51.547692","street":{"id":967117,"name":"On or near Christchurch Green"},"longitude":"-0.295164"},"context":"","outcome_status":null,"persistent_id":"","id":98975694,"location_subtype":"","month":"2022-01"},{"category":"anti-social-behaviour","location_type":"Force","location":{"latitude":"51.554066","street":{"id":967044,"name":"On or near Elm Road"},"longitude":"-0.295084"},"context":"","outcome_status":null,"persistent_id":"","id":98975695,"location_subtype":"","month":"2022-01"},{"category":"anti-social-behaviour","location_type":"Force","location":{"latitude":"51.554066","street":{"id":967044,"name":"On or near Elm Road"},"longitude":"-0.295084"},"context":"","outcome_status":null,"persistent_id":"","id":98975696,"location_subtype":"","month":"2022-01"},{"category":"anti-social-behaviour","location_type":"Force","location":{"latitude":"51.581161","street":{"id":974050,"name":"On or near Hargood Close"},"longitude":"-0.293305"},"context":"","outcome_status":null,"persistent_id":"","id":98975699,"location_subtype":"","month":"2022-01"},{"category":"anti-social-behaviour","location_type":"Force","location":{"latitude":"51.553115","street":{"id":967041,"name":"On or near High Road"},"longitude":"-0.295192"},"context":"","outcome_status":null,"persistent_id":"","id":98975700,"location_subtype":"","month":"2022-01"},{"category":"anti-social-behaviour","location_type":"Force","location":{"latitude":"51.562074","street":{"id":972789,"name":"On or near Beechcroft Gardens"},"longitude":"-0.288566"},"context":"","outcome_status":null,"persistent_id":"","id":98976353,"location_subtype":"","month":"2022-01"},{"category":"anti-social-behaviour","location_type":"Force","location":{"latitude":"51.562074","street":{"id":972789,"name":"On or near Beechcroft Gardens"},"longitude":"-0.288566"},"context":"","outcome_status":null,"persistent_id":"","id":98976354,"location_subtype":"","month":"2022-01"},{"category":"anti-social-behaviour","location_type":"Force","location":{"latitude":"51.562074","street":{"id":972789,"name":"On or near Beechcroft Gardens"},"longitude":"-0.288566"},"context":"","outcome_status":null,"persistent_id":"","id":98976355,"location_subtype":"","month":"2022-01"},{"category":"anti-social-behaviour","location_type":"Force","location":{"latitude":"51.542152","street":{"id":965835,"name":"On or near Sports\/recreation Area"},"longitude":"-0.288333"},"context":"","outcome_status":null,"persistent_id":"","id":98976356,"location_subtype":"","month":"2022-01"},{"category":"anti-social-behaviour","location_type":"Force","location":{"latitude":"51.578185","street":{"id":974145,"name":"On or near Tookey Close"},"longitude":"-0.285320"},"context":"","outcome_status":null,"persistent_id":"","id":98976357,"location_subtype":"","month":"2022-01"},{"category":"anti-social-behaviour","location_type":"Force","location":{"latitude":"51.578185","street":{"id":974145,"name":"On or near Tookey Close"},"longitude":"-0.285320"},"context":"","outcome_status":null,"persistent_id":"","id":98976358,"location_subtype":"","month":"2022-01"},{"category":"anti-social-behaviour","location_type":"Force","location":{"latitude":"51.578185","street":{"id":974145,"name":"On or near Tookey Close"},"longitude":"-0.285320"},"context":"","outcome_status":null,"persistent_id":"","id":98976359,"location_subtype":"","month":"2022-01"},{"category":"anti-social-behaviour","location_type":"Force","location":{"latitude":"51.552600","street":{"id":967148,"name":"On or near Chatsworth Avenue"},"longitude":"-0.286398"},"context":"","outcome_status":null,"persistent_id":"","id":98976360,"location_subtype":"","month":"2022-01"},{"category":"anti-social-behaviour","location_type":"Force","location":{"latitude":"51.563923","street":{"id":972726,"name":"On or near Crown Walk"},"longitude":"-0.285929"},"context":"","outcome_status":null,"persistent_id":"","id":98976361,"location_subtype":"","month":"2022-01"},{"category":"anti-social-behaviour","location_type":"Force","location":{"latitude":"51.569886","street":{"id":972741,"name":"On or near Charlton Road"},"longitude":"-0.285344"},"context":"","outcome_status":null,"persistent_id":"","id":98976362,"location_subtype":"","month":"2022-01"},{"category":"anti-social-behaviour","location_type":"Force","location":{"latitude":"51.574219","street":{"id":974192,"name":"On or near Uxendon Hill"},"longitude":"-0.285917"},"context":"","outcome_status":null,"persistent_id":"","id":98976364,"location_subtype":"","month":"2022-01"},{"category":"anti-social-behaviour","location_type":"Force","location":{"latitude":"51.574219","street":{"id":974192,"name":"On or near Uxendon Hill"},"longitude":"-0.285917"},"context":"","outcome_status":null,"persistent_id":"","id":98976365,"location_subtype":"","month":"2022-01"},{"category":"anti-social-behaviour","location_type":"Force","location":{"latitude":"51.543777","street":{"id":965814,"name":"On or near Marquis Close"},"longitude":"-0.285676"},"context":"","outcome_status":null,"persistent_id":"","id":98976372,"location_subtype":"","month":"2022-01"},{"category":"anti-social-behaviour","location_type":"Force","location":{"latitude":"51.556772","street":{"id":967164,"name":"On or near Stadium Way"},"longitude":"-0.285145"},"context":"","outcome_status":null,"persistent_id":"","id":98976373,"location_subtype":"","month":"2022-01"},{"category":"anti-social-behaviour","location_type":"Force","location":{"latitude":"51.556772","street":{"id":967164,"name":"On or near Stadium Way"},"longitude":"-0.285145"},"context":"","outcome_status":null,"persistent_id":"","id":98976374,"location_subtype":"","month":"2022-01"},{"category":"anti-social-behaviour","location_type":"Force","location":{"latitude":"51.556772","street":{"id":967164,"name":"On or near Stadium Way"},"longitude":"-0.285145"},"context":"","outcome_status":null,"persistent_id":"","id":98976375,"location_subtype":"","month":"2022-01"},{"category":"anti-social-behaviour","location_type":"Force","location":{"latitude":"51.556772","street":{"id":967164,"name":"On or near Stadium Way"},"longitude":"-0.285145"},"context":"","outcome_status":null,"persistent_id":"","id":98976376,"location_subtype":"","month":"2022-01"},{"category":"anti-social-behaviour","location_type":"Force","location":{"latitude":"51.559059","street":{"id":967182,"name":"On or near Empire Way"},"longitude":"-0.284756"},"context":"","outcome_status":null,"persistent_id":"","id":98976377,"location_subtype":"","month":"2022-01"},{"category":"anti-social-behaviour","location_type":"Force","location":{"latitude":"51.559059","street":{"id":967182,"name":"On or near Empire Way"},"longitude":"-0.284756"},"context":"","outcome_status":null,"persistent_id":"","id":98976378,"location_subtype":"","month":"2022-01"},{"category":"anti-social-behaviour","location_type":"Force","location":{"latitude":"51.559059","street":{"id":967182,"name":"On or near Empire Way"},"longitude":"-0.284756"},"context":"","outcome_status":null,"persistent_id":"","id":98976379,"location_subtype":"","month":"2022-01"},{"category":"anti-social-behaviour","location_type":"Force","location":{"latitude":"51.559059","street":{"id":967182,"name":"On or near Empire Way"},"longitude":"-0.284756"},"context":"","outcome_status":null,"persistent_id":"","id":98976380,"location_subtype":"","month":"2022-01"},{"category":"anti-social-behaviour","location_type":"Force","location":{"latitude":"51.559059","street":{"id":967182,"name":"On or near Empire Way"},"longitude":"-0.284756"},"context":"","outcome_status":null,"persistent_id":"","id":98976381,"location_subtype":"","month":"2022-01"},{"category":"anti-social-behaviour","location_type":"Force","location":{"latitude":"51.559059","street":{"id":967182,"name":"On or near Empire Way"},"longitude":"-0.284756"},"context":"","outcome_status":null,"persistent_id":"","id":98976382,"location_subtype":"","month":"2022-01"},{"category":"anti-social-behaviour","location_type":"Force","location":{"latitude":"51.559059","street":{"id":967182,"name":"On or near Empire Way"},"longitude":"-0.284756"},"context":"","outcome_status":null,"persistent_id":"","id":98976383,"location_subtype":"","month":"2022-01"},{"category":"anti-social-behaviour","location_type":"Force","location":{"latitude":"51.557908","street":{"id":967187,"name":"On or near Conference\/exhibition Centre"},"longitude":"-0.283529"},"context":"","outcome_status":null,"persistent_id":"","id":98976384,"location_subtype":"","month":"2022-01"},{"category":"anti-social-behaviour","location_type":"Force","location":{"latitude":"51.557908","street":{"id":967187,"name":"On or near Conference\/exhibition Centre"},"longitude":"-0.283529"},"context":"","outcome_status":null,"persistent_id":"","id":98976385,"location_subtype":"","month":"2022-01"},{"category":"anti-social-behaviour","location_type":"Force","location":{"latitude":"51.557908","street":{"id":967187,"name":"On or near Conference\/exhibition Centre"},"longitude":"-0.283529"},"context":"","outcome_status":null,"persistent_id":"","id":98976386,"location_subtype":"","month":"2022-01"},{"category":"anti-social-behaviour","location_type":"Force","location":{"latitude":"51.557908","street":{"id":967187,"name":"On or near Conference\/exhibition Centre"},"longitude":"-0.283529"},"context":"","outcome_status":null,"persistent_id":"","id":98976387,"location_subtype":"","month":"2022-01"},{"category":"anti-social-behaviour","location_type":"Force","location":{"latitude":"51.557908","street":{"id":967187,"name":"On or near Conference\/exhibition Centre"},"longitude":"-0.283529"},"context":"","outcome_status":null,"persistent_id":"","id":98976388,"location_subtype":"","month":"2022-01"},{"category":"anti-social-behaviour","location_type":"Force","location":{"latitude":"51.557908","street":{"id":967187,"name":"On or near Conference\/exhibition Centre"},"longitude":"-0.283529"},"context":"","outcome_status":null,"persistent_id":"","id":98976389,"location_subtype":"","month":"2022-01"},{"category":"anti-social-behaviour","location_type":"Force","location":{"latitude":"51.568255","street":{"id":972716,"name":"On or near Mayfields Close"},"longitude":"-0.283284"},"context":"","outcome_status":null,"persistent_id":"","id":98976390,"location_subtype":"","month":"2022-01"},{"category":"anti-social-behaviour","location_type":"Force","location":{"latitude":"51.561807","street":{"id":972790,"name":"On or near Petrol Station"},"longitude":"-0.281998"},"context":"","outcome_status":null,"persistent_id":"","id":98976399,"location_subtype":"","month":"2022-01"},{"category":"anti-social-behaviour","location_type":"Force","location":{"latitude":"51.587263","street":{"id":979261,"name":"On or near Elmcroft Gardens"},"longitude":"-0.281961"},"context":"","outcome_status":null,"persistent_id":"","id":98976391,"location_subtype":"","month":"2022-01"},{"category":"anti-social-behaviour","location_type":"Force","location":{"latitude":"51.549100","street":{"id":967191,"name":"On or near Northchurch Road"},"longitude":"-0.284395"},"context":"","outcome_status":null,"persistent_id":"","id":98976392,"location_subtype":"","month":"2022-01"},{"category":"anti-social-behaviour","location_type":"Force","location":{"latitude":"51.561807","street":{"id":972790,"name":"On or near Petrol Station"},"longitude":"-0.281998"},"context":"","outcome_status":null,"persistent_id":"","id":98976393,"location_subtype":"","month":"2022-01"},{"category":"anti-social-behaviour","location_type":"Force","location":{"latitude":"51.561807","street":{"id":972790,"name":"On or near Petrol Station"},"longitude":"-0.281998"},"context":"","outcome_status":null,"persistent_id":"","id":98976394,"location_subtype":"","month":"2022-01"},{"category":"anti-social-behaviour","location_type":"Force","location":{"latitude":"51.561807","street":{"id":972790,"name":"On or near Petrol Station"},"longitude":"-0.281998"},"context":"","outcome_status":null,"persistent_id":"","id":98976395,"location_subtype":"","month":"2022-01"},{"category":"anti-social-behaviour","location_type":"Force","location":{"latitude":"51.561807","street":{"id":972790,"name":"On or near Petrol Station"},"longitude":"-0.281998"},"context":"","outcome_status":null,"persistent_id":"","id":98976396,"location_subtype":"","month":"2022-01"},{"category":"anti-social-behaviour","location_type":"Force","location":{"latitude":"51.587766","street":{"id":979259,"name":"On or near Princes Avenue"},"longitude":"-0.283112"},"context":"","outcome_status":null,"persistent_id":"","id":98976397,"location_subtype":"","month":"2022-01"},{"category":"anti-social-behaviour","location_type":"Force","location":{"latitude":"51.561807","street":{"id":972790,"name":"On or near Petrol Station"},"longitude":"-0.281998"},"context":"","outcome_status":null,"persistent_id":"","id":98976398,"location_subtype":"","month":"2022-01"},{"category":"anti-social-behaviour","location_type":"Force","location":{"latitude":"51.561807","street":{"id":972790,"name":"On or near Petrol Station"},"longitude":"-0.281998"},"context":"","outcome_status":null,"persistent_id":"","id":98976400,"location_subtype":"","month":"2022-01"},{"category":"anti-social-behaviour","location_type":"Force","location":{"latitude":"51.561807","street":{"id":972790,"name":"On or near Petrol Station"},"longitude":"-0.281998"},"context":"","outcome_status":null,"persistent_id":"","id":98976401,"location_subtype":"","month":"2022-01"},{"category":"anti-social-behaviour","location_type":"Force","location":{"latitude":"51.585082","street":{"id":974181,"name":"On or near A4006"},"longitude":"-0.281596"},"context":"","outcome_status":null,"persistent_id":"","id":98976403,"location_subtype":"","month":"2022-01"},{"category":"anti-social-behaviour","location_type":"Force","location":{"latitude":"51.585082","street":{"id":974181,"name":"On or near A4006"},"longitude":"-0.281596"},"context":"","outcome_status":null,"persistent_id":"","id":98976404,"location_subtype":"","month":"2022-01"},{"category":"anti-social-behaviour","location_type":"Force","location":{"latitude":"51.558589","street":{"id":967134,"name":"On or near Engineers Way"},"longitude":"-0.280243"},"context":"","outcome_status":null,"persistent_id":"","id":98976408,"location_subtype":"","month":"2022-01"},{"category":"anti-social-behaviour","location_type":"Force","location":{"latitude":"51.561807","street":{"id":972790,"name":"On or near Petrol Station"},"longitude":"-0.281998"},"context":"","outcome_status":null,"persistent_id":"","id":98976410,"location_subtype":"","month":"2022-01"},{"category":"anti-social-behaviour","location_type":"Force","location":{"latitude":"51.558589","street":{"id":967134,"name":"On or near Engineers Way"},"longitude":"-0.280243"},"context":"","outcome_status":null,"persistent_id":"","id":98976411,"location_subtype":"","month":"2022-01"},{"category":"anti-social-behaviour","location_type":"Force","location":{"latitude":"51.558589","street":{"id":967134,"name":"On or near Engineers Way"},"longitude":"-0.280243"},"context":"","outcome_status":null,"persistent_id":"","id":98976412,"location_subtype":"","month":"2022-01"},{"category":"anti-social-behaviour","location_type":"Force","location":{"latitude":"51.558589","street":{"id":967134,"name":"On or near Engineers Way"},"longitude":"-0.280243"},"context":"","outcome_status":null,"persistent_id":"","id":98976413,"location_subtype":"","month":"2022-01"},{"category":"anti-social-behaviour","location_type":"Force","location":{"latitude":"51.580220","street":{"id":974132,"name":"On or near Broadview"},"longitude":"-0.278734"},"context":"","outcome_status":null,"persistent_id":"","id":98976414,"location_subtype":"","month":"2022-01"},{"category":"anti-social-behaviour","location_type":"Force","location":{"latitude":"51.540955","street":{"id":965847,"name":"On or near Wycombe Road"},"longitude":"-0.280245"},"context":"","outcome_status":null,"persistent_id":"","id":98976415,"location_subtype":"","month":"2022-01"},{"category":"anti-social-behaviour","location_type":"Force","location":{"latitude":"51.585202","street":{"id":974135,"name":"On or near Supermarket"},"longitude":"-0.279961"},"context":"","outcome_status":null,"persistent_id":"","id":98976416,"location_subtype":"","month":"2022-01"},{"category":"anti-social-behaviour","location_type":"Force","location":{"latitude":"51.585202","street":{"id":974135,"name":"On or near Supermarket"},"longitude":"-0.279961"},"context":"","outcome_status":null,"persistent_id":"","id":98976417,"location_subtype":"","month":"2022-01"},{"category":"anti-social-behaviour","location_type":"Force","location":{"latitude":"51.585202","street":{"id":974135,"name":"On or near Supermarket"},"longitude":"-0.279961"},"context":"","outcome_status":null,"persistent_id":"","id":98976418,"location_subtype":"","month":"2022-01"},{"category":"anti-social-behaviour","location_type":"Force","location":{"latitude":"51.549922","street":{"id":967126,"name":"On or near Victoria Court"},"longitude":"-0.280354"},"context":"","outcome_status":null,"persistent_id":"","id":98976419,"location_subtype":"","month":"2022-01"},{"category":"anti-social-behaviour","location_type":"Force","location":{"latitude":"51.560795","street":{"id":972777,"name":"On or near Fulton Road"},"longitude":"-0.278645"},"context":"","outcome_status":null,"persistent_id":"","id":98976420,"location_subtype":"","month":"2022-01"},{"category":"anti-social-behaviour","location_type":"Force","location":{"latitude":"51.560795","street":{"id":972777,"name":"On or near Fulton Road"},"longitude":"-0.278645"},"context":"","outcome_status":null,"persistent_id":"","id":98976421,"location_subtype":"","month":"2022-01"},{"category":"anti-social-behaviour","location_type":"Force","location":{"latitude":"51.560795","street":{"id":972777,"name":"On or near Fulton Road"},"longitude":"-0.278645"},"context":"","outcome_status":null,"persistent_id":"","id":98976422,"location_subtype":"","month":"2022-01"},{"category":"anti-social-behaviour","location_type":"Force","location":{"latitude":"51.580857","street":{"id":974128,"name":"On or near Fryent Way"},"longitude":"-0.278624"},"context":"","outcome_status":null,"persistent_id":"","id":98976423,"location_subtype":"","month":"2022-01"},{"category":"anti-social-behaviour","location_type":"Force","location":{"latitude":"51.580857","street":{"id":974128,"name":"On or near Fryent Way"},"longitude":"-0.278624"},"context":"","outcome_status":null,"persistent_id":"","id":98976424,"location_subtype":"","month":"2022-01"},{"category":"anti-social-behaviour","location_type":"Force","location":{"latitude":"51.585316","street":{"id":974124,"name":"On or near Kingsbury Road"},"longitude":"-0.277921"},"context":"","outcome_status":null,"persistent_id":"","id":98976425,"location_subtype":"","month":"2022-01"},{"category":"anti-social-behaviour","location_type":"Force","location":{"latitude":"51.562733","street":{"id":972758,"name":"On or near Further\/higher Educational Building"},"longitude":"-0.278962"},"context":"","outcome_status":null,"persistent_id":"","id":98976426,"location_subtype":"","month":"2022-01"},{"category":"anti-social-behaviour","location_type":"Force","location":{"latitude":"51.562733","street":{"id":972758,"name":"On or near Further\/higher Educational Building"},"longitude":"-0.278962"},"context":"","outcome_status":null,"persistent_id":"","id":98976427,"location_subtype":"","month":"2022-01"},{"category":"anti-social-behaviour","location_type":"Force","location":{"latitude":"51.564484","street":{"id":972753,"name":"On or near Bridge Road"},"longitude":"-0.278145"},"context":"","outcome_status":null,"persistent_id":"","id":98976428,"location_subtype":"","month":"2022-01"},{"category":"anti-social-behaviour","location_type":"Force","location":{"latitude":"51.564484","street":{"id":972753,"name":"On or near Bridge Road"},"longitude":"-0.278145"},"context":"","outcome_status":null,"persistent_id":"","id":98976429,"location_subtype":"","month":"2022-01"},{"category":"anti-social-behaviour","location_type":"Force","location":{"latitude":"51.587586","street":{"id":979254,"name":"On or near Brampton Road"},"longitude":"-0.277619"},"context":"","outcome_status":null,"persistent_id":"","id":98976430,"location_subtype":"","month":"2022-01"},{"category":"anti-social-behaviour","location_type":"Force","location":{"latitude":"51.585194","street":{"id":974134,"name":"On or near Shopping Area"},"longitude":"-0.277622"},"context":"","outcome_status":null,"persistent_id":"","id":98976431,"location_subtype":"","month":"2022-01"},{"category":"anti-social-behaviour","location_type":"Force","location":{"latitude":"51.585194","street":{"id":974134,"name":"On or near Shopping Area"},"longitude":"-0.277622"},"context":"","outcome_status":null,"persistent_id":"","id":98976432,"location_subtype":"","month":"2022-01"},{"category":"anti-social-behaviour","location_type":"Force","location":{"latitude":"51.564484","street":{"id":972753,"name":"On or near Bridge Road"},"longitude":"-0.278145"},"context":"","outcome_status":null,"persistent_id":"","id":98976433,"location_subtype":"","month":"2022-01"},{"category":"anti-social-behaviour","location_type":"Force","location":{"latitude":"51.547027","street":{"id":965840,"name":"On or near Wigginton Avenue"},"longitude":"-0.277362"},"context":"","outcome_status":null,"persistent_id":"","id":98976434,"location_subtype":"","month":"2022-01"},{"category":"anti-social-behaviour","location_type":"Force","location":{"latitude":"51.588139","street":{"id":979253,"name":"On or near Grosvenor Crescent"},"longitude":"-0.276688"},"context":"","outcome_status":null,"persistent_id":"","id":98976435,"location_subtype":"","month":"2022-01"},{"category":"anti-social-behaviour","location_type":"Force","location":{"latitude":"51.559174","street":{"id":967138,"name":"On or near Shopping Area"},"longitude":"-0.277206"},"context":"","outcome_status":null,"persistent_id":"","id":98976437,"location_subtype":"","month":"2022-01"},{"category":"anti-social-behaviour","location_type":"Force","location":{"latitude":"51.559174","street":{"id":967138,"name":"On or near Shopping Area"},"longitude":"-0.277206"},"context":"","outcome_status":null,"persistent_id":"","id":98976438,"location_subtype":"","month":"2022-01"},{"category":"anti-social-behaviour","location_type":"Force","location":{"latitude":"51.550561","street":{"id":967121,"name":"On or near Vivian Avenue"},"longitude":"-0.277359"},"context":"","outcome_status":null,"persistent_id":"","id":98976439,"location_subtype":"","month":"2022-01"},{"category":"anti-social-behaviour","location_type":"Force","location":{"latitude":"51.561249","street":{"id":972780,"name":"On or near North End Road"},"longitude":"-0.276479"},"context":"","outcome_status":null,"persistent_id":"","id":98976440,"location_subtype":"","month":"2022-01"},{"category":"anti-social-behaviour","location_type":"Force","location":{"latitude":"51.586811","street":{"id":974137,"name":"On or near Sutherland Court"},"longitude":"-0.275006"},"context":"","outcome_status":null,"persistent_id":"","id":98976441,"location_subtype":"","month":"2022-01"},{"category":"anti-social-behaviour","location_type":"Force","location":{"latitude":"51.568034","street":{"id":972765,"name":"On or near Kings Drive"},"longitude":"-0.274332"},"context":"","outcome_status":null,"persistent_id":"","id":98976442,"location_subtype":"","month":"2022-01"},{"category":"anti-social-behaviour","location_type":"Force","location":{"latitude":"51.568034","street":{"id":972765,"name":"On or near Kings Drive"},"longitude":"-0.274332"},"context":"","outcome_status":null,"persistent_id":"","id":98976443,"location_subtype":"","month":"2022-01"},{"category":"anti-social-behaviour","location_type":"Force","location":{"latitude":"51.568034","street":{"id":972765,"name":"On or near Kings Drive"},"longitude":"-0.274332"},"context":"","outcome_status":null,"persistent_id":"","id":98976444,"location_subtype":"","month":"2022-01"},{"category":"anti-social-behaviour","location_type":"Force","location":{"latitude":"51.547655","street":{"id":967196,"name":"On or near Grittleton Avenue"},"longitude":"-0.274180"},"context":"","outcome_status":null,"persistent_id":"","id":98976445,"location_subtype":"","month":"2022-01"},{"category":"anti-social-behaviour","location_type":"Force","location":{"latitude":"51.558011","street":{"id":967137,"name":"On or near Shopping Area"},"longitude":"-0.274610"},"context":"","outcome_status":null,"persistent_id":"","id":98976446,"location_subtype":"","month":"2022-01"},{"category":"anti-social-behaviour","location_type":"Force","location":{"latitude":"51.558011","street":{"id":967137,"name":"On or near Shopping Area"},"longitude":"-0.274610"},"context":"","outcome_status":null,"persistent_id":"","id":98976447,"location_subtype":"","month":"2022-01"},{"category":"anti-social-behaviour","location_type":"Force","location":{"latitude":"51.558011","street":{"id":967137,"name":"On or near Shopping Area"},"longitude":"-0.274610"},"context":"","outcome_status":null,"persistent_id":"","id":98976448,"location_subtype":"","month":"2022-01"},{"category":"anti-social-behaviour","location_type":"Force","location":{"latitude":"51.562557","street":{"id":972781,"name":"On or near Dugolly Avenue"},"longitude":"-0.272462"},"context":"","outcome_status":null,"persistent_id":"","id":98976449,"location_subtype":"","month":"2022-01"},{"category":"anti-social-behaviour","location_type":"Force","location":{"latitude":"51.562557","street":{"id":972781,"name":"On or near Dugolly Avenue"},"longitude":"-0.272462"},"context":"","outcome_status":null,"persistent_id":"","id":98976450,"location_subtype":"","month":"2022-01"},{"category":"anti-social-behaviour","location_type":"Force","location":{"latitude":"51.551325","street":{"id":967123,"name":"On or near Grand Avenue East"},"longitude":"-0.275469"},"context":"","outcome_status":null,"persistent_id":"","id":98976452,"location_subtype":"","month":"2022-01"},{"category":"anti-social-behaviour","location_type":"Force","location":{"latitude":"51.551325","street":{"id":967123,"name":"On or near Grand Avenue East"},"longitude":"-0.275469"},"context":"","outcome_status":null,"persistent_id":"","id":98976453,"location_subtype":"","month":"2022-01"},{"category":"anti-social-behaviour","location_type":"Force","location":{"latitude":"51.551325","street":{"id":967123,"name":"On or near Grand Avenue East"},"longitude":"-0.275469"},"context":"","outcome_status":null,"persistent_id":"","id":98976454,"location_subtype":"","month":"2022-01"},{"category":"anti-social-behaviour","location_type":"Force","location":{"latitude":"51.584661","street":{"id":974116,"name":"On or near Sedum Close"},"longitude":"-0.272562"},"context":"","outcome_status":null,"persistent_id":"","id":98976455,"location_subtype":"","month":"2022-01"},{"category":"anti-social-behaviour","location_type":"Force","location":{"latitude":"51.570836","street":{"id":972774,"name":"On or near Pilgrims Way"},"longitude":"-0.273519"},"context":"","outcome_status":null,"persistent_id":"","id":98976456,"location_subtype":"","month":"2022-01"},{"category":"anti-social-behaviour","location_type":"Force","location":{"latitude":"51.571379","street":{"id":972642,"name":"On or near Rossdale Drive"},"longitude":"-0.268202"},"context":"","outcome_status":null,"persistent_id":"","id":98976457,"location_subtype":"","month":"2022-01"},{"category":"anti-social-behaviour","location_type":"Force","location":{"latitude":"51.545418","street":{"id":965706,"name":"On or near Conduit Way"},"longitude":"-0.268236"},"context":"","outcome_status":null,"persistent_id":"","id":98976459,"location_subtype":"","month":"2022-01"},{"category":"anti-social-behaviour","location_type":"Force","location":{"latitude":"51.545418","street":{"id":965706,"name":"On or near Conduit Way"},"longitude":"-0.268236"},"context":"","outcome_status":null,"persistent_id":"","id":98976460,"location_subtype":"","month":"2022-01"},{"category":"anti-social-behaviour","location_type":"Force","location":{"latitude":"51.565150","street":{"id":972609,"name":"On or near The Drive"},"longitude":"-0.267819"},"context":"","outcome_status":null,"persistent_id":"","id":98976461,"location_subtype":"","month":"2022-01"},{"category":"anti-social-behaviour","location_type":"Force","location":{"latitude":"51.565150","street":{"id":972609,"name":"On or near The Drive"},"longitude":"-0.267819"},"context":"","outcome_status":null,"persistent_id":"","id":98976462,"location_subtype":"","month":"2022-01"},{"category":"anti-social-behaviour","location_type":"Force","location":{"latitude":"51.565150","street":{"id":972609,"name":"On or near The Drive"},"longitude":"-0.267819"},"context":"","outcome_status":null,"persistent_id":"","id":98976463,"location_subtype":"","month":"2022-01"},{"category":"anti-social-behaviour","location_type":"Force","location":{"latitude":"51.565150","street":{"id":972609,"name":"On or near The Drive"},"longitude":"-0.267819"},"context":"","outcome_status":null,"persistent_id":"","id":98976464,"location_subtype":"","month":"2022-01"},{"category":"anti-social-behaviour","location_type":"Force","location":{"latitude":"51.583473","street":{"id":974246,"name":"On or near Sunningdale Gardens"},"longitude":"-0.268176"},"context":"","outcome_status":null,"persistent_id":"","id":98976466,"location_subtype":"","month":"2022-01"},{"category":"anti-social-behaviour","location_type":"Force","location":{"latitude":"51.543043","street":{"id":965698,"name":"On or near Foxholt Gardens"},"longitude":"-0.268125"},"context":"","outcome_status":null,"persistent_id":"","id":98976468,"location_subtype":"","month":"2022-01"},{"category":"anti-social-behaviour","location_type":"Force","location":{"latitude":"51.543043","street":{"id":965698,"name":"On or near Foxholt Gardens"},"longitude":"-0.268125"},"context":"","outcome_status":null,"persistent_id":"","id":98976469,"location_subtype":"","month":"2022-01"},{"category":"anti-social-behaviour","location_type":"Force","location":{"latitude":"51.584450","street":{"id":974242,"name":"On or near Uphill Drive"},"longitude":"-0.264357"},"context":"","outcome_status":null,"persistent_id":"","id":98976475,"location_subtype":"","month":"2022-01"},{"category":"anti-social-behaviour","location_type":"Force","location":{"latitude":"51.584450","street":{"id":974242,"name":"On or near Uphill Drive"},"longitude":"-0.264357"},"context":"","outcome_status":null,"persistent_id":"","id":98976476,"location_subtype":"","month":"2022-01"},{"category":"anti-social-behaviour","location_type":"Force","location":{"latitude":"51.568538","street":{"id":972616,"name":"On or near Queens Walk"},"longitude":"-0.265237"},"context":"","outcome_status":null,"persistent_id":"","id":98976478,"location_subtype":"","month":"2022-01"},{"category":"anti-social-behaviour","location_type":"Force","location":{"latitude":"51.588456","street":{"id":979163,"name":"On or near Stag Lane"},"longitude":"-0.265243"},"context":"","outcome_status":null,"persistent_id":"","id":98976479,"location_subtype":"","month":"2022-01"},{"category":"anti-social-behaviour","location_type":"Force","location":{"latitude":"51.583469","street":{"id":974251,"name":"On or near Pipers Green"},"longitude":"-0.264856"},"context":"","outcome_status":null,"persistent_id":"","id":98976480,"location_subtype":"","month":"2022-01"},{"category":"anti-social-behaviour","location_type":"Force","location":{"latitude":"51.544992","street":{"id":965693,"name":"On or near Mandela Close"},"longitude":"-0.265570"},"context":"","outcome_status":null,"persistent_id":"","id":98976481,"location_subtype":"","month":"2022-01"},{"category":"anti-social-behaviour","location_type":"Force","location":{"latitude":"51.562659","street":{"id":972610,"name":"On or near The Close"},"longitude":"-0.264162"},"context":"","outcome_status":null,"persistent_id":"","id":98976482,"location_subtype":"","month":"2022-01"},{"category":"anti-social-behaviour","location_type":"Force","location":{"latitude":"51.588486","street":{"id":979166,"name":"On or near Elmwood Crescent"},"longitude":"-0.263640"},"context":"","outcome_status":null,"persistent_id":"","id":98976484,"location_subtype":"","month":"2022-01"},{"category":"anti-social-behaviour","location_type":"Force","location":{"latitude":"51.562659","street":{"id":972610,"name":"On or near The Close"},"longitude":"-0.264162"},"context":"","outcome_status":null,"persistent_id":"","id":98976485,"location_subtype":"","month":"2022-01"},{"category":"anti-social-behaviour","location_type":"Force","location":{"latitude":"51.562659","street":{"id":972610,"name":"On or near The Close"},"longitude":"-0.264162"},"context":"","outcome_status":null,"persistent_id":"","id":98976486,"location_subtype":"","month":"2022-01"},{"category":"anti-social-behaviour","location_type":"Force","location":{"latitude":"51.562659","street":{"id":972610,"name":"On or near The Close"},"longitude":"-0.264162"},"context":"","outcome_status":null,"persistent_id":"","id":98976487,"location_subtype":"","month":"2022-01"},{"category":"anti-social-behaviour","location_type":"Force","location":{"latitude":"51.564992","street":{"id":972637,"name":"On or near Petrol Station"},"longitude":"-0.264434"},"context":"","outcome_status":null,"persistent_id":"","id":98976489,"location_subtype":"","month":"2022-01"},{"category":"anti-social-behaviour","location_type":"Force","location":{"latitude":"51.584450","street":{"id":974242,"name":"On or near Uphill Drive"},"longitude":"-0.264357"},"context":"","outcome_status":null,"persistent_id":"","id":98976490,"location_subtype":"","month":"2022-01"},{"category":"anti-social-behaviour","location_type":"Force","location":{"latitude":"51.563353","street":{"id":972617,"name":"On or near Poplar Grove"},"longitude":"-0.263039"},"context":"","outcome_status":null,"persistent_id":"","id":98976491,"location_subtype":"","month":"2022-01"},{"category":"anti-social-behaviour","location_type":"Force","location":{"latitude":"51.563353","street":{"id":972617,"name":"On or near Poplar Grove"},"longitude":"-0.263039"},"context":"","outcome_status":null,"persistent_id":"","id":98976492,"location_subtype":"","month":"2022-01"},{"category":"anti-social-behaviour","location_type":"Force","location":{"latitude":"51.563353","street":{"id":972617,"name":"On or near Poplar Grove"},"longitude":"-0.263039"},"context":"","outcome_status":null,"persistent_id":"","id":98976493,"location_subtype":"","month":"2022-01"},{"category":"anti-social-behaviour","location_type":"Force","location":{"latitude":"51.543154","street":{"id":965695,"name":"On or near Hilltop Avenue"},"longitude":"-0.264097"},"context":"","outcome_status":null,"persistent_id":"","id":98976494,"location_subtype":"","month":"2022-01"},{"category":"anti-social-behaviour","location_type":"Force","location":{"latitude":"51.586728","street":{"id":974283,"name":"On or near Fairfields Crescent"},"longitude":"-0.263317"},"context":"","outcome_status":null,"persistent_id":"","id":98976495,"location_subtype":"","month":"2022-01"},{"category":"anti-social-behaviour","location_type":"Force","location":{"latitude":"51.576130","street":{"id":974254,"name":"On or near Meadowbank Road"},"longitude":"-0.262364"},"context":"","outcome_status":null,"persistent_id":"","id":98976496,"location_subtype":"","month":"2022-01"},{"category":"anti-social-behaviour","location_type":"Force","location":{"latitude":"51.576130","street":{"id":974254,"name":"On or near Meadowbank Road"},"longitude":"-0.262364"},"context":"","outcome_status":null,"persistent_id":"","id":98976497,"location_subtype":"","month":"2022-01"},{"category":"anti-social-behaviour","location_type":"Force","location":{"latitude":"51.541326","street":{"id":965680,"name":"On or near Wesley Road"},"longitude":"-0.263936"},"context":"","outcome_status":null,"persistent_id":"","id":98976498,"location_subtype":"","month":"2022-01"},{"category":"anti-social-behaviour","location_type":"Force","location":{"latitude":"51.551585","street":{"id":967239,"name":"On or near Lewis Crescent"},"longitude":"-0.263213"},"context":"","outcome_status":null,"persistent_id":"","id":98976499,"location_subtype":"","month":"2022-01"},{"category":"anti-social-behaviour","location_type":"Force","location":{"latitude":"51.564238","street":{"id":972635,"name":"On or near Blackbird Hill"},"longitude":"-0.262082"},"context":"","outcome_status":null,"persistent_id":"","id":98976501,"location_subtype":"","month":"2022-01"},{"category":"anti-social-behaviour","location_type":"Force","location":{"latitude":"51.564238","street":{"id":972635,"name":"On or near Blackbird Hill"},"longitude":"-0.262082"},"context":"","outcome_status":null,"persistent_id":"","id":98976502,"location_subtype":"","month":"2022-01"},{"category":"anti-social-behaviour","location_type":"Force","location":{"latitude":"51.550726","street":{"id":967242,"name":"On or near Garden Way"},"longitude":"-0.263549"},"context":"","outcome_status":null,"persistent_id":"","id":98976503,"location_subtype":"","month":"2022-01"},{"category":"anti-social-behaviour","location_type":"Force","location":{"latitude":"51.569310","street":{"id":972611,"name":"On or near St Andrews Road"},"longitude":"-0.261470"},"context":"","outcome_status":null,"persistent_id":"","id":98976504,"location_subtype":"","month":"2022-01"},{"category":"anti-social-behaviour","location_type":"Force","location":{"latitude":"51.575298","street":{"id":974299,"name":"On or near Reeves Avenue"},"longitude":"-0.260188"},"context":"","outcome_status":null,"persistent_id":"","id":98976505,"location_subtype":"","month":"2022-01"},{"category":"anti-social-behaviour","location_type":"Force","location":{"latitude":"51.575298","street":{"id":974299,"name":"On or near Reeves Avenue"},"longitude":"-0.260188"},"context":"","outcome_status":null,"persistent_id":"","id":98976506,"location_subtype":"","month":"2022-01"},{"category":"anti-social-behaviour","location_type":"Force","location":{"latitude":"51.575298","street":{"id":974299,"name":"On or near Reeves Avenue"},"longitude":"-0.260188"},"context":"","outcome_status":null,"persistent_id":"","id":98976507,"location_subtype":"","month":"2022-01"},{"category":"anti-social-behaviour","location_type":"Force","location":{"latitude":"51.575298","street":{"id":974299,"name":"On or near Reeves Avenue"},"longitude":"-0.260188"},"context":"","outcome_status":null,"persistent_id":"","id":98976508,"location_subtype":"","month":"2022-01"},{"category":"anti-social-behaviour","location_type":"Force","location":{"latitude":"51.550726","street":{"id":967242,"name":"On or near Garden Way"},"longitude":"-0.263549"},"context":"","outcome_status":null,"persistent_id":"","id":98976509,"location_subtype":"","month":"2022-01"},{"category":"anti-social-behaviour","location_type":"Force","location":{"latitude":"51.552097","street":{"id":967234,"name":"On or near St Raphael's Way"},"longitude":"-0.262559"},"context":"","outcome_status":null,"persistent_id":"","id":98976510,"location_subtype":"","month":"2022-01"},{"category":"anti-social-behaviour","location_type":"Force","location":{"latitude":"51.552097","street":{"id":967234,"name":"On or near St Raphael's Way"},"longitude":"-0.262559"},"context":"","outcome_status":null,"persistent_id":"","id":98976511,"location_subtype":"","month":"2022-01"},{"category":"anti-social-behaviour","location_type":"Force","location":{"latitude":"51.552097","street":{"id":967234,"name":"On or near St Raphael's Way"},"longitude":"-0.262559"},"context":"","outcome_status":null,"persistent_id":"","id":98976512,"location_subtype":"","month":"2022-01"},{"category":"anti-social-behaviour","location_type":"Force","location":{"latitude":"51.577915","street":{"id":974231,"name":"On or near Sports\/recreation Area"},"longitude":"-0.259641"},"context":"","outcome_status":null,"persistent_id":"","id":98976513,"location_subtype":"","month":"2022-01"},{"category":"anti-social-behaviour","location_type":"Force","location":{"latitude":"51.566839","street":{"id":972670,"name":"On or near Birchen Grove"},"longitude":"-0.259169"},"context":"","outcome_status":null,"persistent_id":"","id":98976514,"location_subtype":"","month":"2022-01"},{"category":"anti-social-behaviour","location_type":"Force","location":{"latitude":"51.544517","street":{"id":965725,"name":"On or near Stonebridge Park"},"longitude":"-0.260771"},"context":"","outcome_status":null,"persistent_id":"","id":98976516,"location_subtype":"","month":"2022-01"},{"category":"anti-social-behaviour","location_type":"Force","location":{"latitude":"51.580482","street":{"id":923611,"name":"On or near Burgess Avenue"},"longitude":"-0.259918"},"context":"","outcome_status":null,"persistent_id":"","id":98976517,"location_subtype":"","month":"2022-01"},{"category":"anti-social-behaviour","location_type":"Force","location":{"latitude":"51.549620","street":{"id":967215,"name":"On or near Elgar Avenue"},"longitude":"-0.259855"},"context":"","outcome_status":null,"persistent_id":"","id":98976518,"location_subtype":"","month":"2022-01"},{"category":"anti-social-behaviour","location_type":"Force","location":{"latitude":"51.565738","street":{"id":972667,"name":"On or near Harp Island Close"},"longitude":"-0.258346"},"context":"","outcome_status":null,"persistent_id":"","id":98976519,"location_subtype":"","month":"2022-01"},{"category":"anti-social-behaviour","location_type":"Force","location":{"latitude":"51.546589","street":{"id":965775,"name":"On or near Brentfield Road"},"longitude":"-0.259812"},"context":"","outcome_status":null,"persistent_id":"","id":98976520,"location_subtype":"","month":"2022-01"},{"category":"anti-social-behaviour","location_type":"Force","location":{"latitude":"51.589043","street":{"id":979134,"name":"On or near Evelyn Avenue"},"longitude":"-0.257512"},"context":"","outcome_status":null,"persistent_id":"","id":98976521,"location_subtype":"","month":"2022-01"},{"category":"anti-social-behaviour","location_type":"Force","location":{"latitude":"51.545991","street":{"id":965742,"name":"On or near Kingthorpe Road"},"longitude":"-0.260773"},"context":"","outcome_status":null,"persistent_id":"","id":98976522,"location_subtype":"","month":"2022-01"},{"category":"anti-social-behaviour","location_type":"Force","location":{"latitude":"51.561140","street":{"id":972698,"name":"On or near Aylesbury Street"},"longitude":"-0.258723"},"context":"","outcome_status":null,"persistent_id":"","id":98976523,"location_subtype":"","month":"2022-01"},{"category":"anti-social-behaviour","location_type":"Force","location":{"latitude":"51.561140","street":{"id":972698,"name":"On or near Aylesbury Street"},"longitude":"-0.258723"},"context":"","outcome_status":null,"persistent_id":"","id":98976524,"location_subtype":"","month":"2022-01"},{"category":"anti-social-behaviour","location_type":"Force","location":{"latitude":"51.550981","street":{"id":967210,"name":"On or near Kingfisher Way"},"longitude":"-0.259457"},"context":"","outcome_status":null,"persistent_id":"","id":98976525,"location_subtype":"","month":"2022-01"},{"category":"anti-social-behaviour","location_type":"Force","location":{"latitude":"51.550981","street":{"id":967210,"name":"On or near Kingfisher Way"},"longitude":"-0.259457"},"context":"","outcome_status":null,"persistent_id":"","id":98976526,"location_subtype":"","month":"2022-01"},{"category":"anti-social-behaviour","location_type":"Force","location":{"latitude":"51.550981","street":{"id":967210,"name":"On or near Kingfisher Way"},"longitude":"-0.259457"},"context":"","outcome_status":null,"persistent_id":"","id":98976527,"location_subtype":"","month":"2022-01"},{"category":"anti-social-behaviour","location_type":"Force","location":{"latitude":"51.550981","street":{"id":967210,"name":"On or near Kingfisher Way"},"longitude":"-0.259457"},"context":"","outcome_status":null,"persistent_id":"","id":98976528,"location_subtype":"","month":"2022-01"},{"category":"anti-social-behaviour","location_type":"Force","location":{"latitude":"51.550981","street":{"id":967210,"name":"On or near Kingfisher Way"},"longitude":"-0.259457"},"context":"","outcome_status":null,"persistent_id":"","id":98976529,"location_subtype":"","month":"2022-01"},{"category":"anti-social-behaviour","location_type":"Force","location":{"latitude":"51.550981","street":{"id":967210,"name":"On or near Kingfisher Way"},"longitude":"-0.259457"},"context":"","outcome_status":null,"persistent_id":"","id":98976530,"location_subtype":"","month":"2022-01"},{"category":"anti-social-behaviour","location_type":"Force","location":{"latitude":"51.550981","street":{"id":967210,"name":"On or near Kingfisher Way"},"longitude":"-0.259457"},"context":"","outcome_status":null,"persistent_id":"","id":98976531,"location_subtype":"","month":"2022-01"},{"category":"anti-social-behaviour","location_type":"Force","location":{"latitude":"51.550981","street":{"id":967210,"name":"On or near Kingfisher Way"},"longitude":"-0.259457"},"context":"","outcome_status":null,"persistent_id":"","id":98976532,"location_subtype":"","month":"2022-01"},{"category":"anti-social-behaviour","location_type":"Force","location":{"latitude":"51.550110","street":{"id":967213,"name":"On or near Handel Place"},"longitude":"-0.258986"},"context":"","outcome_status":null,"persistent_id":"","id":98976533,"location_subtype":"","month":"2022-01"},{"category":"anti-social-behaviour","location_type":"Force","location":{"latitude":"51.553906","street":{"id":967230,"name":"On or near Petrol Station"},"longitude":"-0.255437"},"context":"","outcome_status":null,"persistent_id":"","id":98977173,"location_subtype":"","month":"2022-01"},{"category":"anti-social-behaviour","location_type":"Force","location":{"latitude":"51.577060","street":{"id":974201,"name":"On or near Sunnymead Road"},"longitude":"-0.259558"},"context":"","outcome_status":null,"persistent_id":"","id":98977174,"location_subtype":"","month":"2022-01"},{"category":"anti-social-behaviour","location_type":"Force","location":{"latitude":"51.565738","street":{"id":972667,"name":"On or near Harp Island Close"},"longitude":"-0.258346"},"context":"","outcome_status":null,"persistent_id":"","id":98977175,"location_subtype":"","month":"2022-01"},{"category":"anti-social-behaviour","location_type":"Force","location":{"latitude":"51.565738","street":{"id":972667,"name":"On or near Harp Island Close"},"longitude":"-0.258346"},"context":"","outcome_status":null,"persistent_id":"","id":98977176,"location_subtype":"","month":"2022-01"},{"category":"anti-social-behaviour","location_type":"Force","location":{"latitude":"51.565738","street":{"id":972667,"name":"On or near Harp Island Close"},"longitude":"-0.258346"},"context":"","outcome_status":null,"persistent_id":"","id":98977177,"location_subtype":"","month":"2022-01"},{"category":"anti-social-behaviour","location_type":"Force","location":{"latitude":"51.562803","street":{"id":972660,"name":"On or near Press Road"},"longitude":"-0.256900"},"context":"","outcome_status":null,"persistent_id":"","id":98977178,"location_subtype":"","month":"2022-01"},{"category":"anti-social-behaviour","location_type":"Force","location":{"latitude":"51.562803","street":{"id":972660,"name":"On or near Press Road"},"longitude":"-0.256900"},"context":"","outcome_status":null,"persistent_id":"","id":98977179,"location_subtype":"","month":"2022-01"},{"category":"anti-social-behaviour","location_type":"Force","location":{"latitude":"51.544282","street":{"id":965780,"name":"On or near Alric Avenue"},"longitude":"-0.257665"},"context":"","outcome_status":null,"persistent_id":"","id":98977180,"location_subtype":"","month":"2022-01"},{"category":"anti-social-behaviour","location_type":"Force","location":{"latitude":"51.544282","street":{"id":965780,"name":"On or near Alric Avenue"},"longitude":"-0.257665"},"context":"","outcome_status":null,"persistent_id":"","id":98977181,"location_subtype":"","month":"2022-01"},{"category":"anti-social-behaviour","location_type":"Force","location":{"latitude":"51.541869","street":{"id":965764,"name":"On or near Craven Park"},"longitude":"-0.257498"},"context":"","outcome_status":null,"persistent_id":"","id":98977182,"location_subtype":"","month":"2022-01"},{"category":"anti-social-behaviour","location_type":"Force","location":{"latitude":"51.542913","street":{"id":965770,"name":"On or near Casselden Road"},"longitude":"-0.257530"},"context":"","outcome_status":null,"persistent_id":"","id":98977183,"location_subtype":"","month":"2022-01"},{"category":"anti-social-behaviour","location_type":"Force","location":{"latitude":"51.561392","street":{"id":972694,"name":"On or near Neasden Lane North"},"longitude":"-0.255698"},"context":"","outcome_status":null,"persistent_id":"","id":98977184,"location_subtype":"","month":"2022-01"},{"category":"anti-social-behaviour","location_type":"Force","location":{"latitude":"51.553906","street":{"id":967230,"name":"On or near Petrol Station"},"longitude":"-0.255437"},"context":"","outcome_status":null,"persistent_id":"","id":98977185,"location_subtype":"","month":"2022-01"},{"category":"anti-social-behaviour","location_type":"Force","location":{"latitude":"51.553906","street":{"id":967230,"name":"On or near Petrol Station"},"longitude":"-0.255437"},"context":"","outcome_status":null,"persistent_id":"","id":98977186,"location_subtype":"","month":"2022-01"},{"category":"anti-social-behaviour","location_type":"Force","location":{"latitude":"51.553906","street":{"id":967230,"name":"On or near Petrol Station"},"longitude":"-0.255437"},"context":"","outcome_status":null,"persistent_id":"","id":98977187,"location_subtype":"","month":"2022-01"},{"category":"anti-social-behaviour","location_type":"Force","location":{"latitude":"51.590072","street":{"id":979132,"name":"On or near Hay Lane"},"longitude":"-0.254773"},"context":"","outcome_status":null,"persistent_id":"","id":98977189,"location_subtype":"","month":"2022-01"},{"category":"anti-social-behaviour","location_type":"Force","location":{"latitude":"51.590072","street":{"id":979132,"name":"On or near Hay Lane"},"longitude":"-0.254773"},"context":"","outcome_status":null,"persistent_id":"","id":98977190,"location_subtype":"","month":"2022-01"},{"category":"anti-social-behaviour","location_type":"Force","location":{"latitude":"51.540090","street":{"id":965733,"name":"On or near Park Road"},"longitude":"-0.255749"},"context":"","outcome_status":null,"persistent_id":"","id":98977192,"location_subtype":"","month":"2022-01"},{"category":"anti-social-behaviour","location_type":"Force","location":{"latitude":"51.563575","street":{"id":972675,"name":"On or near Aboyne Road"},"longitude":"-0.254345"},"context":"","outcome_status":null,"persistent_id":"","id":98977193,"location_subtype":"","month":"2022-01"},{"category":"anti-social-behaviour","location_type":"Force","location":{"latitude":"51.586345","street":{"id":974236,"name":"On or near Stancroft"},"longitude":"-0.253242"},"context":"","outcome_status":null,"persistent_id":"","id":98977194,"location_subtype":"","month":"2022-01"},{"category":"anti-social-behaviour","location_type":"Force","location":{"latitude":"51.561083","street":{"id":972696,"name":"On or near Jackman Mews"},"longitude":"-0.253690"},"context":"","outcome_status":null,"persistent_id":"","id":98977196,"location_subtype":"","month":"2022-01"},{"category":"anti-social-behaviour","location_type":"Force","location":{"latitude":"51.561083","street":{"id":972696,"name":"On or near Jackman Mews"},"longitude":"-0.253690"},"context":"","outcome_status":null,"persistent_id":"","id":98977197,"location_subtype":"","month":"2022-01"},{"category":"anti-social-behaviour","location_type":"Force","location":{"latitude":"51.561083","street":{"id":972696,"name":"On or near Jackman Mews"},"longitude":"-0.253690"},"context":"","outcome_status":null,"persistent_id":"","id":98977198,"location_subtype":"","month":"2022-01"},{"category":"anti-social-behaviour","location_type":"Force","location":{"latitude":"51.561083","street":{"id":972696,"name":"On or near Jackman Mews"},"longitude":"-0.253690"},"context":"","outcome_status":null,"persistent_id":"","id":98977199,"location_subtype":"","month":"2022-01"},{"category":"anti-social-behaviour","location_type":"Force","location":{"latitude":"51.545465","street":{"id":965747,"name":"On or near Hawkins Road"},"longitude":"-0.253798"},"context":"","outcome_status":null,"persistent_id":"","id":98977200,"location_subtype":"","month":"2022-01"},{"category":"anti-social-behaviour","location_type":"Force","location":{"latitude":"51.544695","street":{"id":965774,"name":"On or near Brittage Road"},"longitude":"-0.254015"},"context":"","outcome_status":null,"persistent_id":"","id":98977201,"location_subtype":"","month":"2022-01"},{"category":"anti-social-behaviour","location_type":"Force","location":{"latitude":"51.551061","street":{"id":967209,"name":"On or near Lynton Close"},"longitude":"-0.252805"},"context":"","outcome_status":null,"persistent_id":"","id":98977202,"location_subtype":"","month":"2022-01"},{"category":"anti-social-behaviour","location_type":"Force","location":{"latitude":"51.560573","street":{"id":972688,"name":"On or near Pedestrian Subway"},"longitude":"-0.253263"},"context":"","outcome_status":null,"persistent_id":"","id":98977203,"location_subtype":"","month":"2022-01"},{"category":"anti-social-behaviour","location_type":"Force","location":{"latitude":"51.587333","street":{"id":979160,"name":"On or near Edgware Road The Hyde"},"longitude":"-0.251399"},"context":"","outcome_status":null,"persistent_id":"","id":98977205,"location_subtype":"","month":"2022-01"},{"category":"anti-social-behaviour","location_type":"Force","location":{"latitude":"51.557680","street":{"id":967229,"name":"On or near Ballogie Avenue"},"longitude":"-0.252219"},"context":"","outcome_status":null,"persistent_id":"","id":98977207,"location_subtype":"","month":"2022-01"},{"category":"anti-social-behaviour","location_type":"Force","location":{"latitude":"51.557680","street":{"id":967229,"name":"On or near Ballogie Avenue"},"longitude":"-0.252219"},"context":"","outcome_status":null,"persistent_id":"","id":98977208,"location_subtype":"","month":"2022-01"},{"category":"anti-social-behaviour","location_type":"Force","location":{"latitude":"51.541237","street":{"id":965720,"name":"On or near Tunley Road"},"longitude":"-0.253109"},"context":"","outcome_status":null,"persistent_id":"","id":98977209,"location_subtype":"","month":"2022-01"},{"category":"anti-social-behaviour","location_type":"Force","location":{"latitude":"51.562428","street":{"id":972662,"name":"On or near North Circular Road"},"longitude":"-0.252196"},"context":"","outcome_status":null,"persistent_id":"","id":98977210,"location_subtype":"","month":"2022-01"},{"category":"anti-social-behaviour","location_type":"Force","location":{"latitude":"51.562428","street":{"id":972662,"name":"On or near North Circular Road"},"longitude":"-0.252196"},"context":"","outcome_status":null,"persistent_id":"","id":98977211,"location_subtype":"","month":"2022-01"},{"category":"anti-social-behaviour","location_type":"Force","location":{"latitude":"51.562428","street":{"id":972662,"name":"On or near North Circular Road"},"longitude":"-0.252196"},"context":"","outcome_status":null,"persistent_id":"","id":98977212,"location_subtype":"","month":"2022-01"},{"category":"anti-social-behaviour","location_type":"Force","location":{"latitude":"51.586456","street":{"id":974239,"name":"On or near Edgware Road The Hyde"},"longitude":"-0.250423"},"context":"","outcome_status":null,"persistent_id":"","id":98977216,"location_subtype":"","month":"2022-01"},{"category":"anti-social-behaviour","location_type":"Force","location":{"latitude":"51.540876","street":{"id":965556,"name":"On or near St Mary's Road"},"longitude":"-0.250599"},"context":"","outcome_status":null,"persistent_id":"","id":98977218,"location_subtype":"","month":"2022-01"},{"category":"anti-social-behaviour","location_type":"Force","location":{"latitude":"51.540876","street":{"id":965556,"name":"On or near St Mary's Road"},"longitude":"-0.250599"},"context":"","outcome_status":null,"persistent_id":"","id":98977219,"location_subtype":"","month":"2022-01"},{"category":"anti-social-behaviour","location_type":"Force","location":{"latitude":"51.550306","street":{"id":967326,"name":"On or near Wharton Close"},"longitude":"-0.250973"},"context":"","outcome_status":null,"persistent_id":"","id":98977220,"location_subtype":"","month":"2022-01"},{"category":"anti-social-behaviour","location_type":"Force","location":{"latitude":"51.563291","street":{"id":972531,"name":"On or near Avondale Avenue"},"longitude":"-0.250417"},"context":"","outcome_status":null,"persistent_id":"","id":98977221,"location_subtype":"","month":"2022-01"},{"category":"anti-social-behaviour","location_type":"Force","location":{"latitude":"51.560605","street":{"id":972597,"name":"On or near Chartley Avenue"},"longitude":"-0.250578"},"context":"","outcome_status":null,"persistent_id":"","id":98977222,"location_subtype":"","month":"2022-01"},{"category":"anti-social-behaviour","location_type":"Force","location":{"latitude":"51.560605","street":{"id":972597,"name":"On or near Chartley Avenue"},"longitude":"-0.250578"},"context":"","outcome_status":null,"persistent_id":"","id":98977223,"location_subtype":"","month":"2022-01"},{"category":"anti-social-behaviour","location_type":"Force","location":{"latitude":"51.547786","street":{"id":967368,"name":"On or near High Road"},"longitude":"-0.250219"},"context":"","outcome_status":null,"persistent_id":"","id":98977224,"location_subtype":"","month":"2022-01"},{"category":"anti-social-behaviour","location_type":"Force","location":{"latitude":"51.547786","street":{"id":967368,"name":"On or near High Road"},"longitude":"-0.250219"},"context":"","outcome_status":null,"persistent_id":"","id":98977225,"location_subtype":"","month":"2022-01"},{"category":"anti-social-behaviour","location_type":"Force","location":{"latitude":"51.547786","street":{"id":967368,"name":"On or near High Road"},"longitude":"-0.250219"},"context":"","outcome_status":null,"persistent_id":"","id":98977226,"location_subtype":"","month":"2022-01"},{"category":"anti-social-behaviour","location_type":"Force","location":{"latitude":"51.547786","street":{"id":967368,"name":"On or near High Road"},"longitude":"-0.250219"},"context":"","outcome_status":null,"persistent_id":"","id":98977227,"location_subtype":"","month":"2022-01"},{"category":"anti-social-behaviour","location_type":"Force","location":{"latitude":"51.558988","street":{"id":967332,"name":"On or near Parking Area"},"longitude":"-0.250049"},"context":"","outcome_status":null,"persistent_id":"","id":98977229,"location_subtype":"","month":"2022-01"},{"category":"anti-social-behaviour","location_type":"Force","location":{"latitude":"51.541668","street":{"id":965581,"name":"On or near Fortunegate Road"},"longitude":"-0.250598"},"context":"","outcome_status":null,"persistent_id":"","id":98977230,"location_subtype":"","month":"2022-01"},{"category":"anti-social-behaviour","location_type":"Force","location":{"latitude":"51.541668","street":{"id":965581,"name":"On or near Fortunegate Road"},"longitude":"-0.250598"},"context":"","outcome_status":null,"persistent_id":"","id":98977231,"location_subtype":"","month":"2022-01"},{"category":"anti-social-behaviour","location_type":"Force","location":{"latitude":"51.550641","street":{"id":967315,"name":"On or near Knapp Close"},"longitude":"-0.249951"},"context":"","outcome_status":null,"persistent_id":"","id":98977232,"location_subtype":"","month":"2022-01"},{"category":"anti-social-behaviour","location_type":"Force","location":{"latitude":"51.550641","street":{"id":967315,"name":"On or near Knapp Close"},"longitude":"-0.249951"},"context":"","outcome_status":null,"persistent_id":"","id":98977234,"location_subtype":"","month":"2022-01"},{"category":"anti-social-behaviour","location_type":"Force","location":{"latitude":"51.548474","street":{"id":967360,"name":"On or near Parking Area"},"longitude":"-0.248736"},"context":"","outcome_status":null,"persistent_id":"","id":98977235,"location_subtype":"","month":"2022-01"},{"category":"anti-social-behaviour","location_type":"Force","location":{"latitude":"51.561210","street":{"id":972602,"name":"On or near Ashcombe Park"},"longitude":"-0.248939"},"context":"","outcome_status":null,"persistent_id":"","id":98977238,"location_subtype":"","month":"2022-01"},{"category":"anti-social-behaviour","location_type":"Force","location":{"latitude":"51.565191","street":{"id":972542,"name":"On or near Links Road"},"longitude":"-0.247531"},"context":"","outcome_status":null,"persistent_id":"","id":98977241,"location_subtype":"","month":"2022-01"},{"category":"anti-social-behaviour","location_type":"Force","location":{"latitude":"51.548793","street":{"id":967363,"name":"On or near White Hart Lane"},"longitude":"-0.247195"},"context":"","outcome_status":null,"persistent_id":"","id":98977242,"location_subtype":"","month":"2022-01"},{"category":"anti-social-behaviour","location_type":"Force","location":{"latitude":"51.548793","street":{"id":967363,"name":"On or near White Hart Lane"},"longitude":"-0.247195"},"context":"","outcome_status":null,"persistent_id":"","id":98977243,"location_subtype":"","month":"2022-01"},{"category":"anti-social-behaviour","location_type":"Force","location":{"latitude":"51.542155","street":{"id":965582,"name":"On or near Fawcett Road"},"longitude":"-0.247709"},"context":"","outcome_status":null,"persistent_id":"","id":98977244,"location_subtype":"","month":"2022-01"},{"category":"anti-social-behaviour","location_type":"Force","location":{"latitude":"51.555641","street":{"id":967343,"name":"On or near Northview Crescent"},"longitude":"-0.246354"},"context":"","outcome_status":null,"persistent_id":"","id":98977262,"location_subtype":"","month":"2022-01"},{"category":"anti-social-behaviour","location_type":"Force","location":{"latitude":"51.546522","street":{"id":965580,"name":"On or near Franklyn Road"},"longitude":"-0.245710"},"context":"","outcome_status":null,"persistent_id":"","id":98977265,"location_subtype":"","month":"2022-01"},{"category":"anti-social-behaviour","location_type":"Force","location":{"latitude":"51.566452","street":{"id":972538,"name":"On or near Review Road"},"longitude":"-0.244712"},"context":"","outcome_status":null,"persistent_id":"","id":98977271,"location_subtype":"","month":"2022-01"},{"category":"anti-social-behaviour","location_type":"Force","location":{"latitude":"51.565402","street":{"id":972533,"name":"On or near Warren Road"},"longitude":"-0.243613"},"context":"","outcome_status":null,"persistent_id":"","id":98977273,"location_subtype":"","month":"2022-01"},{"category":"anti-social-behaviour","location_type":"Force","location":{"latitude":"51.565402","street":{"id":972533,"name":"On or near Warren Road"},"longitude":"-0.243613"},"context":"","outcome_status":null,"persistent_id":"","id":98977274,"location_subtype":"","month":"2022-01"},{"category":"anti-social-behaviour","location_type":"Force","location":{"latitude":"51.553804","street":{"id":923813,"name":"On or near Aberdeen Road"},"longitude":"-0.241939"},"context":"","outcome_status":null,"persistent_id":"","id":98977289,"location_subtype":"","month":"2022-01"},{"category":"anti-social-behaviour","location_type":"Force","location":{"latitude":"51.549529","street":{"id":967320,"name":"On or near Colin Road"},"longitude":"-0.241137"},"context":"","outcome_status":null,"persistent_id":"","id":98977290,"location_subtype":"","month":"2022-01"},{"category":"anti-social-behaviour","location_type":"Force","location":{"latitude":"51.551263","street":{"id":967319,"name":"On or near Cooper Road"},"longitude":"-0.241042"},"context":"","outcome_status":null,"persistent_id":"","id":98977291,"location_subtype":"","month":"2022-01"},{"category":"anti-social-behaviour","location_type":"Force","location":{"latitude":"51.547776","street":{"id":967369,"name":"On or near Glebe Road"},"longitude":"-0.241147"},"context":"","outcome_status":null,"persistent_id":"","id":98977293,"location_subtype":"","month":"2022-01"},{"category":"anti-social-behaviour","location_type":"Force","location":{"latitude":"51.550616","street":{"id":967316,"name":"On or near Dudden Hill Lane"},"longitude":"-0.241052"},"context":"","outcome_status":null,"persistent_id":"","id":98977294,"location_subtype":"","month":"2022-01"},{"category":"anti-social-behaviour","location_type":"Force","location":{"latitude":"51.551998","street":{"id":967289,"name":"On or near Pedestrian Subway"},"longitude":"-0.239066"},"context":"","outcome_status":null,"persistent_id":"","id":98977295,"location_subtype":"","month":"2022-01"},{"category":"anti-social-behaviour","location_type":"Force","location":{"latitude":"51.564200","street":{"id":972574,"name":"On or near Brook Road"},"longitude":"-0.238999"},"context":"","outcome_status":null,"persistent_id":"","id":98977296,"location_subtype":"","month":"2022-01"},{"category":"anti-social-behaviour","location_type":"Force","location":{"latitude":"51.540583","street":{"id":965623,"name":"On or near Hersant Close"},"longitude":"-0.237012"},"context":"","outcome_status":null,"persistent_id":"","id":98977297,"location_subtype":"","month":"2022-01"},{"category":"anti-social-behaviour","location_type":"Force","location":{"latitude":"51.540583","street":{"id":965623,"name":"On or near Hersant Close"},"longitude":"-0.237012"},"context":"","outcome_status":null,"persistent_id":"","id":98977298,"location_subtype":"","month":"2022-01"},{"category":"anti-social-behaviour","location_type":"Force","location":{"latitude":"51.560563","street":{"id":972592,"name":"On or near Hill Crest Gardens"},"longitude":"-0.239327"},"context":"","outcome_status":null,"persistent_id":"","id":98977299,"location_subtype":"","month":"2022-01"},{"category":"anti-social-behaviour","location_type":"Force","location":{"latitude":"51.551998","street":{"id":967289,"name":"On or near Pedestrian Subway"},"longitude":"-0.239066"},"context":"","outcome_status":null,"persistent_id":"","id":98977300,"location_subtype":"","month":"2022-01"},{"category":"anti-social-behaviour","location_type":"Force","location":{"latitude":"51.547807","street":{"id":967388,"name":"On or near Bus\/coach Station"},"longitude":"-0.239026"},"context":"","outcome_status":null,"persistent_id":"","id":98977301,"location_subtype":"","month":"2022-01"},{"category":"anti-social-behaviour","location_type":"Force","location":{"latitude":"51.547807","street":{"id":967388,"name":"On or near Bus\/coach Station"},"longitude":"-0.239026"},"context":"","outcome_status":null,"persistent_id":"","id":98977302,"location_subtype":"","month":"2022-01"},{"category":"anti-social-behaviour","location_type":"Force","location":{"latitude":"51.547807","street":{"id":967388,"name":"On or near Bus\/coach Station"},"longitude":"-0.239026"},"context":"","outcome_status":null,"persistent_id":"","id":98977303,"location_subtype":"","month":"2022-01"},{"category":"anti-social-behaviour","location_type":"Force","location":{"latitude":"51.547807","street":{"id":967388,"name":"On or near Bus\/coach Station"},"longitude":"-0.239026"},"context":"","outcome_status":null,"persistent_id":"","id":98977304,"location_subtype":"","month":"2022-01"},{"category":"anti-social-behaviour","location_type":"Force","location":{"latitude":"51.561823","street":{"id":972594,"name":"On or near Flowers Close"},"longitude":"-0.238211"},"context":"","outcome_status":null,"persistent_id":"","id":98977305,"location_subtype":"","month":"2022-01"},{"category":"anti-social-behaviour","location_type":"Force","location":{"latitude":"51.561823","street":{"id":972594,"name":"On or near Flowers Close"},"longitude":"-0.238211"},"context":"","outcome_status":null,"persistent_id":"","id":98977306,"location_subtype":"","month":"2022-01"},{"category":"anti-social-behaviour","location_type":"Force","location":{"latitude":"51.547807","street":{"id":967388,"name":"On or near Bus\/coach Station"},"longitude":"-0.239026"},"context":"","outcome_status":null,"persistent_id":"","id":98977307,"location_subtype":"","month":"2022-01"},{"category":"anti-social-behaviour","location_type":"Force","location":{"latitude":"51.566456","street":{"id":972575,"name":"On or near Ballards Road"},"longitude":"-0.238363"},"context":"","outcome_status":null,"persistent_id":"","id":98977310,"location_subtype":"","month":"2022-01"},{"category":"anti-social-behaviour","location_type":"Force","location":{"latitude":"51.560654","street":{"id":972589,"name":"On or near Rose Croft Gardens"},"longitude":"-0.238227"},"context":"","outcome_status":null,"persistent_id":"","id":98977311,"location_subtype":"","month":"2022-01"},{"category":"anti-social-behaviour","location_type":"Force","location":{"latitude":"51.548071","street":{"id":967389,"name":"On or near Supermarket"},"longitude":"-0.236852"},"context":"","outcome_status":null,"persistent_id":"","id":98977315,"location_subtype":"","month":"2022-01"},{"category":"anti-social-behaviour","location_type":"Force","location":{"latitude":"51.548071","street":{"id":967389,"name":"On or near Supermarket"},"longitude":"-0.236852"},"context":"","outcome_status":null,"persistent_id":"","id":98977316,"location_subtype":"","month":"2022-01"},{"category":"anti-social-behaviour","location_type":"Force","location":{"latitude":"51.548071","street":{"id":967389,"name":"On or near Supermarket"},"longitude":"-0.236852"},"context":"","outcome_status":null,"persistent_id":"","id":98977317,"location_subtype":"","month":"2022-01"},{"category":"anti-social-behaviour","location_type":"Force","location":{"latitude":"51.548071","street":{"id":967389,"name":"On or near Supermarket"},"longitude":"-0.236852"},"context":"","outcome_status":null,"persistent_id":"","id":98977318,"location_subtype":"","month":"2022-01"},{"category":"anti-social-behaviour","location_type":"Force","location":{"latitude":"51.548071","street":{"id":967389,"name":"On or near Supermarket"},"longitude":"-0.236852"},"context":"","outcome_status":null,"persistent_id":"","id":98977319,"location_subtype":"","month":"2022-01"},{"category":"anti-social-behaviour","location_type":"Force","location":{"latitude":"51.548071","street":{"id":967389,"name":"On or near Supermarket"},"longitude":"-0.236852"},"context":"","outcome_status":null,"persistent_id":"","id":98977320,"location_subtype":"","month":"2022-01"},{"category":"anti-social-behaviour","location_type":"Force","location":{"latitude":"51.548071","street":{"id":967389,"name":"On or near Supermarket"},"longitude":"-0.236852"},"context":"","outcome_status":null,"persistent_id":"","id":98977321,"location_subtype":"","month":"2022-01"},{"category":"anti-social-behaviour","location_type":"Force","location":{"latitude":"51.548071","street":{"id":967389,"name":"On or near Supermarket"},"longitude":"-0.236852"},"context":"","outcome_status":null,"persistent_id":"","id":98977322,"location_subtype":"","month":"2022-01"},{"category":"anti-social-behaviour","location_type":"Force","location":{"latitude":"51.548071","street":{"id":967389,"name":"On or near Supermarket"},"longitude":"-0.236852"},"context":"","outcome_status":null,"persistent_id":"","id":98977323,"location_subtype":"","month":"2022-01"},{"category":"anti-social-behaviour","location_type":"Force","location":{"latitude":"51.545635","street":{"id":965612,"name":"On or near Sterling Close"},"longitude":"-0.236874"},"context":"","outcome_status":null,"persistent_id":"","id":98977324,"location_subtype":"","month":"2022-01"},{"category":"anti-social-behaviour","location_type":"Force","location":{"latitude":"51.547019","street":{"id":967377,"name":"On or near Strode Road"},"longitude":"-0.236244"},"context":"","outcome_status":null,"persistent_id":"","id":98977325,"location_subtype":"","month":"2022-01"},