[{"category":"anti-social-behaviour","location_type":"Force","location":{"latitude":"51.529058","street":{"id":961133,"name":"On or near Vestry Street"},"longitude":"-0.087939"},"context":"","outcome_status":null,"persistent_id":"","id":98977014,"location_subtype":"","month":"2022-01"},{"category":"anti-social-behaviour","location_type":"Force","location":{"latitude":"51.528296","street":{"id":961138,"name":"On or near Silbury Street"},"longitude":"-0.088115"},"context":"","outcome_status":null,"persistent_id":"","id":98977017,"location_subtype":"","month":"2022-01"},{"category":"anti-social-behaviour","location_type":"Force","location":{"latitude":"51.527244","street":{"id":961186,"name":"On or near Further\/higher Educational Building"},"longitude":"-0.087034"},"context":"","outcome_status":null,"persistent_id":"","id":98977022,"location_subtype":"","month":"2022-01"},{"category":"anti-social-behaviour","location_type":"Force","location":{"latitude":"51.527652","street":{"id":961161,"name":"On or near Corsham Street"},"longitude":"-0.086657"},"context":"","outcome_status":null,"persistent_id":"","id":98977023,"location_subtype":"","month":"2022-01"},{"category":"anti-social-behaviour","location_type":"Force","location":{"latitude":"51.529705","street":{"id":961177,"name":"On or near Allerton Street"},"longitude":"-0.087407"},"context":"","outcome_status":null,"persistent_id":"","id":98977024,"location_subtype":"","month":"2022-01"},{"category":"anti-social-behaviour","location_type":"Force","location":{"latitude":"51.531730","street":{"id":964574,"name":"On or near Cherbury Street"},"longitude":"-0.085808"},"context":"","outcome_status":null,"persistent_id":"","id":98977025,"location_subtype":"","month":"2022-01"},{"category":"anti-social-behaviour","location_type":"Force","location":{"latitude":"51.536672","street":{"id":964498,"name":"On or near Bridport Place"},"longitude":"-0.086668"},"context":"","outcome_status":null,"persistent_id":"","id":98977026,"location_subtype":"","month":"2022-01"},{"category":"anti-social-behaviour","location_type":"Force","location":{"latitude":"51.536672","street":{"id":964498,"name":"On or near Bridport Place"},"longitude":"-0.086668"},"context":"","outcome_status":null,"persistent_id":"","id":98977027,"location_subtype":"","month":"2022-01"},{"category":"anti-social-behaviour","location_type":"Force","location":{"latitude":"51.529754","street":{"id":961154,"name":"On or near Fullwood's Mews"},"longitude":"-0.086006"},"context":"","outcome_status":null,"persistent_id":"","id":98977028,"location_subtype":"","month":"2022-01"},{"category":"anti-social-behaviour","location_type":"Force","location":{"latitude":"51.529754","street":{"id":961154,"name":"On or near Fullwood's Mews"},"longitude":"-0.086006"},"context":"","outcome_status":null,"persistent_id":"","id":98977029,"location_subtype":"","month":"2022-01"},{"category":"anti-social-behaviour","location_type":"Force","location":{"latitude":"51.529754","street":{"id":961154,"name":"On or near Fullwood's Mews"},"longitude":"-0.086006"},"context":"","outcome_status":null,"persistent_id":"","id":98977030,"location_subtype":"","month":"2022-01"},{"category":"anti-social-behaviour","location_type":"Force","location":{"latitude":"51.527198","street":{"id":961170,"name":"On or near Brunswick Place"},"longitude":"-0.086402"},"context":"","outcome_status":null,"persistent_id":"","id":98977031,"location_subtype":"","month":"2022-01"},{"category":"anti-social-behaviour","location_type":"Force","location":{"latitude":"51.525884","street":{"id":961184,"name":"On or near Nightclub"},"longitude":"-0.085203"},"context":"","outcome_status":null,"persistent_id":"","id":98977035,"location_subtype":"","month":"2022-01"},{"category":"anti-social-behaviour","location_type":"Force","location":{"latitude":"51.525884","street":{"id":961184,"name":"On or near Nightclub"},"longitude":"-0.085203"},"context":"","outcome_status":null,"persistent_id":"","id":98977036,"location_subtype":"","month":"2022-01"},{"category":"anti-social-behaviour","location_type":"Force","location":{"latitude":"51.528275","street":{"id":961168,"name":"On or near Chart Street"},"longitude":"-0.085694"},"context":"","outcome_status":null,"persistent_id":"","id":98977037,"location_subtype":"","month":"2022-01"},{"category":"anti-social-behaviour","location_type":"Force","location":{"latitude":"51.533149","street":{"id":964578,"name":"On or near Mintern Street"},"longitude":"-0.085186"},"context":"","outcome_status":null,"persistent_id":"","id":98977039,"location_subtype":"","month":"2022-01"},{"category":"anti-social-behaviour","location_type":"Force","location":{"latitude":"51.532005","street":{"id":964573,"name":"On or near Clunbury Street"},"longitude":"-0.085061"},"context":"","outcome_status":null,"persistent_id":"","id":98977040,"location_subtype":"","month":"2022-01"},{"category":"anti-social-behaviour","location_type":"Force","location":{"latitude":"51.533149","street":{"id":964578,"name":"On or near Mintern Street"},"longitude":"-0.085186"},"context":"","outcome_status":null,"persistent_id":"","id":98977041,"location_subtype":"","month":"2022-01"},{"category":"anti-social-behaviour","location_type":"Force","location":{"latitude":"51.529252","street":{"id":961151,"name":"On or near Haberdasher Street"},"longitude":"-0.085537"},"context":"","outcome_status":null,"persistent_id":"","id":98977047,"location_subtype":"","month":"2022-01"},{"category":"anti-social-behaviour","location_type":"Force","location":{"latitude":"51.525851","street":{"id":961740,"name":"On or near Birkbeck Street"},"longitude":"-0.055882"},"context":"","outcome_status":null,"persistent_id":"","id":98980730,"location_subtype":"","month":"2022-01"},{"category":"anti-social-behaviour","location_type":"Force","location":{"latitude":"51.538850","street":{"id":964500,"name":"On or near Benyon Road"},"longitude":"-0.085697"},"context":"","outcome_status":null,"persistent_id":"","id":98977048,"location_subtype":"","month":"2022-01"},{"category":"anti-social-behaviour","location_type":"Force","location":{"latitude":"51.525815","street":{"id":961136,"name":"On or near Singer Street"},"longitude":"-0.084889"},"context":"","outcome_status":null,"persistent_id":"","id":98977049,"location_subtype":"","month":"2022-01"},{"category":"anti-social-behaviour","location_type":"Force","location":{"latitude":"51.537121","street":{"id":964499,"name":"On or near Branch Place"},"longitude":"-0.084991"},"context":"","outcome_status":null,"persistent_id":"","id":98977050,"location_subtype":"","month":"2022-01"},{"category":"anti-social-behaviour","location_type":"Force","location":{"latitude":"51.525690","street":{"id":961135,"name":"On or near Tabernacle Street"},"longitude":"-0.084360"},"context":"","outcome_status":null,"persistent_id":"","id":98977056,"location_subtype":"","month":"2022-01"},{"category":"anti-social-behaviour","location_type":"Force","location":{"latitude":"51.526288","street":{"id":961123,"name":"On or near Parking Area"},"longitude":"-0.082995"},"context":"","outcome_status":null,"persistent_id":"","id":98977063,"location_subtype":"","month":"2022-01"},{"category":"anti-social-behaviour","location_type":"Force","location":{"latitude":"51.526288","street":{"id":961123,"name":"On or near Parking Area"},"longitude":"-0.082995"},"context":"","outcome_status":null,"persistent_id":"","id":98977064,"location_subtype":"","month":"2022-01"},{"category":"anti-social-behaviour","location_type":"Force","location":{"latitude":"51.523239","street":{"id":961434,"name":"On or near Scrutton Street"},"longitude":"-0.082402"},"context":"","outcome_status":null,"persistent_id":"","id":98977066,"location_subtype":"","month":"2022-01"},{"category":"anti-social-behaviour","location_type":"Force","location":{"latitude":"51.532071","street":{"id":964571,"name":"On or near Pitfield Street"},"longitude":"-0.083026"},"context":"","outcome_status":null,"persistent_id":"","id":98977070,"location_subtype":"","month":"2022-01"},{"category":"anti-social-behaviour","location_type":"Force","location":{"latitude":"51.525851","street":{"id":961740,"name":"On or near Birkbeck Street"},"longitude":"-0.055882"},"context":"","outcome_status":null,"persistent_id":"","id":98980735,"location_subtype":"","month":"2022-01"},{"category":"anti-social-behaviour","location_type":"Force","location":{"latitude":"51.537463","street":{"id":964204,"name":"On or near Whitmore Road"},"longitude":"-0.081732"},"context":"","outcome_status":null,"persistent_id":"","id":98977071,"location_subtype":"","month":"2022-01"},{"category":"anti-social-behaviour","location_type":"Force","location":{"latitude":"51.533331","street":{"id":964366,"name":"On or near Ivy Street"},"longitude":"-0.082021"},"context":"","outcome_status":null,"persistent_id":"","id":98977072,"location_subtype":"","month":"2022-01"},{"category":"anti-social-behaviour","location_type":"Force","location":{"latitude":"51.536066","street":{"id":964234,"name":"On or near Halcomb Street"},"longitude":"-0.080954"},"context":"","outcome_status":null,"persistent_id":"","id":98977073,"location_subtype":"","month":"2022-01"},{"category":"anti-social-behaviour","location_type":"Force","location":{"latitude":"51.536066","street":{"id":964234,"name":"On or near Halcomb Street"},"longitude":"-0.080954"},"context":"","outcome_status":null,"persistent_id":"","id":98977074,"location_subtype":"","month":"2022-01"},{"category":"anti-social-behaviour","location_type":"Force","location":{"latitude":"51.527190","street":{"id":961467,"name":"On or near Hoxton Market"},"longitude":"-0.082625"},"context":"","outcome_status":null,"persistent_id":"","id":98977075,"location_subtype":"","month":"2022-01"},{"category":"anti-social-behaviour","location_type":"Force","location":{"latitude":"51.529866","street":{"id":961514,"name":"On or near Aske Street"},"longitude":"-0.081302"},"context":"","outcome_status":null,"persistent_id":"","id":98977079,"location_subtype":"","month":"2022-01"},{"category":"anti-social-behaviour","location_type":"Force","location":{"latitude":"51.520510","street":{"id":587660,"name":"On or near Pindar Street"},"longitude":"-0.081580"},"context":"","outcome_status":null,"persistent_id":"","id":98977083,"location_subtype":"","month":"2022-01"},{"category":"anti-social-behaviour","location_type":"Force","location":{"latitude":"51.539236","street":{"id":964240,"name":"On or near Downham Road"},"longitude":"-0.081254"},"context":"","outcome_status":null,"persistent_id":"","id":98977084,"location_subtype":"","month":"2022-01"},{"category":"anti-social-behaviour","location_type":"Force","location":{"latitude":"51.529507","street":{"id":961482,"name":"On or near Fanshaw Street"},"longitude":"-0.081317"},"context":"","outcome_status":null,"persistent_id":"","id":98977085,"location_subtype":"","month":"2022-01"},{"category":"anti-social-behaviour","location_type":"Force","location":{"latitude":"51.535539","street":{"id":964211,"name":"On or near Phillipp Street"},"longitude":"-0.079520"},"context":"","outcome_status":null,"persistent_id":"","id":98977088,"location_subtype":"","month":"2022-01"},{"category":"anti-social-behaviour","location_type":"Force","location":{"latitude":"51.534505","street":{"id":964228,"name":"On or near Hoxton Street"},"longitude":"-0.080674"},"context":"","outcome_status":null,"persistent_id":"","id":98977089,"location_subtype":"","month":"2022-01"},{"category":"anti-social-behaviour","location_type":"Force","location":{"latitude":"51.524578","street":{"id":961474,"name":"On or near Great Eastern Street"},"longitude":"-0.080702"},"context":"","outcome_status":null,"persistent_id":"","id":98977090,"location_subtype":"","month":"2022-01"},{"category":"anti-social-behaviour","location_type":"Force","location":{"latitude":"51.527164","street":{"id":961523,"name":"On or near Nightclub"},"longitude":"-0.080478"},"context":"","outcome_status":null,"persistent_id":"","id":98977092,"location_subtype":"","month":"2022-01"},{"category":"anti-social-behaviour","location_type":"Force","location":{"latitude":"51.527164","street":{"id":961523,"name":"On or near Nightclub"},"longitude":"-0.080478"},"context":"","outcome_status":null,"persistent_id":"","id":98977093,"location_subtype":"","month":"2022-01"},{"category":"anti-social-behaviour","location_type":"Force","location":{"latitude":"51.535539","street":{"id":964211,"name":"On or near Phillipp Street"},"longitude":"-0.079520"},"context":"","outcome_status":null,"persistent_id":"","id":98977094,"location_subtype":"","month":"2022-01"},{"category":"anti-social-behaviour","location_type":"Force","location":{"latitude":"51.530974","street":{"id":961461,"name":"On or near Jerrold Street"},"longitude":"-0.078617"},"context":"","outcome_status":null,"persistent_id":"","id":98977096,"location_subtype":"","month":"2022-01"},{"category":"anti-social-behaviour","location_type":"Force","location":{"latitude":"51.532439","street":{"id":964355,"name":"On or near Tyssen Street"},"longitude":"-0.079708"},"context":"","outcome_status":null,"persistent_id":"","id":98977097,"location_subtype":"","month":"2022-01"},{"category":"anti-social-behaviour","location_type":"Force","location":{"latitude":"51.535996","street":{"id":964217,"name":"On or near Mill Row"},"longitude":"-0.078347"},"context":"","outcome_status":null,"persistent_id":"","id":98977098,"location_subtype":"","month":"2022-01"},{"category":"anti-social-behaviour","location_type":"Force","location":{"latitude":"51.532119","street":{"id":964356,"name":"On or near Stanway Street"},"longitude":"-0.078828"},"context":"","outcome_status":null,"persistent_id":"","id":98977099,"location_subtype":"","month":"2022-01"},{"category":"anti-social-behaviour","location_type":"Force","location":{"latitude":"51.539439","street":{"id":964205,"name":"On or near Watercress Place"},"longitude":"-0.078837"},"context":"","outcome_status":null,"persistent_id":"","id":98977100,"location_subtype":"","month":"2022-01"},{"category":"anti-social-behaviour","location_type":"Force","location":{"latitude":"51.534438","street":{"id":964213,"name":"On or near Nuttall Street"},"longitude":"-0.078745"},"context":"","outcome_status":null,"persistent_id":"","id":98977101,"location_subtype":"","month":"2022-01"},{"category":"anti-social-behaviour","location_type":"Force","location":{"latitude":"51.534438","street":{"id":964213,"name":"On or near Nuttall Street"},"longitude":"-0.078745"},"context":"","outcome_status":null,"persistent_id":"","id":98977102,"location_subtype":"","month":"2022-01"},{"category":"anti-social-behaviour","location_type":"Force","location":{"latitude":"51.534438","street":{"id":964213,"name":"On or near Nuttall Street"},"longitude":"-0.078745"},"context":"","outcome_status":null,"persistent_id":"","id":98977103,"location_subtype":"","month":"2022-01"},{"category":"anti-social-behaviour","location_type":"Force","location":{"latitude":"51.527996","street":{"id":961487,"name":"On or near Drysdale Street"},"longitude":"-0.079117"},"context":"","outcome_status":null,"persistent_id":"","id":98977105,"location_subtype":"","month":"2022-01"},{"category":"anti-social-behaviour","location_type":"Force","location":{"latitude":"51.529227","street":{"id":961510,"name":"On or near Basing Place"},"longitude":"-0.077969"},"context":"","outcome_status":null,"persistent_id":"","id":98977106,"location_subtype":"","month":"2022-01"},{"category":"anti-social-behaviour","location_type":"Force","location":{"latitude":"51.523738","street":{"id":961469,"name":"On or near Holywell Lane"},"longitude":"-0.078849"},"context":"","outcome_status":null,"persistent_id":"","id":98977109,"location_subtype":"","month":"2022-01"},{"category":"anti-social-behaviour","location_type":"Force","location":{"latitude":"51.530094","street":{"id":961439,"name":"On or near Redvers Street"},"longitude":"-0.077616"},"context":"","outcome_status":null,"persistent_id":"","id":98977114,"location_subtype":"","month":"2022-01"},{"category":"anti-social-behaviour","location_type":"Force","location":{"latitude":"51.535996","street":{"id":964217,"name":"On or near Mill Row"},"longitude":"-0.078347"},"context":"","outcome_status":null,"persistent_id":"","id":98977115,"location_subtype":"","month":"2022-01"},{"category":"anti-social-behaviour","location_type":"Force","location":{"latitude":"51.535996","street":{"id":964217,"name":"On or near Mill Row"},"longitude":"-0.078347"},"context":"","outcome_status":null,"persistent_id":"","id":98977116,"location_subtype":"","month":"2022-01"},{"category":"anti-social-behaviour","location_type":"Force","location":{"latitude":"51.525851","street":{"id":961740,"name":"On or near Birkbeck Street"},"longitude":"-0.055882"},"context":"","outcome_status":null,"persistent_id":"","id":98980737,"location_subtype":"","month":"2022-01"},{"category":"anti-social-behaviour","location_type":"Force","location":{"latitude":"51.524654","street":{"id":961524,"name":"On or near Supermarket"},"longitude":"-0.077643"},"context":"","outcome_status":null,"persistent_id":"","id":98977123,"location_subtype":"","month":"2022-01"},{"category":"anti-social-behaviour","location_type":"Force","location":{"latitude":"51.533359","street":{"id":964365,"name":"On or near Kingsland Road"},"longitude":"-0.077146"},"context":"","outcome_status":null,"persistent_id":"","id":98977129,"location_subtype":"","month":"2022-01"},{"category":"anti-social-behaviour","location_type":"Force","location":{"latitude":"51.514450","street":{"id":955781,"name":"On or near Bromehead Street"},"longitude":"-0.054926"},"context":"","outcome_status":null,"persistent_id":"","id":98980739,"location_subtype":"","month":"2022-01"},{"category":"anti-social-behaviour","location_type":"Force","location":{"latitude":"51.528597","street":{"id":961430,"name":"On or near Waterson Street"},"longitude":"-0.076814"},"context":"","outcome_status":null,"persistent_id":"","id":98977140,"location_subtype":"","month":"2022-01"},{"category":"anti-social-behaviour","location_type":"Force","location":{"latitude":"51.528597","street":{"id":961430,"name":"On or near Waterson Street"},"longitude":"-0.076814"},"context":"","outcome_status":null,"persistent_id":"","id":98977141,"location_subtype":"","month":"2022-01"},{"category":"anti-social-behaviour","location_type":"Force","location":{"latitude":"51.528597","street":{"id":961430,"name":"On or near Waterson Street"},"longitude":"-0.076814"},"context":"","outcome_status":null,"persistent_id":"","id":98977142,"location_subtype":"","month":"2022-01"},{"category":"anti-social-behaviour","location_type":"Force","location":{"latitude":"51.532656","street":{"id":964367,"name":"On or near Geffrye Street"},"longitude":"-0.075922"},"context":"","outcome_status":null,"persistent_id":"","id":98977144,"location_subtype":"","month":"2022-01"},{"category":"anti-social-behaviour","location_type":"Force","location":{"latitude":"51.527919","street":{"id":961511,"name":"On or near Bakers Rents"},"longitude":"-0.076064"},"context":"","outcome_status":null,"persistent_id":"","id":98977154,"location_subtype":"","month":"2022-01"},{"category":"anti-social-behaviour","location_type":"Force","location":{"latitude":"51.527919","street":{"id":961511,"name":"On or near Bakers Rents"},"longitude":"-0.076064"},"context":"","outcome_status":null,"persistent_id":"","id":98977155,"location_subtype":"","month":"2022-01"},{"category":"anti-social-behaviour","location_type":"Force","location":{"latitude":"51.529009","street":{"id":961517,"name":"On or near Nightclub"},"longitude":"-0.075628"},"context":"","outcome_status":null,"persistent_id":"","id":98977158,"location_subtype":"","month":"2022-01"},{"category":"anti-social-behaviour","location_type":"Force","location":{"latitude":"51.529531","street":{"id":961459,"name":"On or near Long Street"},"longitude":"-0.075664"},"context":"","outcome_status":null,"persistent_id":"","id":98977159,"location_subtype":"","month":"2022-01"},{"category":"anti-social-behaviour","location_type":"Force","location":{"latitude":"51.530618","street":{"id":961494,"name":"On or near Cremer Street"},"longitude":"-0.075575"},"context":"","outcome_status":null,"persistent_id":"","id":98977162,"location_subtype":"","month":"2022-01"},{"category":"anti-social-behaviour","location_type":"Force","location":{"latitude":"51.520984","street":{"id":961718,"name":"On or near Key Close"},"longitude":"-0.055743"},"context":"","outcome_status":null,"persistent_id":"","id":98980740,"location_subtype":"","month":"2022-01"},{"category":"anti-social-behaviour","location_type":"Force","location":{"latitude":"51.512668","street":{"id":955765,"name":"On or near James Voller Way"},"longitude":"-0.055895"},"context":"","outcome_status":null,"persistent_id":"","id":98980743,"location_subtype":"","month":"2022-01"},{"category":"anti-social-behaviour","location_type":"Force","location":{"latitude":"51.512668","street":{"id":955765,"name":"On or near James Voller Way"},"longitude":"-0.055895"},"context":"","outcome_status":null,"persistent_id":"","id":98980745,"location_subtype":"","month":"2022-01"},{"category":"anti-social-behaviour","location_type":"Force","location":{"latitude":"51.522276","street":{"id":961689,"name":"On or near Wyllen Close"},"longitude":"-0.054506"},"context":"","outcome_status":null,"persistent_id":"","id":98980746,"location_subtype":"","month":"2022-01"},{"category":"anti-social-behaviour","location_type":"Force","location":{"latitude":"51.522276","street":{"id":961689,"name":"On or near Wyllen Close"},"longitude":"-0.054506"},"context":"","outcome_status":null,"persistent_id":"","id":98980747,"location_subtype":"","month":"2022-01"},{"category":"anti-social-behaviour","location_type":"Force","location":{"latitude":"51.511489","street":{"id":955752,"name":"On or near Shadwell Gardens"},"longitude":"-0.055268"},"context":"","outcome_status":null,"persistent_id":"","id":98980749,"location_subtype":"","month":"2022-01"},{"category":"anti-social-behaviour","location_type":"Force","location":{"latitude":"51.530585","street":{"id":964161,"name":"On or near Mace Street"},"longitude":"-0.045847"},"context":"","outcome_status":null,"persistent_id":"","id":98980871,"location_subtype":"","month":"2022-01"},{"category":"anti-social-behaviour","location_type":"Force","location":{"latitude":"51.530585","street":{"id":964161,"name":"On or near Mace Street"},"longitude":"-0.045847"},"context":"","outcome_status":null,"persistent_id":"","id":98980870,"location_subtype":"","month":"2022-01"},{"category":"anti-social-behaviour","location_type":"Force","location":{"latitude":"51.523764","street":{"id":961661,"name":"On or near Carlton Square"},"longitude":"-0.046082"},"context":"","outcome_status":null,"persistent_id":"","id":98980869,"location_subtype":"","month":"2022-01"},{"category":"anti-social-behaviour","location_type":"Force","location":{"latitude":"51.522770","street":{"id":961644,"name":"On or near Frimley Way"},"longitude":"-0.046326"},"context":"","outcome_status":null,"persistent_id":"","id":98980868,"location_subtype":"","month":"2022-01"},{"category":"anti-social-behaviour","location_type":"Force","location":{"latitude":"51.508617","street":{"id":955536,"name":"On or near Supermarket"},"longitude":"-0.009550"},"context":"","outcome_status":null,"persistent_id":"","id":98968495,"location_subtype":"","month":"2022-01"},{"category":"anti-social-behaviour","location_type":"Force","location":{"latitude":"51.508617","street":{"id":955536,"name":"On or near Supermarket"},"longitude":"-0.009550"},"context":"","outcome_status":null,"persistent_id":"","id":98968496,"location_subtype":"","month":"2022-01"},{"category":"anti-social-behaviour","location_type":"Force","location":{"latitude":"51.498201","street":{"id":954346,"name":"On or near Roserton Street"},"longitude":"-0.009917"},"context":"","outcome_status":null,"persistent_id":"","id":98968497,"location_subtype":"","month":"2022-01"},{"category":"anti-social-behaviour","location_type":"Force","location":{"latitude":"51.493444","street":{"id":954314,"name":"On or near St James Mews"},"longitude":"-0.009419"},"context":"","outcome_status":null,"persistent_id":"","id":98968498,"location_subtype":"","month":"2022-01"},{"category":"anti-social-behaviour","location_type":"Force","location":{"latitude":"51.510876","street":{"id":955532,"name":"On or near Ashton Street"},"longitude":"-0.008587"},"context":"","outcome_status":null,"persistent_id":"","id":98968499,"location_subtype":"","month":"2022-01"},{"category":"anti-social-behaviour","location_type":"Force","location":{"latitude":"51.497592","street":{"id":954338,"name":"On or near Ovex Close"},"longitude":"-0.007956"},"context":"","outcome_status":null,"persistent_id":"","id":98968500,"location_subtype":"","month":"2022-01"},{"category":"anti-social-behaviour","location_type":"Force","location":{"latitude":"51.495860","street":{"id":954316,"name":"On or near Marshfield Street"},"longitude":"-0.010293"},"context":"","outcome_status":null,"persistent_id":"","id":98968501,"location_subtype":"","month":"2022-01"},{"category":"anti-social-behaviour","location_type":"Force","location":{"latitude":"51.502747","street":{"id":954339,"name":"On or near Managers Street"},"longitude":"-0.008077"},"context":"","outcome_status":null,"persistent_id":"","id":98968503,"location_subtype":"","month":"2022-01"},{"category":"anti-social-behaviour","location_type":"Force","location":{"latitude":"51.499027","street":{"id":954341,"name":"On or near Folly Wall"},"longitude":"-0.008253"},"context":"","outcome_status":null,"persistent_id":"","id":98968507,"location_subtype":"","month":"2022-01"},{"category":"anti-social-behaviour","location_type":"Force","location":{"latitude":"51.496789","street":{"id":954329,"name":"On or near New Union Close"},"longitude":"-0.007270"},"context":"","outcome_status":null,"persistent_id":"","id":98968508,"location_subtype":"","month":"2022-01"},{"category":"anti-social-behaviour","location_type":"Force","location":{"latitude":"51.496789","street":{"id":954329,"name":"On or near New Union Close"},"longitude":"-0.007270"},"context":"","outcome_status":null,"persistent_id":"","id":98968509,"location_subtype":"","month":"2022-01"},{"category":"anti-social-behaviour","location_type":"Force","location":{"latitude":"51.496789","street":{"id":954329,"name":"On or near New Union Close"},"longitude":"-0.007270"},"context":"","outcome_status":null,"persistent_id":"","id":98968510,"location_subtype":"","month":"2022-01"},{"category":"anti-social-behaviour","location_type":"Force","location":{"latitude":"51.496789","street":{"id":954329,"name":"On or near New Union Close"},"longitude":"-0.007270"},"context":"","outcome_status":null,"persistent_id":"","id":98968511,"location_subtype":"","month":"2022-01"},{"category":"anti-social-behaviour","location_type":"Force","location":{"latitude":"51.496789","street":{"id":954329,"name":"On or near New Union Close"},"longitude":"-0.007270"},"context":"","outcome_status":null,"persistent_id":"","id":98968512,"location_subtype":"","month":"2022-01"},{"category":"anti-social-behaviour","location_type":"Force","location":{"latitude":"51.496789","street":{"id":954329,"name":"On or near New Union Close"},"longitude":"-0.007270"},"context":"","outcome_status":null,"persistent_id":"","id":98968513,"location_subtype":"","month":"2022-01"},{"category":"anti-social-behaviour","location_type":"Force","location":{"latitude":"51.496789","street":{"id":954329,"name":"On or near New Union Close"},"longitude":"-0.007270"},"context":"","outcome_status":null,"persistent_id":"","id":98968514,"location_subtype":"","month":"2022-01"},{"category":"anti-social-behaviour","location_type":"Force","location":{"latitude":"51.505214","street":{"id":955552,"name":"On or near Yabsley Street"},"longitude":"-0.006643"},"context":"","outcome_status":null,"persistent_id":"","id":98968515,"location_subtype":"","month":"2022-01"},{"category":"anti-social-behaviour","location_type":"Force","location":{"latitude":"51.506406","street":{"id":955496,"name":"On or near Gaselee Street"},"longitude":"-0.006966"},"context":"","outcome_status":null,"persistent_id":"","id":98968516,"location_subtype":"","month":"2022-01"},{"category":"anti-social-behaviour","location_type":"Force","location":{"latitude":"51.490703","street":{"id":954391,"name":"On or near Kingfield Street"},"longitude":"-0.007392"},"context":"","outcome_status":null,"persistent_id":"","id":98968517,"location_subtype":"","month":"2022-01"},{"category":"anti-social-behaviour","location_type":"Force","location":{"latitude":"51.505214","street":{"id":955552,"name":"On or near Yabsley Street"},"longitude":"-0.006643"},"context":"","outcome_status":null,"persistent_id":"","id":98968518,"location_subtype":"","month":"2022-01"},{"category":"anti-social-behaviour","location_type":"Force","location":{"latitude":"51.505214","street":{"id":955552,"name":"On or near Yabsley Street"},"longitude":"-0.006643"},"context":"","outcome_status":null,"persistent_id":"","id":98968519,"location_subtype":"","month":"2022-01"},{"category":"anti-social-behaviour","location_type":"Force","location":{"latitude":"51.505214","street":{"id":955552,"name":"On or near Yabsley Street"},"longitude":"-0.006643"},"context":"","outcome_status":null,"persistent_id":"","id":98968520,"location_subtype":"","month":"2022-01"},{"category":"anti-social-behaviour","location_type":"Force","location":{"latitude":"51.505214","street":{"id":955552,"name":"On or near Yabsley Street"},"longitude":"-0.006643"},"context":"","outcome_status":null,"persistent_id":"","id":98968521,"location_subtype":"","month":"2022-01"},{"category":"anti-social-behaviour","location_type":"Force","location":{"latitude":"51.505214","street":{"id":955552,"name":"On or near Yabsley Street"},"longitude":"-0.006643"},"context":"","outcome_status":null,"persistent_id":"","id":98968522,"location_subtype":"","month":"2022-01"},{"category":"anti-social-behaviour","location_type":"Force","location":{"latitude":"51.505214","street":{"id":955552,"name":"On or near Yabsley Street"},"longitude":"-0.006643"},"context":"","outcome_status":null,"persistent_id":"","id":98968523,"location_subtype":"","month":"2022-01"},{"category":"anti-social-behaviour","location_type":"Force","location":{"latitude":"51.494648","street":{"id":954332,"name":"On or near Leerdam Drive"},"longitude":"-0.006715"},"context":"","outcome_status":null,"persistent_id":"","id":98968525,"location_subtype":"","month":"2022-01"},{"category":"anti-social-behaviour","location_type":"Force","location":{"latitude":"51.494648","street":{"id":954332,"name":"On or near Leerdam Drive"},"longitude":"-0.006715"},"context":"","outcome_status":null,"persistent_id":"","id":98968526,"location_subtype":"","month":"2022-01"},{"category":"anti-social-behaviour","location_type":"Force","location":{"latitude":"51.494648","street":{"id":954332,"name":"On or near Leerdam Drive"},"longitude":"-0.006715"},"context":"","outcome_status":null,"persistent_id":"","id":98968527,"location_subtype":"","month":"2022-01"},{"category":"anti-social-behaviour","location_type":"Force","location":{"latitude":"51.492547","street":{"id":954389,"name":"On or near Pier Street"},"longitude":"-0.007441"},"context":"","outcome_status":null,"persistent_id":"","id":98968528,"location_subtype":"","month":"2022-01"},{"category":"anti-social-behaviour","location_type":"Force","location":{"latitude":"51.492547","street":{"id":954389,"name":"On or near Pier Street"},"longitude":"-0.007441"},"context":"","outcome_status":null,"persistent_id":"","id":98968529,"location_subtype":"","month":"2022-01"},{"category":"anti-social-behaviour","location_type":"Force","location":{"latitude":"51.507807","street":{"id":955511,"name":"On or near A102"},"longitude":"-0.005262"},"context":"","outcome_status":null,"persistent_id":"","id":98968530,"location_subtype":"","month":"2022-01"},{"category":"anti-social-behaviour","location_type":"Force","location":{"latitude":"51.510240","street":{"id":955505,"name":"On or near Blackwall Tunnel Northern Approach"},"longitude":"-0.007159"},"context":"","outcome_status":null,"persistent_id":"","id":98968531,"location_subtype":"","month":"2022-01"},{"category":"anti-social-behaviour","location_type":"Force","location":{"latitude":"51.489704","street":{"id":948745,"name":"On or near Police Station"},"longitude":"-0.006254"},"context":"","outcome_status":null,"persistent_id":"","id":98968532,"location_subtype":"","month":"2022-01"},{"category":"anti-social-behaviour","location_type":"Force","location":{"latitude":"51.491036","street":{"id":954386,"name":"On or near Seyssel Street"},"longitude":"-0.006354"},"context":"","outcome_status":null,"persistent_id":"","id":98968534,"location_subtype":"","month":"2022-01"},{"category":"anti-social-behaviour","location_type":"Force","location":{"latitude":"51.491036","street":{"id":954386,"name":"On or near Seyssel Street"},"longitude":"-0.006354"},"context":"","outcome_status":null,"persistent_id":"","id":98968535,"location_subtype":"","month":"2022-01"},{"category":"anti-social-behaviour","location_type":"Force","location":{"latitude":"51.513633","street":{"id":955477,"name":"On or near Wooster Gardens"},"longitude":"-0.004676"},"context":"","outcome_status":null,"persistent_id":"","id":98968538,"location_subtype":"","month":"2022-01"},{"category":"anti-social-behaviour","location_type":"Force","location":{"latitude":"51.507584","street":{"id":955485,"name":"On or near Paul Julius Close"},"longitude":"-0.004292"},"context":"","outcome_status":null,"persistent_id":"","id":98968539,"location_subtype":"","month":"2022-01"},{"category":"anti-social-behaviour","location_type":"Force","location":{"latitude":"51.507584","street":{"id":955485,"name":"On or near Paul Julius Close"},"longitude":"-0.004292"},"context":"","outcome_status":null,"persistent_id":"","id":98968540,"location_subtype":"","month":"2022-01"},{"category":"anti-social-behaviour","location_type":"Force","location":{"latitude":"51.507584","street":{"id":955485,"name":"On or near Paul Julius Close"},"longitude":"-0.004292"},"context":"","outcome_status":null,"persistent_id":"","id":98968541,"location_subtype":"","month":"2022-01"},{"category":"anti-social-behaviour","location_type":"Force","location":{"latitude":"51.493563","street":{"id":954330,"name":"On or near Millennium Drive"},"longitude":"-0.004760"},"context":"","outcome_status":null,"persistent_id":"","id":98968542,"location_subtype":"","month":"2022-01"},{"category":"anti-social-behaviour","location_type":"Force","location":{"latitude":"51.493563","street":{"id":954330,"name":"On or near Millennium Drive"},"longitude":"-0.004760"},"context":"","outcome_status":null,"persistent_id":"","id":98968543,"location_subtype":"","month":"2022-01"},{"category":"anti-social-behaviour","location_type":"Force","location":{"latitude":"51.511091","street":{"id":955481,"name":"On or near Rosemary Drive"},"longitude":"-0.002697"},"context":"","outcome_status":null,"persistent_id":"","id":98968544,"location_subtype":"","month":"2022-01"},{"category":"anti-social-behaviour","location_type":"Force","location":{"latitude":"51.491840","street":{"id":954387,"name":"On or near Sextant Avenue"},"longitude":"-0.004432"},"context":"","outcome_status":null,"persistent_id":"","id":98968545,"location_subtype":"","month":"2022-01"},{"category":"anti-social-behaviour","location_type":"Force","location":{"latitude":"51.510361","street":{"id":955490,"name":"On or near Leamouth Road"},"longitude":"0.000556"},"context":"","outcome_status":null,"persistent_id":"","id":98968546,"location_subtype":"","month":"2022-01"},{"category":"anti-social-behaviour","location_type":"Force","location":{"latitude":"51.510361","street":{"id":955490,"name":"On or near Leamouth Road"},"longitude":"0.000556"},"context":"","outcome_status":null,"persistent_id":"","id":98968547,"location_subtype":"","month":"2022-01"},{"category":"anti-social-behaviour","location_type":"Force","location":{"latitude":"51.514655","street":{"id":955548,"name":"On or near Fortrose Close"},"longitude":"0.000283"},"context":"","outcome_status":null,"persistent_id":"","id":98968548,"location_subtype":"","month":"2022-01"},{"category":"anti-social-behaviour","location_type":"Force","location":{"latitude":"51.509297","street":{"id":955307,"name":"On or near Pilgrims Mews"},"longitude":"0.001259"},"context":"","outcome_status":null,"persistent_id":"","id":98968550,"location_subtype":"","month":"2022-01"},{"category":"anti-social-behaviour","location_type":"Force","location":{"latitude":"51.510361","street":{"id":955490,"name":"On or near Leamouth Road"},"longitude":"0.000556"},"context":"","outcome_status":null,"persistent_id":"","id":98968551,"location_subtype":"","month":"2022-01"},{"category":"anti-social-behaviour","location_type":"Force","location":{"latitude":"51.509608","street":{"id":955306,"name":"On or near Orchard Place"},"longitude":"0.005121"},"context":"","outcome_status":null,"persistent_id":"","id":98968552,"location_subtype":"","month":"2022-01"},{"category":"anti-social-behaviour","location_type":"Force","location":{"latitude":"51.522770","street":{"id":961644,"name":"On or near Frimley Way"},"longitude":"-0.046326"},"context":"","outcome_status":null,"persistent_id":"","id":98980867,"location_subtype":"","month":"2022-01"},{"category":"anti-social-behaviour","location_type":"Force","location":{"latitude":"51.513207","street":{"id":955853,"name":"On or near Commercial Road"},"longitude":"-0.046634"},"context":"","outcome_status":null,"persistent_id":"","id":98980866,"location_subtype":"","month":"2022-01"},{"category":"anti-social-behaviour","location_type":"Force","location":{"latitude":"51.513207","street":{"id":955853,"name":"On or near Commercial Road"},"longitude":"-0.046634"},"context":"","outcome_status":null,"persistent_id":"","id":98980865,"location_subtype":"","month":"2022-01"},{"category":"anti-social-behaviour","location_type":"Force","location":{"latitude":"51.513207","street":{"id":955853,"name":"On or near Commercial Road"},"longitude":"-0.046634"},"context":"","outcome_status":null,"persistent_id":"","id":98980863,"location_subtype":"","month":"2022-01"},{"category":"anti-social-behaviour","location_type":"Force","location":{"latitude":"51.525042","street":{"id":961605,"name":"On or near Portelet Road"},"longitude":"-0.046185"},"context":"","outcome_status":null,"persistent_id":"","id":98980862,"location_subtype":"","month":"2022-01"},{"category":"anti-social-behaviour","location_type":"Force","location":{"latitude":"51.527128","street":{"id":961590,"name":"On or near Walter Street"},"longitude":"-0.046168"},"context":"","outcome_status":null,"persistent_id":"","id":98980861,"location_subtype":"","month":"2022-01"},{"category":"anti-social-behaviour","location_type":"Force","location":{"latitude":"51.530585","street":{"id":964161,"name":"On or near Mace Street"},"longitude":"-0.045847"},"context":"","outcome_status":null,"persistent_id":"","id":98980860,"location_subtype":"","month":"2022-01"},{"category":"anti-social-behaviour","location_type":"Force","location":{"latitude":"51.530585","street":{"id":964161,"name":"On or near Mace Street"},"longitude":"-0.045847"},"context":"","outcome_status":null,"persistent_id":"","id":98980859,"location_subtype":"","month":"2022-01"},{"category":"anti-social-behaviour","location_type":"Force","location":{"latitude":"51.530585","street":{"id":964161,"name":"On or near Mace Street"},"longitude":"-0.045847"},"context":"","outcome_status":null,"persistent_id":"","id":98980858,"location_subtype":"","month":"2022-01"},{"category":"anti-social-behaviour","location_type":"Force","location":{"latitude":"51.528806","street":{"id":961591,"name":"On or near Usk Street"},"longitude":"-0.046500"},"context":"","outcome_status":null,"persistent_id":"","id":98980857,"location_subtype":"","month":"2022-01"},{"category":"anti-social-behaviour","location_type":"Force","location":{"latitude":"51.528806","street":{"id":961591,"name":"On or near Usk Street"},"longitude":"-0.046500"},"context":"","outcome_status":null,"persistent_id":"","id":98980856,"location_subtype":"","month":"2022-01"},{"category":"anti-social-behaviour","location_type":"Force","location":{"latitude":"51.510737","street":{"id":955844,"name":"On or near Glasshouse Fields"},"longitude":"-0.046855"},"context":"","outcome_status":null,"persistent_id":"","id":98980855,"location_subtype":"","month":"2022-01"},{"category":"anti-social-behaviour","location_type":"Force","location":{"latitude":"51.530585","street":{"id":964161,"name":"On or near Mace Street"},"longitude":"-0.045847"},"context":"","outcome_status":null,"persistent_id":"","id":98980854,"location_subtype":"","month":"2022-01"},{"category":"anti-social-behaviour","location_type":"Force","location":{"latitude":"51.530585","street":{"id":964161,"name":"On or near Mace Street"},"longitude":"-0.045847"},"context":"","outcome_status":null,"persistent_id":"","id":98980853,"location_subtype":"","month":"2022-01"},{"category":"anti-social-behaviour","location_type":"Force","location":{"latitude":"51.530585","street":{"id":964161,"name":"On or near Mace Street"},"longitude":"-0.045847"},"context":"","outcome_status":null,"persistent_id":"","id":98980852,"location_subtype":"","month":"2022-01"},{"category":"anti-social-behaviour","location_type":"Force","location":{"latitude":"51.530585","street":{"id":964161,"name":"On or near Mace Street"},"longitude":"-0.045847"},"context":"","outcome_status":null,"persistent_id":"","id":98980851,"location_subtype":"","month":"2022-01"},{"category":"anti-social-behaviour","location_type":"Force","location":{"latitude":"51.530585","street":{"id":964161,"name":"On or near Mace Street"},"longitude":"-0.045847"},"context":"","outcome_status":null,"persistent_id":"","id":98980850,"location_subtype":"","month":"2022-01"},{"category":"anti-social-behaviour","location_type":"Force","location":{"latitude":"51.530585","street":{"id":964161,"name":"On or near Mace Street"},"longitude":"-0.045847"},"context":"","outcome_status":null,"persistent_id":"","id":98980849,"location_subtype":"","month":"2022-01"},{"category":"anti-social-behaviour","location_type":"Force","location":{"latitude":"51.510605","street":{"id":955860,"name":"On or near Brodlove Lane"},"longitude":"-0.047567"},"context":"","outcome_status":null,"persistent_id":"","id":98980847,"location_subtype":"","month":"2022-01"},{"category":"anti-social-behaviour","location_type":"Force","location":{"latitude":"51.524510","street":{"id":961619,"name":"On or near Massingham Street"},"longitude":"-0.047174"},"context":"","outcome_status":null,"persistent_id":"","id":98980846,"location_subtype":"","month":"2022-01"},{"category":"anti-social-behaviour","location_type":"Force","location":{"latitude":"51.528806","street":{"id":961591,"name":"On or near Usk Street"},"longitude":"-0.046500"},"context":"","outcome_status":null,"persistent_id":"","id":98980845,"location_subtype":"","month":"2022-01"},{"category":"anti-social-behaviour","location_type":"Force","location":{"latitude":"51.516343","street":{"id":955874,"name":"On or near Wellesley Street"},"longitude":"-0.047610"},"context":"","outcome_status":null,"persistent_id":"","id":98980844,"location_subtype":"","month":"2022-01"},{"category":"anti-social-behaviour","location_type":"Force","location":{"latitude":"51.524510","street":{"id":961619,"name":"On or near Massingham Street"},"longitude":"-0.047174"},"context":"","outcome_status":null,"persistent_id":"","id":98980843,"location_subtype":"","month":"2022-01"},{"category":"anti-social-behaviour","location_type":"Force","location":{"latitude":"51.524510","street":{"id":961619,"name":"On or near Massingham Street"},"longitude":"-0.047174"},"context":"","outcome_status":null,"persistent_id":"","id":98980842,"location_subtype":"","month":"2022-01"},{"category":"anti-social-behaviour","location_type":"Force","location":{"latitude":"51.514666","street":{"id":955855,"name":"On or near Clearbrook Way"},"longitude":"-0.048950"},"context":"","outcome_status":null,"persistent_id":"","id":98980841,"location_subtype":"","month":"2022-01"},{"category":"anti-social-behaviour","location_type":"Force","location":{"latitude":"51.514666","street":{"id":955855,"name":"On or near Clearbrook Way"},"longitude":"-0.048950"},"context":"","outcome_status":null,"persistent_id":"","id":98980840,"location_subtype":"","month":"2022-01"},{"category":"anti-social-behaviour","location_type":"Force","location":{"latitude":"51.514666","street":{"id":955855,"name":"On or near Clearbrook Way"},"longitude":"-0.048950"},"context":"","outcome_status":null,"persistent_id":"","id":98980839,"location_subtype":"","month":"2022-01"},{"category":"anti-social-behaviour","location_type":"Force","location":{"latitude":"51.514666","street":{"id":955855,"name":"On or near Clearbrook Way"},"longitude":"-0.048950"},"context":"","outcome_status":null,"persistent_id":"","id":98980837,"location_subtype":"","month":"2022-01"},{"category":"anti-social-behaviour","location_type":"Force","location":{"latitude":"51.514666","street":{"id":955855,"name":"On or near Clearbrook Way"},"longitude":"-0.048950"},"context":"","outcome_status":null,"persistent_id":"","id":98980836,"location_subtype":"","month":"2022-01"},{"category":"anti-social-behaviour","location_type":"Force","location":{"latitude":"51.514666","street":{"id":955855,"name":"On or near Clearbrook Way"},"longitude":"-0.048950"},"context":"","outcome_status":null,"persistent_id":"","id":98980835,"location_subtype":"","month":"2022-01"},{"category":"anti-social-behaviour","location_type":"Force","location":{"latitude":"51.514666","street":{"id":955855,"name":"On or near Clearbrook Way"},"longitude":"-0.048950"},"context":"","outcome_status":null,"persistent_id":"","id":98980834,"location_subtype":"","month":"2022-01"},{"category":"anti-social-behaviour","location_type":"Force","location":{"latitude":"51.514666","street":{"id":955855,"name":"On or near Clearbrook Way"},"longitude":"-0.048950"},"context":"","outcome_status":null,"persistent_id":"","id":98980833,"location_subtype":"","month":"2022-01"},{"category":"anti-social-behaviour","location_type":"Force","location":{"latitude":"51.514666","street":{"id":955855,"name":"On or near Clearbrook Way"},"longitude":"-0.048950"},"context":"","outcome_status":null,"persistent_id":"","id":98980838,"location_subtype":"","month":"2022-01"},{"category":"anti-social-behaviour","location_type":"Force","location":{"latitude":"51.505982","street":{"id":955373,"name":"On or near Conference\/exhibition Centre"},"longitude":"0.015755"},"context":"","outcome_status":null,"persistent_id":"","id":98973068,"location_subtype":"","month":"2022-01"},{"category":"anti-social-behaviour","location_type":"Force","location":{"latitude":"51.509932","street":{"id":955368,"name":"On or near Bray Drive"},"longitude":"0.015641"},"context":"","outcome_status":null,"persistent_id":"","id":98973066,"location_subtype":"","month":"2022-01"},{"category":"anti-social-behaviour","location_type":"Force","location":{"latitude":"51.509932","street":{"id":955368,"name":"On or near Bray Drive"},"longitude":"0.015641"},"context":"","outcome_status":null,"persistent_id":"","id":98973065,"location_subtype":"","month":"2022-01"},{"category":"anti-social-behaviour","location_type":"Force","location":{"latitude":"51.509932","street":{"id":955368,"name":"On or near Bray Drive"},"longitude":"0.015641"},"context":"","outcome_status":null,"persistent_id":"","id":98973064,"location_subtype":"","month":"2022-01"},{"category":"anti-social-behaviour","location_type":"Force","location":{"latitude":"51.516660","street":{"id":962188,"name":"On or near Bothwell Close"},"longitude":"0.016053"},"context":"","outcome_status":null,"persistent_id":"","id":98973063,"location_subtype":"","month":"2022-01"},{"category":"anti-social-behaviour","location_type":"Force","location":{"latitude":"51.535557","street":{"id":963692,"name":"On or near West Road"},"longitude":"0.016354"},"context":"","outcome_status":null,"persistent_id":"","id":98973062,"location_subtype":"","month":"2022-01"},{"category":"anti-social-behaviour","location_type":"Force","location":{"latitude":"51.535557","street":{"id":963692,"name":"On or near West Road"},"longitude":"0.016354"},"context":"","outcome_status":null,"persistent_id":"","id":98973061,"location_subtype":"","month":"2022-01"},{"category":"anti-social-behaviour","location_type":"Force","location":{"latitude":"51.517386","street":{"id":962191,"name":"On or near Beckton Road"},"longitude":"0.015163"},"context":"","outcome_status":null,"persistent_id":"","id":98973060,"location_subtype":"","month":"2022-01"},{"category":"anti-social-behaviour","location_type":"Force","location":{"latitude":"51.515354","street":{"id":955394,"name":"On or near Formunt Close"},"longitude":"0.015116"},"context":"","outcome_status":null,"persistent_id":"","id":98973051,"location_subtype":"","month":"2022-01"},{"category":"anti-social-behaviour","location_type":"Force","location":{"latitude":"51.535435","street":{"id":963802,"name":"On or near Wise Road"},"longitude":"-0.004357"},"context":"","outcome_status":null,"persistent_id":"","id":98972483,"location_subtype":"","month":"2022-01"},{"category":"anti-social-behaviour","location_type":"Force","location":{"latitude":"51.533489","street":{"id":964089,"name":"On or near Waterloo Gardens"},"longitude":"-0.052283"},"context":"","outcome_status":null,"persistent_id":"","id":98980766,"location_subtype":"","month":"2022-01"},{"category":"anti-social-behaviour","location_type":"Force","location":{"latitude":"51.521517","street":{"id":961699,"name":"On or near Vawdrey Close"},"longitude":"-0.053731"},"context":"","outcome_status":null,"persistent_id":"","id":98980759,"location_subtype":"","month":"2022-01"},{"category":"anti-social-behaviour","location_type":"Force","location":{"latitude":"51.526294","street":{"id":961652,"name":"On or near Cornwall Avenue"},"longitude":"-0.052807"},"context":"","outcome_status":null,"persistent_id":"","id":98980760,"location_subtype":"","month":"2022-01"},{"category":"anti-social-behaviour","location_type":"Force","location":{"latitude":"51.530453","street":{"id":961710,"name":"On or near Peel Grove"},"longitude":"-0.054143"},"context":"","outcome_status":null,"persistent_id":"","id":98980761,"location_subtype":"","month":"2022-01"},{"category":"anti-social-behaviour","location_type":"Force","location":{"latitude":"51.523809","street":{"id":961621,"name":"On or near Malcolm Road"},"longitude":"-0.053158"},"context":"","outcome_status":null,"persistent_id":"","id":98980763,"location_subtype":"","month":"2022-01"},{"category":"anti-social-behaviour","location_type":"Force","location":{"latitude":"51.523809","street":{"id":961621,"name":"On or near Malcolm Road"},"longitude":"-0.053158"},"context":"","outcome_status":null,"persistent_id":"","id":98980764,"location_subtype":"","month":"2022-01"},{"category":"anti-social-behaviour","location_type":"Force","location":{"latitude":"51.514715","street":{"id":955737,"name":"On or near Parking Area"},"longitude":"-0.054064"},"context":"","outcome_status":null,"persistent_id":"","id":98980765,"location_subtype":"","month":"2022-01"},{"category":"anti-social-behaviour","location_type":"Force","location":{"latitude":"51.526294","street":{"id":961652,"name":"On or near Cornwall Avenue"},"longitude":"-0.052807"},"context":"","outcome_status":null,"persistent_id":"","id":98980777,"location_subtype":"","month":"2022-01"},{"category":"anti-social-behaviour","location_type":"Force","location":{"latitude":"51.529562","street":{"id":961612,"name":"On or near Moravian Street"},"longitude":"-0.051889"},"context":"","outcome_status":null,"persistent_id":"","id":98980769,"location_subtype":"","month":"2022-01"},{"category":"anti-social-behaviour","location_type":"Force","location":{"latitude":"51.516784","street":{"id":955878,"name":"On or near Jubilee Street"},"longitude":"-0.053039"},"context":"","outcome_status":null,"persistent_id":"","id":98980771,"location_subtype":"","month":"2022-01"},{"category":"anti-social-behaviour","location_type":"Force","location":{"latitude":"51.531674","street":{"id":964158,"name":"On or near Robinson Road"},"longitude":"-0.052404"},"context":"","outcome_status":null,"persistent_id":"","id":98980772,"location_subtype":"","month":"2022-01"},{"category":"anti-social-behaviour","location_type":"Force","location":{"latitude":"51.533489","street":{"id":964089,"name":"On or near Waterloo Gardens"},"longitude":"-0.052283"},"context":"","outcome_status":null,"persistent_id":"","id":98980774,"location_subtype":"","month":"2022-01"},{"category":"anti-social-behaviour","location_type":"Force","location":{"latitude":"51.518536","street":{"id":961777,"name":"On or near Smithy Street"},"longitude":"-0.051321"},"context":"","outcome_status":null,"persistent_id":"","id":98980775,"location_subtype":"","month":"2022-01"},{"category":"anti-social-behaviour","location_type":"Force","location":{"latitude":"51.524138","street":{"id":961625,"name":"On or near Lang Street"},"longitude":"-0.052351"},"context":"","outcome_status":null,"persistent_id":"","id":98980780,"location_subtype":"","month":"2022-01"},{"category":"anti-social-behaviour","location_type":"Force","location":{"latitude":"51.527965","street":{"id":961640,"name":"On or near Globe Road"},"longitude":"-0.051049"},"context":"","outcome_status":null,"persistent_id":"","id":98980781,"location_subtype":"","month":"2022-01"},{"category":"anti-social-behaviour","location_type":"Force","location":{"latitude":"51.524779","street":{"id":962065,"name":"On or near Elim Way"},"longitude":"0.015071"},"context":"","outcome_status":null,"persistent_id":"","id":98973050,"location_subtype":"","month":"2022-01"},{"category":"anti-social-behaviour","location_type":"Force","location":{"latitude":"51.532073","street":{"id":964164,"name":"On or near Bonner Road"},"longitude":"-0.050988"},"context":"","outcome_status":null,"persistent_id":"","id":98980787,"location_subtype":"","month":"2022-01"},{"category":"anti-social-behaviour","location_type":"Force","location":{"latitude":"51.517198","street":{"id":955879,"name":"On or near Jamaica Street"},"longitude":"-0.049807"},"context":"","outcome_status":null,"persistent_id":"","id":98980799,"location_subtype":"","month":"2022-01"},{"category":"anti-social-behaviour","location_type":"Force","location":{"latitude":"51.523782","street":{"id":923578,"name":"On or near Amiel Street"},"longitude":"-0.050968"},"context":"","outcome_status":null,"persistent_id":"","id":98980791,"location_subtype":"","month":"2022-01"},{"category":"anti-social-behaviour","location_type":"Force","location":{"latitude":"51.529641","street":{"id":961665,"name":"On or near Brierly Gardens"},"longitude":"-0.050184"},"context":"","outcome_status":null,"persistent_id":"","id":98980796,"location_subtype":"","month":"2022-01"},{"category":"anti-social-behaviour","location_type":"Force","location":{"latitude":"51.532184","street":{"id":964173,"name":"On or near Hospital"},"longitude":"-0.049499"},"context":"","outcome_status":null,"persistent_id":"","id":98980797,"location_subtype":"","month":"2022-01"},{"category":"anti-social-behaviour","location_type":"Force","location":{"latitude":"51.517198","street":{"id":955879,"name":"On or near Jamaica Street"},"longitude":"-0.049807"},"context":"","outcome_status":null,"persistent_id":"","id":98980804,"location_subtype":"","month":"2022-01"},{"category":"anti-social-behaviour","location_type":"Force","location":{"latitude":"51.517198","street":{"id":955879,"name":"On or near Jamaica Street"},"longitude":"-0.049807"},"context":"","outcome_status":null,"persistent_id":"","id":98980805,"location_subtype":"","month":"2022-01"},{"category":"anti-social-behaviour","location_type":"Force","location":{"latitude":"51.517198","street":{"id":955879,"name":"On or near Jamaica Street"},"longitude":"-0.049807"},"context":"","outcome_status":null,"persistent_id":"","id":98980806,"location_subtype":"","month":"2022-01"},{"category":"anti-social-behaviour","location_type":"Force","location":{"latitude":"51.517593","street":{"id":961785,"name":"On or near Jamaica Street"},"longitude":"-0.049762"},"context":"","outcome_status":null,"persistent_id":"","id":98980823,"location_subtype":"","month":"2022-01"},{"category":"anti-social-behaviour","location_type":"Force","location":{"latitude":"51.517593","street":{"id":961785,"name":"On or near Jamaica Street"},"longitude":"-0.049762"},"context":"","outcome_status":null,"persistent_id":"","id":98980825,"location_subtype":"","month":"2022-01"},{"category":"anti-social-behaviour","location_type":"Force","location":{"latitude":"51.522048","street":{"id":961679,"name":"On or near Shopping Area"},"longitude":"-0.050004"},"context":"","outcome_status":null,"persistent_id":"","id":98980814,"location_subtype":"","month":"2022-01"},{"category":"anti-social-behaviour","location_type":"Force","location":{"latitude":"51.522656","street":{"id":961660,"name":"On or near Cephas Avenue"},"longitude":"-0.049243"},"context":"","outcome_status":null,"persistent_id":"","id":98980827,"location_subtype":"","month":"2022-01"},{"category":"anti-social-behaviour","location_type":"Force","location":{"latitude":"51.513005","street":{"id":955821,"name":"On or near Ronald Street"},"longitude":"-0.049107"},"context":"","outcome_status":null,"persistent_id":"","id":98980828,"location_subtype":"","month":"2022-01"},{"category":"anti-social-behaviour","location_type":"Force","location":{"latitude":"51.515091","street":{"id":955813,"name":"On or near West Arbour Street"},"longitude":"-0.048586"},"context":"","outcome_status":null,"persistent_id":"","id":98980830,"location_subtype":"","month":"2022-01"},{"category":"anti-social-behaviour","location_type":"Force","location":{"latitude":"51.524511","street":{"id":961641,"name":"On or near Gibson Close"},"longitude":"-0.049913"},"context":"","outcome_status":null,"persistent_id":"","id":98980817,"location_subtype":"","month":"2022-01"},{"category":"anti-social-behaviour","location_type":"Force","location":{"latitude":"51.525110","street":{"id":961602,"name":"On or near Rickman Street"},"longitude":"-0.049700"},"context":"","outcome_status":null,"persistent_id":"","id":98980818,"location_subtype":"","month":"2022-01"},{"category":"anti-social-behaviour","location_type":"Force","location":{"latitude":"51.517593","street":{"id":961785,"name":"On or near Jamaica Street"},"longitude":"-0.049762"},"context":"","outcome_status":null,"persistent_id":"","id":98980819,"location_subtype":"","month":"2022-01"},{"category":"anti-social-behaviour","location_type":"Force","location":{"latitude":"51.517593","street":{"id":961785,"name":"On or near Jamaica Street"},"longitude":"-0.049762"},"context":"","outcome_status":null,"persistent_id":"","id":98980820,"location_subtype":"","month":"2022-01"},{"category":"anti-social-behaviour","location_type":"Force","location":{"latitude":"51.517593","street":{"id":961785,"name":"On or near Jamaica Street"},"longitude":"-0.049762"},"context":"","outcome_status":null,"persistent_id":"","id":98980821,"location_subtype":"","month":"2022-01"},{"category":"anti-social-behaviour","location_type":"Force","location":{"latitude":"51.508870","street":{"id":955343,"name":"On or near Silvertown Way"},"longitude":"0.013576"},"context":"","outcome_status":null,"persistent_id":"","id":98973049,"location_subtype":"","month":"2022-01"},{"category":"anti-social-behaviour","location_type":"Force","location":{"latitude":"51.508870","street":{"id":955343,"name":"On or near Silvertown Way"},"longitude":"0.013576"},"context":"","outcome_status":null,"persistent_id":"","id":98973048,"location_subtype":"","month":"2022-01"},{"category":"anti-social-behaviour","location_type":"Force","location":{"latitude":"51.532699","street":{"id":963719,"name":"On or near Maud Gardens"},"longitude":"0.015767"},"context":"","outcome_status":null,"persistent_id":"","id":98973047,"location_subtype":"","month":"2022-01"},{"category":"anti-social-behaviour","location_type":"Force","location":{"latitude":"51.507108","street":{"id":955365,"name":"On or near Dock Road"},"longitude":"0.014046"},"context":"","outcome_status":null,"persistent_id":"","id":98973045,"location_subtype":"","month":"2022-01"},{"category":"anti-social-behaviour","location_type":"Force","location":{"latitude":"51.507108","street":{"id":955365,"name":"On or near Dock Road"},"longitude":"0.014046"},"context":"","outcome_status":null,"persistent_id":"","id":98973044,"location_subtype":"","month":"2022-01"},{"category":"anti-social-behaviour","location_type":"Force","location":{"latitude":"51.507108","street":{"id":955365,"name":"On or near Dock Road"},"longitude":"0.014046"},"context":"","outcome_status":null,"persistent_id":"","id":98973043,"location_subtype":"","month":"2022-01"},{"category":"anti-social-behaviour","location_type":"Force","location":{"latitude":"51.507108","street":{"id":955365,"name":"On or near Dock Road"},"longitude":"0.014046"},"context":"","outcome_status":null,"persistent_id":"","id":98973042,"location_subtype":"","month":"2022-01"},{"category":"anti-social-behaviour","location_type":"Force","location":{"latitude":"51.507108","street":{"id":955365,"name":"On or near Dock Road"},"longitude":"0.014046"},"context":"","outcome_status":null,"persistent_id":"","id":98973041,"location_subtype":"","month":"2022-01"},{"category":"anti-social-behaviour","location_type":"Force","location":{"latitude":"51.523837","street":{"id":961729,"name":"On or near Cudworth Street"},"longitude":"-0.057020"},"context":"","outcome_status":null,"persistent_id":"","id":98980697,"location_subtype":"","month":"2022-01"},{"category":"anti-social-behaviour","location_type":"Force","location":{"latitude":"51.532272","street":{"id":964190,"name":"On or near Parmiter Street"},"longitude":"-0.055363"},"context":"","outcome_status":null,"persistent_id":"","id":98980719,"location_subtype":"","month":"2022-01"},{"category":"anti-social-behaviour","location_type":"Force","location":{"latitude":"51.529238","street":{"id":961744,"name":"On or near Petrol Station"},"longitude":"-0.056228"},"context":"","outcome_status":null,"persistent_id":"","id":98980712,"location_subtype":"","month":"2022-01"},{"category":"anti-social-behaviour","location_type":"Force","location":{"latitude":"51.533785","street":{"id":964035,"name":"On or near Mowlem Street"},"longitude":"-0.055486"},"context":"","outcome_status":null,"persistent_id":"","id":98980715,"location_subtype":"","month":"2022-01"},{"category":"anti-social-behaviour","location_type":"Force","location":{"latitude":"51.522276","street":{"id":961689,"name":"On or near Wyllen Close"},"longitude":"-0.054506"},"context":"","outcome_status":null,"persistent_id":"","id":98980722,"location_subtype":"","month":"2022-01"},{"category":"anti-social-behaviour","location_type":"Force","location":{"latitude":"51.522276","street":{"id":961689,"name":"On or near Wyllen Close"},"longitude":"-0.054506"},"context":"","outcome_status":null,"persistent_id":"","id":98980723,"location_subtype":"","month":"2022-01"},{"category":"anti-social-behaviour","location_type":"Force","location":{"latitude":"51.534686","street":{"id":964018,"name":"On or near Vyner Street"},"longitude":"-0.055073"},"context":"","outcome_status":null,"persistent_id":"","id":98980725,"location_subtype":"","month":"2022-01"},{"category":"anti-social-behaviour","location_type":"Force","location":{"latitude":"51.534686","street":{"id":964018,"name":"On or near Vyner Street"},"longitude":"-0.055073"},"context":"","outcome_status":null,"persistent_id":"","id":98980728,"location_subtype":"","month":"2022-01"},{"category":"anti-social-behaviour","location_type":"Force","location":{"latitude":"51.534686","street":{"id":964018,"name":"On or near Vyner Street"},"longitude":"-0.055073"},"context":"","outcome_status":null,"persistent_id":"","id":98980729,"location_subtype":"","month":"2022-01"},{"category":"anti-social-behaviour","location_type":"Force","location":{"latitude":"51.525851","street":{"id":961740,"name":"On or near Birkbeck Street"},"longitude":"-0.055882"},"context":"","outcome_status":null,"persistent_id":"","id":98980731,"location_subtype":"","month":"2022-01"},{"category":"anti-social-behaviour","location_type":"Force","location":{"latitude":"51.525851","street":{"id":961740,"name":"On or near Birkbeck Street"},"longitude":"-0.055882"},"context":"","outcome_status":null,"persistent_id":"","id":98980732,"location_subtype":"","month":"2022-01"},{"category":"anti-social-behaviour","location_type":"Force","location":{"latitude":"51.525851","street":{"id":961740,"name":"On or near Birkbeck Street"},"longitude":"-0.055882"},"context":"","outcome_status":null,"persistent_id":"","id":98980733,"location_subtype":"","month":"2022-01"},{"category":"anti-social-behaviour","location_type":"Force","location":{"latitude":"51.525851","street":{"id":961740,"name":"On or near Birkbeck Street"},"longitude":"-0.055882"},"context":"","outcome_status":null,"persistent_id":"","id":98980734,"location_subtype":"","month":"2022-01"},{"category":"anti-social-behaviour","location_type":"Force","location":{"latitude":"51.525851","street":{"id":961740,"name":"On or near Birkbeck Street"},"longitude":"-0.055882"},"context":"","outcome_status":null,"persistent_id":"","id":98980738,"location_subtype":"","month":"2022-01"},{"category":"anti-social-behaviour","location_type":"Force","location":{"latitude":"51.532272","street":{"id":964190,"name":"On or near Parmiter Street"},"longitude":"-0.055363"},"context":"","outcome_status":null,"persistent_id":"","id":98980741,"location_subtype":"","month":"2022-01"},{"category":"anti-social-behaviour","location_type":"Force","location":{"latitude":"51.510154","street":{"id":955750,"name":"On or near Solander Gardens"},"longitude":"-0.055599"},"context":"","outcome_status":null,"persistent_id":"","id":98980742,"location_subtype":"","month":"2022-01"},{"category":"anti-social-behaviour","location_type":"Force","location":{"latitude":"51.512668","street":{"id":955765,"name":"On or near James Voller Way"},"longitude":"-0.055895"},"context":"","outcome_status":null,"persistent_id":"","id":98980744,"location_subtype":"","month":"2022-01"},{"category":"anti-social-behaviour","location_type":"Force","location":{"latitude":"51.511489","street":{"id":955752,"name":"On or near Shadwell Gardens"},"longitude":"-0.055268"},"context":"","outcome_status":null,"persistent_id":"","id":98980748,"location_subtype":"","month":"2022-01"},{"category":"anti-social-behaviour","location_type":"Force","location":{"latitude":"51.512962","street":{"id":955746,"name":"On or near Tarling Street"},"longitude":"-0.055177"},"context":"","outcome_status":null,"persistent_id":"","id":98980753,"location_subtype":"","month":"2022-01"},{"category":"anti-social-behaviour","location_type":"Force","location":{"latitude":"51.512962","street":{"id":955746,"name":"On or near Tarling Street"},"longitude":"-0.055177"},"context":"","outcome_status":null,"persistent_id":"","id":98980754,"location_subtype":"","month":"2022-01"},{"category":"anti-social-behaviour","location_type":"Force","location":{"latitude":"51.519469","street":{"id":961766,"name":"On or near Adelina Grove"},"longitude":"-0.054438"},"context":"","outcome_status":null,"persistent_id":"","id":98980758,"location_subtype":"","month":"2022-01"},{"category":"anti-social-behaviour","location_type":"Force","location":{"latitude":"51.535129","street":{"id":963751,"name":"On or near Caistor Park Road"},"longitude":"0.015096"},"context":"","outcome_status":null,"persistent_id":"","id":98973039,"location_subtype":"","month":"2022-01"},{"category":"anti-social-behaviour","location_type":"Force","location":{"latitude":"51.535306","street":{"id":963740,"name":"On or near Geere Road"},"longitude":"0.014224"},"context":"","outcome_status":null,"persistent_id":"","id":98973036,"location_subtype":"","month":"2022-01"},{"category":"anti-social-behaviour","location_type":"Force","location":{"latitude":"51.535306","street":{"id":963740,"name":"On or near Geere Road"},"longitude":"0.014224"},"context":"","outcome_status":null,"persistent_id":"","id":98973035,"location_subtype":"","month":"2022-01"},{"category":"anti-social-behaviour","location_type":"Force","location":{"latitude":"51.535306","street":{"id":963740,"name":"On or near Geere Road"},"longitude":"0.014224"},"context":"","outcome_status":null,"persistent_id":"","id":98973034,"location_subtype":"","month":"2022-01"},{"category":"anti-social-behaviour","location_type":"Force","location":{"latitude":"51.535306","street":{"id":963740,"name":"On or near Geere Road"},"longitude":"0.014224"},"context":"","outcome_status":null,"persistent_id":"","id":98973033,"location_subtype":"","month":"2022-01"},{"category":"anti-social-behaviour","location_type":"Force","location":{"latitude":"51.535306","street":{"id":963740,"name":"On or near Geere Road"},"longitude":"0.014224"},"context":"","outcome_status":null,"persistent_id":"","id":98973032,"location_subtype":"","month":"2022-01"},{"category":"anti-social-behaviour","location_type":"Force","location":{"latitude":"51.517666","street":{"id":962194,"name":"On or near Supermarket"},"longitude":"0.012998"},"context":"","outcome_status":null,"persistent_id":"","id":98973031,"location_subtype":"","month":"2022-01"},{"category":"anti-social-behaviour","location_type":"Force","location":{"latitude":"51.517666","street":{"id":962194,"name":"On or near Supermarket"},"longitude":"0.012998"},"context":"","outcome_status":null,"persistent_id":"","id":98973030,"location_subtype":"","month":"2022-01"},{"category":"anti-social-behaviour","location_type":"Force","location":{"latitude":"51.531916","street":{"id":963785,"name":"On or near Morley Road"},"longitude":"0.013685"},"context":"","outcome_status":null,"persistent_id":"","id":98973029,"location_subtype":"","month":"2022-01"},{"category":"anti-social-behaviour","location_type":"Force","location":{"latitude":"51.524241","street":{"id":962087,"name":"On or near Sports\/recreation Area"},"longitude":"0.013447"},"context":"","outcome_status":null,"persistent_id":"","id":98973028,"location_subtype":"","month":"2022-01"},{"category":"anti-social-behaviour","location_type":"Force","location":{"latitude":"51.524241","street":{"id":962087,"name":"On or near Sports\/recreation Area"},"longitude":"0.013447"},"context":"","outcome_status":null,"persistent_id":"","id":98973027,"location_subtype":"","month":"2022-01"},{"category":"anti-social-behaviour","location_type":"Force","location":{"latitude":"51.512426","street":{"id":955339,"name":"On or near Turner Street"},"longitude":"0.012825"},"context":"","outcome_status":null,"persistent_id":"","id":98973024,"location_subtype":"","month":"2022-01"},{"category":"anti-social-behaviour","location_type":"Force","location":{"latitude":"51.512426","street":{"id":955339,"name":"On or near Turner Street"},"longitude":"0.012825"},"context":"","outcome_status":null,"persistent_id":"","id":98973023,"location_subtype":"","month":"2022-01"},{"category":"anti-social-behaviour","location_type":"Force","location":{"latitude":"51.513032","street":{"id":955361,"name":"On or near Ford Street"},"longitude":"0.012607"},"context":"","outcome_status":null,"persistent_id":"","id":98973022,"location_subtype":"","month":"2022-01"},{"category":"anti-social-behaviour","location_type":"Force","location":{"latitude":"51.520194","street":{"id":962043,"name":"On or near Ohio Road"},"longitude":"0.012894"},"context":"","outcome_status":null,"persistent_id":"","id":98973021,"location_subtype":"","month":"2022-01"},{"category":"anti-social-behaviour","location_type":"Force","location":{"latitude":"51.519016","street":{"id":962185,"name":"On or near Comyns Close"},"longitude":"0.011876"},"context":"","outcome_status":null,"persistent_id":"","id":98973018,"location_subtype":"","month":"2022-01"},{"category":"anti-social-behaviour","location_type":"Force","location":{"latitude":"51.516910","street":{"id":962181,"name":"On or near Maud Street"},"longitude":"0.011942"},"context":"","outcome_status":null,"persistent_id":"","id":98973017,"location_subtype":"","month":"2022-01"},{"category":"anti-social-behaviour","location_type":"Force","location":{"latitude":"51.513030","street":{"id":955358,"name":"On or near Hallsville Road"},"longitude":"0.011137"},"context":"","outcome_status":null,"persistent_id":"","id":98973016,"location_subtype":"","month":"2022-01"},{"category":"anti-social-behaviour","location_type":"Force","location":{"latitude":"51.516910","street":{"id":962181,"name":"On or near Maud Street"},"longitude":"0.011942"},"context":"","outcome_status":null,"persistent_id":"","id":98973015,"location_subtype":"","month":"2022-01"},{"category":"anti-social-behaviour","location_type":"Force","location":{"latitude":"51.516910","street":{"id":962181,"name":"On or near Maud Street"},"longitude":"0.011942"},"context":"","outcome_status":null,"persistent_id":"","id":98973014,"location_subtype":"","month":"2022-01"},{"category":"anti-social-behaviour","location_type":"Force","location":{"latitude":"51.536363","street":{"id":963747,"name":"On or near Dirleton Road"},"longitude":"0.011862"},"context":"","outcome_status":null,"persistent_id":"","id":98973013,"location_subtype":"","month":"2022-01"},{"category":"anti-social-behaviour","location_type":"Force","location":{"latitude":"51.521753","street":{"id":962082,"name":"On or near Beaconsfield Road"},"longitude":"0.011161"},"context":"","outcome_status":null,"persistent_id":"","id":98973012,"location_subtype":"","month":"2022-01"},{"category":"anti-social-behaviour","location_type":"Force","location":{"latitude":"51.518319","street":{"id":962178,"name":"On or near Ordnance Road"},"longitude":"0.010577"},"context":"","outcome_status":null,"persistent_id":"","id":98973009,"location_subtype":"","month":"2022-01"},{"category":"anti-social-behaviour","location_type":"Force","location":{"latitude":"51.518319","street":{"id":962178,"name":"On or near Ordnance Road"},"longitude":"0.010577"},"context":"","outcome_status":null,"persistent_id":"","id":98973008,"location_subtype":"","month":"2022-01"},{"category":"anti-social-behaviour","location_type":"Force","location":{"latitude":"51.524514","street":{"id":962084,"name":"On or near Alden Avenue"},"longitude":"0.009567"},"context":"","outcome_status":null,"persistent_id":"","id":98973003,"location_subtype":"","month":"2022-01"},{"category":"anti-social-behaviour","location_type":"Force","location":{"latitude":"51.535639","street":{"id":964019,"name":"On or near Victoria Park Road"},"longitude":"-0.057209"},"context":"","outcome_status":null,"persistent_id":"","id":98978316,"location_subtype":"","month":"2022-01"},{"category":"anti-social-behaviour","location_type":"Force","location":{"latitude":"51.538504","street":{"id":964040,"name":"On or near Mare Street"},"longitude":"-0.057001"},"context":"","outcome_status":null,"persistent_id":"","id":98978327,"location_subtype":"","month":"2022-01"},{"category":"anti-social-behaviour","location_type":"Force","location":{"latitude":"51.538504","street":{"id":964040,"name":"On or near Mare Street"},"longitude":"-0.057001"},"context":"","outcome_status":null,"persistent_id":"","id":98978328,"location_subtype":"","month":"2022-01"},{"category":"anti-social-behaviour","location_type":"Force","location":{"latitude":"51.538504","street":{"id":964040,"name":"On or near Mare Street"},"longitude":"-0.057001"},"context":"","outcome_status":null,"persistent_id":"","id":98978329,"location_subtype":"","month":"2022-01"},{"category":"anti-social-behaviour","location_type":"Force","location":{"latitude":"51.535738","street":{"id":964062,"name":"On or near Booth Close"},"longitude":"-0.056700"},"context":"","outcome_status":null,"persistent_id":"","id":98978331,"location_subtype":"","month":"2022-01"},{"category":"anti-social-behaviour","location_type":"Force","location":{"latitude":"51.537964","street":{"id":964015,"name":"On or near Westgate Street"},"longitude":"-0.056981"},"context":"","outcome_status":null,"persistent_id":"","id":98978343,"location_subtype":"","month":"2022-01"},{"category":"anti-social-behaviour","location_type":"Force","location":{"latitude":"51.538694","street":{"id":964021,"name":"On or near Tudor Road"},"longitude":"-0.054902"},"context":"","outcome_status":null,"persistent_id":"","id":98978363,"location_subtype":"","month":"2022-01"},{"category":"anti-social-behaviour","location_type":"Force","location":{"latitude":"51.539510","street":{"id":964030,"name":"On or near Shore Road"},"longitude":"-0.053137"},"context":"","outcome_status":null,"persistent_id":"","id":98978380,"location_subtype":"","month":"2022-01"},{"category":"anti-social-behaviour","location_type":"Force","location":{"latitude":"51.537554","street":{"id":964140,"name":"On or near Clermont Road"},"longitude":"-0.052312"},"context":"","outcome_status":null,"persistent_id":"","id":98978386,"location_subtype":"","month":"2022-01"},{"category":"anti-social-behaviour","location_type":"Force","location":{"latitude":"51.539399","street":{"id":964098,"name":"On or near Shore Place"},"longitude":"-0.051887"},"context":"","outcome_status":null,"persistent_id":"","id":98978390,"location_subtype":"","month":"2022-01"},{"category":"anti-social-behaviour","location_type":"Force","location":{"latitude":"51.535620","street":{"id":964131,"name":"On or near Gore Road"},"longitude":"-0.047939"},"context":"","outcome_status":null,"persistent_id":"","id":98978436,"location_subtype":"","month":"2022-01"},{"category":"anti-social-behaviour","location_type":"Force","location":{"latitude":"51.537195","street":{"id":964103,"name":"On or near Redruth Road"},"longitude":"-0.048015"},"context":"","outcome_status":null,"persistent_id":"","id":98978437,"location_subtype":"","month":"2022-01"},{"category":"anti-social-behaviour","location_type":"Force","location":{"latitude":"51.537195","street":{"id":964103,"name":"On or near Redruth Road"},"longitude":"-0.048015"},"context":"","outcome_status":null,"persistent_id":"","id":98978438,"location_subtype":"","month":"2022-01"},{"category":"anti-social-behaviour","location_type":"Force","location":{"latitude":"51.536378","street":{"id":964110,"name":"On or near Morpeth Grove"},"longitude":"-0.046479"},"context":"","outcome_status":null,"persistent_id":"","id":98978443,"location_subtype":"","month":"2022-01"},{"category":"anti-social-behaviour","location_type":"Force","location":{"latitude":"51.537122","street":{"id":964101,"name":"On or near Rutland Road"},"longitude":"-0.046346"},"context":"","outcome_status":null,"persistent_id":"","id":98978447,"location_subtype":"","month":"2022-01"},{"category":"anti-social-behaviour","location_type":"Force","location":{"latitude":"51.539573","street":{"id":964149,"name":"On or near Banbury Road"},"longitude":"-0.043948"},"context":"","outcome_status":null,"persistent_id":"","id":98978458,"location_subtype":"","month":"2022-01"},{"category":"anti-social-behaviour","location_type":"Force","location":{"latitude":"51.539573","street":{"id":964149,"name":"On or near Banbury Road"},"longitude":"-0.043948"},"context":"","outcome_status":null,"persistent_id":"","id":98978459,"location_subtype":"","month":"2022-01"},{"category":"anti-social-behaviour","location_type":"Force","location":{"latitude":"51.492180","street":{"id":954390,"name":"On or near Mariners Mews"},"longitude":"-0.003812"},"context":"","outcome_status":null,"persistent_id":"","id":98978706,"location_subtype":"","month":"2022-01"},{"category":"anti-social-behaviour","location_type":"Force","location":{"latitude":"51.492180","street":{"id":954390,"name":"On or near Mariners Mews"},"longitude":"-0.003812"},"context":"","outcome_status":null,"persistent_id":"","id":98978707,"location_subtype":"","month":"2022-01"},{"category":"anti-social-behaviour","location_type":"Force","location":{"latitude":"51.492180","street":{"id":954390,"name":"On or near Mariners Mews"},"longitude":"-0.003812"},"context":"","outcome_status":null,"persistent_id":"","id":98978708,"location_subtype":"","month":"2022-01"},{"category":"anti-social-behaviour","location_type":"Force","location":{"latitude":"51.492180","street":{"id":954390,"name":"On or near Mariners Mews"},"longitude":"-0.003812"},"context":"","outcome_status":null,"persistent_id":"","id":98978709,"location_subtype":"","month":"2022-01"},{"category":"anti-social-behaviour","location_type":"Force","location":{"latitude":"51.492180","street":{"id":954390,"name":"On or near Mariners Mews"},"longitude":"-0.003812"},"context":"","outcome_status":null,"persistent_id":"","id":98978710,"location_subtype":"","month":"2022-01"},{"category":"anti-social-behaviour","location_type":"Force","location":{"latitude":"51.499272","street":{"id":954394,"name":"On or near Shopping Area"},"longitude":"0.000071"},"context":"","outcome_status":null,"persistent_id":"","id":98978711,"location_subtype":"","month":"2022-01"},{"category":"anti-social-behaviour","location_type":"Force","location":{"latitude":"51.505479","street":{"id":955915,"name":"On or near Hilliard's Court"},"longitude":"-0.055135"},"context":"","outcome_status":null,"persistent_id":"","id":98980762,"location_subtype":"","month":"2022-01"},{"category":"anti-social-behaviour","location_type":"Force","location":{"latitude":"51.499272","street":{"id":954394,"name":"On or near Shopping Area"},"longitude":"0.000071"},"context":"","outcome_status":null,"persistent_id":"","id":98978712,"location_subtype":"","month":"2022-01"},{"category":"anti-social-behaviour","location_type":"Force","location":{"latitude":"51.503117","street":{"id":954335,"name":"On or near Park\/open Space"},"longitude":"-0.001288"},"context":"","outcome_status":null,"persistent_id":"","id":98978713,"location_subtype":"","month":"2022-01"},{"category":"anti-social-behaviour","location_type":"Force","location":{"latitude":"51.501729","street":{"id":954406,"name":"On or near Theatre\/concert Hall"},"longitude":"0.003103"},"context":"","outcome_status":null,"persistent_id":"","id":98978717,"location_subtype":"","month":"2022-01"},{"category":"anti-social-behaviour","location_type":"Force","location":{"latitude":"51.501729","street":{"id":954406,"name":"On or near Theatre\/concert Hall"},"longitude":"0.003103"},"context":"","outcome_status":null,"persistent_id":"","id":98978731,"location_subtype":"","month":"2022-01"},{"category":"anti-social-behaviour","location_type":"Force","location":{"latitude":"51.496244","street":{"id":923898,"name":"On or near River Way"},"longitude":"0.009937"},"context":"","outcome_status":null,"persistent_id":"","id":98978732,"location_subtype":"","month":"2022-01"},{"category":"anti-social-behaviour","location_type":"Force","location":{"latitude":"51.496244","street":{"id":923898,"name":"On or near River Way"},"longitude":"0.009937"},"context":"","outcome_status":null,"persistent_id":"","id":98978733,"location_subtype":"","month":"2022-01"},{"category":"anti-social-behaviour","location_type":"Force","location":{"latitude":"51.494884","street":{"id":954402,"name":"On or near John Harrison Way"},"longitude":"0.012110"},"context":"","outcome_status":null,"persistent_id":"","id":98978737,"location_subtype":"","month":"2022-01"},{"category":"anti-social-behaviour","location_type":"Force","location":{"latitude":"51.493410","street":{"id":954403,"name":"On or near Child Lane"},"longitude":"0.013125"},"context":"","outcome_status":null,"persistent_id":"","id":98978739,"location_subtype":"","month":"2022-01"},{"category":"anti-social-behaviour","location_type":"Force","location":{"latitude":"51.493410","street":{"id":954403,"name":"On or near Child Lane"},"longitude":"0.013125"},"context":"","outcome_status":null,"persistent_id":"","id":98978740,"location_subtype":"","month":"2022-01"},{"category":"anti-social-behaviour","location_type":"Force","location":{"latitude":"51.493410","street":{"id":954403,"name":"On or near Child Lane"},"longitude":"0.013125"},"context":"","outcome_status":null,"persistent_id":"","id":98978741,"location_subtype":"","month":"2022-01"},{"category":"anti-social-behaviour","location_type":"Force","location":{"latitude":"51.495461","street":{"id":954399,"name":"On or near Teal Street"},"longitude":"0.014152"},"context":"","outcome_status":null,"persistent_id":"","id":98978745,"location_subtype":"","month":"2022-01"},{"category":"anti-social-behaviour","location_type":"Force","location":{"latitude":"51.494792","street":{"id":954395,"name":"On or near Park\/open Space"},"longitude":"0.014886"},"context":"","outcome_status":null,"persistent_id":"","id":98978746,"location_subtype":"","month":"2022-01"},{"category":"anti-social-behaviour","location_type":"Force","location":{"latitude":"51.507808","street":{"id":955929,"name":"On or near Ferry Terminal"},"longitude":"-0.079130"},"context":"","outcome_status":null,"persistent_id":"","id":98979418,"location_subtype":"","month":"2022-01"},{"category":"anti-social-behaviour","location_type":"Force","location":{"latitude":"51.520401","street":{"id":961536,"name":"On or near Spital Square"},"longitude":"-0.078211"},"context":"","outcome_status":null,"persistent_id":"","id":98979419,"location_subtype":"","month":"2022-01"},{"category":"anti-social-behaviour","location_type":"Force","location":{"latitude":"51.521354","street":{"id":961508,"name":"On or near Blossom Street"},"longitude":"-0.077667"},"context":"","outcome_status":null,"persistent_id":"","id":98979420,"location_subtype":"","month":"2022-01"},{"category":"anti-social-behaviour","location_type":"Force","location":{"latitude":"51.518046","street":{"id":587659,"name":"On or near Sandy's Row"},"longitude":"-0.077777"},"context":"","outcome_status":null,"persistent_id":"","id":98979421,"location_subtype":"","month":"2022-01"},{"category":"anti-social-behaviour","location_type":"Force","location":{"latitude":"51.520863","street":{"id":961480,"name":"On or near Folgate Street"},"longitude":"-0.076779"},"context":"","outcome_status":null,"persistent_id":"","id":98979422,"location_subtype":"","month":"2022-01"},{"category":"anti-social-behaviour","location_type":"Force","location":{"latitude":"51.520863","street":{"id":961480,"name":"On or near Folgate Street"},"longitude":"-0.076779"},"context":"","outcome_status":null,"persistent_id":"","id":98979423,"location_subtype":"","month":"2022-01"},{"category":"anti-social-behaviour","location_type":"Force","location":{"latitude":"51.517588","street":{"id":955930,"name":"On or near Parking Area"},"longitude":"-0.076686"},"context":"","outcome_status":null,"persistent_id":"","id":98979424,"location_subtype":"","month":"2022-01"},{"category":"anti-social-behaviour","location_type":"Force","location":{"latitude":"51.526201","street":{"id":961504,"name":"On or near Calvert Avenue"},"longitude":"-0.076021"},"context":"","outcome_status":null,"persistent_id":"","id":98979425,"location_subtype":"","month":"2022-01"},{"category":"anti-social-behaviour","location_type":"Force","location":{"latitude":"51.526201","street":{"id":961504,"name":"On or near Calvert Avenue"},"longitude":"-0.076021"},"context":"","outcome_status":null,"persistent_id":"","id":98979426,"location_subtype":"","month":"2022-01"},{"category":"anti-social-behaviour","location_type":"Force","location":{"latitude":"51.526201","street":{"id":961504,"name":"On or near Calvert Avenue"},"longitude":"-0.076021"},"context":"","outcome_status":null,"persistent_id":"","id":98979427,"location_subtype":"","month":"2022-01"},{"category":"anti-social-behaviour","location_type":"Force","location":{"latitude":"51.526201","street":{"id":961504,"name":"On or near Calvert Avenue"},"longitude":"-0.076021"},"context":"","outcome_status":null,"persistent_id":"","id":98979428,"location_subtype":"","month":"2022-01"},{"category":"anti-social-behaviour","location_type":"Force","location":{"latitude":"51.525633","street":{"id":961456,"name":"On or near Navarre Street"},"longitude":"-0.075958"},"context":"","outcome_status":null,"persistent_id":"","id":98979429,"location_subtype":"","month":"2022-01"},{"category":"anti-social-behaviour","location_type":"Force","location":{"latitude":"51.523637","street":{"id":961509,"name":"On or near Bethnal Green Road"},"longitude":"-0.076532"},"context":"","outcome_status":null,"persistent_id":"","id":98979430,"location_subtype":"","month":"2022-01"},{"category":"anti-social-behaviour","location_type":"Force","location":{"latitude":"51.525290","street":{"id":961501,"name":"On or near Camlet Street"},"longitude":"-0.075295"},"context":"","outcome_status":null,"persistent_id":"","id":98979431,"location_subtype":"","month":"2022-01"},{"category":"anti-social-behaviour","location_type":"Force","location":{"latitude":"51.521787","street":{"id":961428,"name":"On or near Wheler Street"},"longitude":"-0.075544"},"context":"","outcome_status":null,"persistent_id":"","id":98979432,"location_subtype":"","month":"2022-01"},{"category":"anti-social-behaviour","location_type":"Force","location":{"latitude":"51.517916","street":{"id":961541,"name":"On or near Brune Street"},"longitude":"-0.075318"},"context":"","outcome_status":null,"persistent_id":"","id":98979433,"location_subtype":"","month":"2022-01"},{"category":"anti-social-behaviour","location_type":"Force","location":{"latitude":"51.527120","street":{"id":961512,"name":"On or near Austin Street"},"longitude":"-0.076155"},"context":"","outcome_status":null,"persistent_id":"","id":98979434,"location_subtype":"","month":"2022-01"},{"category":"anti-social-behaviour","location_type":"Force","location":{"latitude":"51.516047","street":{"id":955932,"name":"On or near New Goulston Street"},"longitude":"-0.075411"},"context":"","outcome_status":null,"persistent_id":"","id":98979435,"location_subtype":"","month":"2022-01"},{"category":"anti-social-behaviour","location_type":"Force","location":{"latitude":"51.516047","street":{"id":955932,"name":"On or near New Goulston Street"},"longitude":"-0.075411"},"context":"","outcome_status":null,"persistent_id":"","id":98979436,"location_subtype":"","month":"2022-01"},{"category":"anti-social-behaviour","location_type":"Force","location":{"latitude":"51.521554","street":{"id":961502,"name":"On or near Calvin Street"},"longitude":"-0.074501"},"context":"","outcome_status":null,"persistent_id":"","id":98979437,"location_subtype":"","month":"2022-01"},{"category":"anti-social-behaviour","location_type":"Force","location":{"latitude":"51.517604","street":{"id":956033,"name":"On or near Toynbee Street"},"longitude":"-0.074394"},"context":"","outcome_status":null,"persistent_id":"","id":98979438,"location_subtype":"","month":"2022-01"},{"category":"anti-social-behaviour","location_type":"Force","location":{"latitude":"51.525452","street":{"id":961351,"name":"On or near Montclare Street"},"longitude":"-0.073674"},"context":"","outcome_status":null,"persistent_id":"","id":98979440,"location_subtype":"","month":"2022-01"},{"category":"anti-social-behaviour","location_type":"Force","location":{"latitude":"51.525452","street":{"id":961351,"name":"On or near Montclare Street"},"longitude":"-0.073674"},"context":"","outcome_status":null,"persistent_id":"","id":98979441,"location_subtype":"","month":"2022-01"},{"category":"anti-social-behaviour","location_type":"Force","location":{"latitude":"51.525452","street":{"id":961351,"name":"On or near Montclare Street"},"longitude":"-0.073674"},"context":"","outcome_status":null,"persistent_id":"","id":98979442,"location_subtype":"","month":"2022-01"},{"category":"anti-social-behaviour","location_type":"Force","location":{"latitude":"51.525452","street":{"id":961351,"name":"On or near Montclare Street"},"longitude":"-0.073674"},"context":"","outcome_status":null,"persistent_id":"","id":98979443,"location_subtype":"","month":"2022-01"},{"category":"anti-social-behaviour","location_type":"Force","location":{"latitude":"51.529747","street":{"id":961381,"name":"On or near Diss Street"},"longitude":"-0.073449"},"context":"","outcome_status":null,"persistent_id":"","id":98979444,"location_subtype":"","month":"2022-01"},{"category":"anti-social-behaviour","location_type":"Force","location":{"latitude":"51.517604","street":{"id":956033,"name":"On or near Toynbee Street"},"longitude":"-0.074394"},"context":"","outcome_status":null,"persistent_id":"","id":98979445,"location_subtype":"","month":"2022-01"},{"category":"anti-social-behaviour","location_type":"Force","location":{"latitude":"51.517604","street":{"id":956033,"name":"On or near Toynbee Street"},"longitude":"-0.074394"},"context":"","outcome_status":null,"persistent_id":"","id":98979446,"location_subtype":"","month":"2022-01"},{"category":"anti-social-behaviour","location_type":"Force","location":{"latitude":"51.517604","street":{"id":956033,"name":"On or near Toynbee Street"},"longitude":"-0.074394"},"context":"","outcome_status":null,"persistent_id":"","id":98979447,"location_subtype":"","month":"2022-01"},{"category":"anti-social-behaviour","location_type":"Force","location":{"latitude":"51.517955","street":{"id":961560,"name":"On or near Lolesworth Close"},"longitude":"-0.073831"},"context":"","outcome_status":null,"persistent_id":"","id":98979448,"location_subtype":"","month":"2022-01"},{"category":"anti-social-behaviour","location_type":"Force","location":{"latitude":"51.523580","street":{"id":961331,"name":"On or near Sclater Street"},"longitude":"-0.073032"},"context":"","outcome_status":null,"persistent_id":"","id":98979449,"location_subtype":"","month":"2022-01"},{"category":"anti-social-behaviour","location_type":"Force","location":{"latitude":"51.516934","street":{"id":956032,"name":"On or near Wentworth Street"},"longitude":"-0.073543"},"context":"","outcome_status":null,"persistent_id":"","id":98979450,"location_subtype":"","month":"2022-01"},{"category":"anti-social-behaviour","location_type":"Force","location":{"latitude":"51.529190","street":{"id":961406,"name":"On or near Baroness Road"},"longitude":"-0.072954"},"context":"","outcome_status":null,"persistent_id":"","id":98979451,"location_subtype":"","month":"2022-01"},{"category":"anti-social-behaviour","location_type":"Force","location":{"latitude":"51.523809","street":{"id":961386,"name":"On or near Cygnet Street"},"longitude":"-0.072734"},"context":"","outcome_status":null,"persistent_id":"","id":98979452,"location_subtype":"","month":"2022-01"},{"category":"anti-social-behaviour","location_type":"Force","location":{"latitude":"51.518443","street":{"id":961566,"name":"On or near Fashion Street"},"longitude":"-0.072917"},"context":"","outcome_status":null,"persistent_id":"","id":98979453,"location_subtype":"","month":"2022-01"},{"category":"anti-social-behaviour","location_type":"Force","location":{"latitude":"51.518443","street":{"id":961566,"name":"On or near Fashion Street"},"longitude":"-0.072917"},"context":"","outcome_status":null,"persistent_id":"","id":98979454,"location_subtype":"","month":"2022-01"},{"category":"anti-social-behaviour","location_type":"Force","location":{"latitude":"51.515809","street":{"id":956036,"name":"On or near Pomell Way"},"longitude":"-0.072942"},"context":"","outcome_status":null,"persistent_id":"","id":98979456,"location_subtype":"","month":"2022-01"},{"category":"anti-social-behaviour","location_type":"Force","location":{"latitude":"51.530593","street":{"id":961362,"name":"On or near Hassard Street"},"longitude":"-0.072419"},"context":"","outcome_status":null,"persistent_id":"","id":98979457,"location_subtype":"","month":"2022-01"},{"category":"anti-social-behaviour","location_type":"Force","location":{"latitude":"51.527177","street":{"id":961356,"name":"On or near Kirton Gardens"},"longitude":"-0.071957"},"context":"","outcome_status":null,"persistent_id":"","id":98979458,"location_subtype":"","month":"2022-01"},{"category":"anti-social-behaviour","location_type":"Force","location":{"latitude":"51.518443","street":{"id":961566,"name":"On or near Fashion Street"},"longitude":"-0.072917"},"context":"","outcome_status":null,"persistent_id":"","id":98979459,"location_subtype":"","month":"2022-01"},{"category":"anti-social-behaviour","location_type":"Force","location":{"latitude":"51.517668","street":{"id":961552,"name":"On or near Thrawl Street"},"longitude":"-0.072806"},"context":"","outcome_status":null,"persistent_id":"","id":98979460,"location_subtype":"","month":"2022-01"},{"category":"anti-social-behaviour","location_type":"Force","location":{"latitude":"51.529851","street":{"id":961340,"name":"On or near Ravenscroft Street"},"longitude":"-0.071066"},"context":"","outcome_status":null,"persistent_id":"","id":98979461,"location_subtype":"","month":"2022-01"},{"category":"anti-social-behaviour","location_type":"Force","location":{"latitude":"51.506463","street":{"id":956069,"name":"On or near St Katharine's Way"},"longitude":"-0.071708"},"context":"","outcome_status":null,"persistent_id":"","id":98979462,"location_subtype":"","month":"2022-01"},{"category":"anti-social-behaviour","location_type":"Force","location":{"latitude":"51.519640","street":{"id":961574,"name":"On or near Brick Lane"},"longitude":"-0.071843"},"context":"","outcome_status":null,"persistent_id":"","id":98979463,"location_subtype":"","month":"2022-01"},{"category":"anti-social-behaviour","location_type":"Force","location":{"latitude":"51.519640","street":{"id":961574,"name":"On or near Brick Lane"},"longitude":"-0.071843"},"context":"","outcome_status":null,"persistent_id":"","id":98979464,"location_subtype":"","month":"2022-01"},{"category":"anti-social-behaviour","location_type":"Force","location":{"latitude":"51.518249","street":{"id":961577,"name":"On or near Police Station"},"longitude":"-0.071484"},"context":"","outcome_status":null,"persistent_id":"","id":98979465,"location_subtype":"","month":"2022-01"},{"category":"anti-social-behaviour","location_type":"Force","location":{"latitude":"51.527370","street":{"id":961394,"name":"On or near Chambord Street"},"longitude":"-0.072209"},"context":"","outcome_status":null,"persistent_id":"","id":98979466,"location_subtype":"","month":"2022-01"},{"category":"anti-social-behaviour","location_type":"Force","location":{"latitude":"51.513799","street":{"id":956019,"name":"On or near Alie Street"},"longitude":"-0.071038"},"context":"","outcome_status":null,"persistent_id":"","id":98979467,"location_subtype":"","month":"2022-01"},{"category":"anti-social-behaviour","location_type":"Force","location":{"latitude":"51.514878","street":{"id":955939,"name":"On or near Pedestrian Subway"},"longitude":"-0.071554"},"context":"","outcome_status":null,"persistent_id":"","id":98979468,"location_subtype":"","month":"2022-01"},{"category":"anti-social-behaviour","location_type":"Force","location":{"latitude":"51.512312","street":{"id":955961,"name":"On or near Scarborough Street"},"longitude":"-0.071375"},"context":"","outcome_status":null,"persistent_id":"","id":98979469,"location_subtype":"","month":"2022-01"},{"category":"anti-social-behaviour","location_type":"Force","location":{"latitude":"51.512312","street":{"id":955961,"name":"On or near Scarborough Street"},"longitude":"-0.071375"},"context":"","outcome_status":null,"persistent_id":"","id":98979470,"location_subtype":"","month":"2022-01"},