[{"category":"anti-social-behaviour","location_type":"Force","location":{"latitude":"51.514729","street":{"id":957014,"name":"On or near Supermarket"},"longitude":"-0.187423"},"context":"","outcome_status":null,"persistent_id":"","id":98971197,"location_subtype":"","month":"2022-01"},{"category":"anti-social-behaviour","location_type":"Force","location":{"latitude":"51.522325","street":{"id":960399,"name":"On or near Melcombe Place"},"longitude":"-0.162357"},"context":"","outcome_status":null,"persistent_id":"","id":98979574,"location_subtype":"","month":"2022-01"},{"category":"anti-social-behaviour","location_type":"Force","location":{"latitude":"51.522325","street":{"id":960399,"name":"On or near Melcombe Place"},"longitude":"-0.162357"},"context":"","outcome_status":null,"persistent_id":"","id":98979575,"location_subtype":"","month":"2022-01"},{"category":"anti-social-behaviour","location_type":"Force","location":{"latitude":"51.522325","street":{"id":960399,"name":"On or near Melcombe Place"},"longitude":"-0.162357"},"context":"","outcome_status":null,"persistent_id":"","id":98979576,"location_subtype":"","month":"2022-01"},{"category":"anti-social-behaviour","location_type":"Force","location":{"latitude":"51.522325","street":{"id":960399,"name":"On or near Melcombe Place"},"longitude":"-0.162357"},"context":"","outcome_status":null,"persistent_id":"","id":98979577,"location_subtype":"","month":"2022-01"},{"category":"anti-social-behaviour","location_type":"Force","location":{"latitude":"51.517649","street":{"id":956787,"name":"On or near Seymour Place"},"longitude":"-0.162372"},"context":"","outcome_status":null,"persistent_id":"","id":98979578,"location_subtype":"","month":"2022-01"},{"category":"anti-social-behaviour","location_type":"Force","location":{"latitude":"51.521855","street":{"id":960456,"name":"On or near Great Central Street"},"longitude":"-0.162203"},"context":"","outcome_status":null,"persistent_id":"","id":98979579,"location_subtype":"","month":"2022-01"},{"category":"anti-social-behaviour","location_type":"Force","location":{"latitude":"51.521855","street":{"id":960456,"name":"On or near Great Central Street"},"longitude":"-0.162203"},"context":"","outcome_status":null,"persistent_id":"","id":98979580,"location_subtype":"","month":"2022-01"},{"category":"anti-social-behaviour","location_type":"Force","location":{"latitude":"51.521855","street":{"id":960456,"name":"On or near Great Central Street"},"longitude":"-0.162203"},"context":"","outcome_status":null,"persistent_id":"","id":98979581,"location_subtype":"","month":"2022-01"},{"category":"anti-social-behaviour","location_type":"Force","location":{"latitude":"51.515761","street":{"id":956734,"name":"On or near Stourcliffe Street"},"longitude":"-0.162390"},"context":"","outcome_status":null,"persistent_id":"","id":98979582,"location_subtype":"","month":"2022-01"},{"category":"anti-social-behaviour","location_type":"Force","location":{"latitude":"51.515761","street":{"id":956734,"name":"On or near Stourcliffe Street"},"longitude":"-0.162390"},"context":"","outcome_status":null,"persistent_id":"","id":98979583,"location_subtype":"","month":"2022-01"},{"category":"anti-social-behaviour","location_type":"Force","location":{"latitude":"51.517008","street":{"id":956772,"name":"On or near Brown Street"},"longitude":"-0.162816"},"context":"","outcome_status":null,"persistent_id":"","id":98979584,"location_subtype":"","month":"2022-01"},{"category":"anti-social-behaviour","location_type":"Force","location":{"latitude":"51.520073","street":{"id":960437,"name":"On or near York Street"},"longitude":"-0.161582"},"context":"","outcome_status":null,"persistent_id":"","id":98979585,"location_subtype":"","month":"2022-01"},{"category":"anti-social-behaviour","location_type":"Force","location":{"latitude":"51.524365","street":{"id":960406,"name":"On or near Ivor Place"},"longitude":"-0.161179"},"context":"","outcome_status":null,"persistent_id":"","id":98979586,"location_subtype":"","month":"2022-01"},{"category":"anti-social-behaviour","location_type":"Force","location":{"latitude":"51.516528","street":{"id":956757,"name":"On or near George Street"},"longitude":"-0.160889"},"context":"","outcome_status":null,"persistent_id":"","id":98979587,"location_subtype":"","month":"2022-01"},{"category":"anti-social-behaviour","location_type":"Force","location":{"latitude":"51.514847","street":{"id":956756,"name":"On or near Great Cumberland Mews"},"longitude":"-0.160870"},"context":"","outcome_status":null,"persistent_id":"","id":98979588,"location_subtype":"","month":"2022-01"},{"category":"anti-social-behaviour","location_type":"Force","location":{"latitude":"51.514847","street":{"id":956756,"name":"On or near Great Cumberland Mews"},"longitude":"-0.160870"},"context":"","outcome_status":null,"persistent_id":"","id":98979589,"location_subtype":"","month":"2022-01"},{"category":"anti-social-behaviour","location_type":"Force","location":{"latitude":"51.522055","street":{"id":960379,"name":"On or near Parking Area"},"longitude":"-0.159499"},"context":"","outcome_status":null,"persistent_id":"","id":98979591,"location_subtype":"","month":"2022-01"},{"category":"anti-social-behaviour","location_type":"Force","location":{"latitude":"51.518827","street":{"id":956789,"name":"On or near Montagu Place"},"longitude":"-0.160062"},"context":"","outcome_status":null,"persistent_id":"","id":98979592,"location_subtype":"","month":"2022-01"},{"category":"anti-social-behaviour","location_type":"Force","location":{"latitude":"51.515498","street":{"id":956731,"name":"On or near Upper Berkeley Street"},"longitude":"-0.159965"},"context":"","outcome_status":null,"persistent_id":"","id":98979593,"location_subtype":"","month":"2022-01"},{"category":"anti-social-behaviour","location_type":"Force","location":{"latitude":"51.523565","street":{"id":960388,"name":"On or near Siddons Lane"},"longitude":"-0.158890"},"context":"","outcome_status":null,"persistent_id":"","id":98979596,"location_subtype":"","month":"2022-01"},{"category":"anti-social-behaviour","location_type":"Force","location":{"latitude":"51.523565","street":{"id":960388,"name":"On or near Siddons Lane"},"longitude":"-0.158890"},"context":"","outcome_status":null,"persistent_id":"","id":98979597,"location_subtype":"","month":"2022-01"},{"category":"anti-social-behaviour","location_type":"Force","location":{"latitude":"51.522324","street":{"id":960429,"name":"On or near Nightclub"},"longitude":"-0.158306"},"context":"","outcome_status":null,"persistent_id":"","id":98979599,"location_subtype":"","month":"2022-01"},{"category":"anti-social-behaviour","location_type":"Force","location":{"latitude":"51.523565","street":{"id":960388,"name":"On or near Siddons Lane"},"longitude":"-0.158890"},"context":"","outcome_status":null,"persistent_id":"","id":98979600,"location_subtype":"","month":"2022-01"},{"category":"anti-social-behaviour","location_type":"Force","location":{"latitude":"51.523565","street":{"id":960388,"name":"On or near Siddons Lane"},"longitude":"-0.158890"},"context":"","outcome_status":null,"persistent_id":"","id":98979601,"location_subtype":"","month":"2022-01"},{"category":"anti-social-behaviour","location_type":"Force","location":{"latitude":"51.515265","street":{"id":956748,"name":"On or near New Quebec Street"},"longitude":"-0.158288"},"context":"","outcome_status":null,"persistent_id":"","id":98979602,"location_subtype":"","month":"2022-01"},{"category":"anti-social-behaviour","location_type":"Force","location":{"latitude":"51.521729","street":{"id":960508,"name":"On or near Further\/higher Educational Building"},"longitude":"-0.157062"},"context":"","outcome_status":null,"persistent_id":"","id":98979603,"location_subtype":"","month":"2022-01"},{"category":"anti-social-behaviour","location_type":"Force","location":{"latitude":"51.521729","street":{"id":960508,"name":"On or near Further\/higher Educational Building"},"longitude":"-0.157062"},"context":"","outcome_status":null,"persistent_id":"","id":98979604,"location_subtype":"","month":"2022-01"},{"category":"anti-social-behaviour","location_type":"Force","location":{"latitude":"51.522254","street":{"id":960345,"name":"On or near Pedestrian Subway"},"longitude":"-0.157271"},"context":"","outcome_status":null,"persistent_id":"","id":98979605,"location_subtype":"","month":"2022-01"},{"category":"anti-social-behaviour","location_type":"Force","location":{"latitude":"51.519261","street":{"id":960504,"name":"On or near Baker Street"},"longitude":"-0.156224"},"context":"","outcome_status":null,"persistent_id":"","id":98979606,"location_subtype":"","month":"2022-01"},{"category":"anti-social-behaviour","location_type":"Force","location":{"latitude":"51.519261","street":{"id":960504,"name":"On or near Baker Street"},"longitude":"-0.156224"},"context":"","outcome_status":null,"persistent_id":"","id":98979607,"location_subtype":"","month":"2022-01"},{"category":"anti-social-behaviour","location_type":"Force","location":{"latitude":"51.519261","street":{"id":960504,"name":"On or near Baker Street"},"longitude":"-0.156224"},"context":"","outcome_status":null,"persistent_id":"","id":98979608,"location_subtype":"","month":"2022-01"},{"category":"anti-social-behaviour","location_type":"Force","location":{"latitude":"51.519261","street":{"id":960504,"name":"On or near Baker Street"},"longitude":"-0.156224"},"context":"","outcome_status":null,"persistent_id":"","id":98979609,"location_subtype":"","month":"2022-01"},{"category":"anti-social-behaviour","location_type":"Force","location":{"latitude":"51.519975","street":{"id":960490,"name":"On or near Kenrick Place"},"longitude":"-0.155907"},"context":"","outcome_status":null,"persistent_id":"","id":98979610,"location_subtype":"","month":"2022-01"},{"category":"anti-social-behaviour","location_type":"Force","location":{"latitude":"51.520634","street":{"id":960482,"name":"On or near Paddington Street"},"longitude":"-0.154309"},"context":"","outcome_status":null,"persistent_id":"","id":98979611,"location_subtype":"","month":"2022-01"},{"category":"anti-social-behaviour","location_type":"Force","location":{"latitude":"51.518137","street":{"id":956905,"name":"On or near Manchester Mews"},"longitude":"-0.153373"},"context":"","outcome_status":null,"persistent_id":"","id":98979612,"location_subtype":"","month":"2022-01"},{"category":"anti-social-behaviour","location_type":"Force","location":{"latitude":"51.518137","street":{"id":956905,"name":"On or near Manchester Mews"},"longitude":"-0.153373"},"context":"","outcome_status":null,"persistent_id":"","id":98979613,"location_subtype":"","month":"2022-01"},{"category":"anti-social-behaviour","location_type":"Force","location":{"latitude":"51.515736","street":{"id":956880,"name":"On or near Conference\/exhibition Centre"},"longitude":"-0.153383"},"context":"","outcome_status":null,"persistent_id":"","id":98979614,"location_subtype":"","month":"2022-01"},{"category":"anti-social-behaviour","location_type":"Force","location":{"latitude":"51.517488","street":{"id":956898,"name":"On or near Spanish Place"},"longitude":"-0.152678"},"context":"","outcome_status":null,"persistent_id":"","id":98979615,"location_subtype":"","month":"2022-01"},{"category":"anti-social-behaviour","location_type":"Force","location":{"latitude":"51.521306","street":{"id":960484,"name":"On or near Nottingham Street"},"longitude":"-0.153057"},"context":"","outcome_status":null,"persistent_id":"","id":98979616,"location_subtype":"","month":"2022-01"},{"category":"anti-social-behaviour","location_type":"Force","location":{"latitude":"51.521940","street":{"id":960362,"name":"On or near Marylebone High Street"},"longitude":"-0.151619"},"context":"","outcome_status":null,"persistent_id":"","id":98979617,"location_subtype":"","month":"2022-01"},{"category":"anti-social-behaviour","location_type":"Force","location":{"latitude":"51.523521","street":{"id":960352,"name":"On or near York Gate"},"longitude":"-0.152636"},"context":"","outcome_status":null,"persistent_id":"","id":98979618,"location_subtype":"","month":"2022-01"},{"category":"anti-social-behaviour","location_type":"Force","location":{"latitude":"51.516621","street":{"id":956846,"name":"On or near Hinde Mews"},"longitude":"-0.150753"},"context":"","outcome_status":null,"persistent_id":"","id":98979619,"location_subtype":"","month":"2022-01"},{"category":"anti-social-behaviour","location_type":"Force","location":{"latitude":"51.523236","street":{"id":960633,"name":"On or near Hospital"},"longitude":"-0.143710"},"context":"","outcome_status":null,"persistent_id":"","id":98979620,"location_subtype":"","month":"2022-01"},{"category":"anti-social-behaviour","location_type":"Force","location":{"latitude":"51.521425","street":{"id":960707,"name":"On or near Hallam Street"},"longitude":"-0.144043"},"context":"","outcome_status":null,"persistent_id":"","id":98979621,"location_subtype":"","month":"2022-01"},{"category":"anti-social-behaviour","location_type":"Force","location":{"latitude":"51.516792","street":{"id":956423,"name":"On or near Further\/higher Educational Building"},"longitude":"-0.143367"},"context":"","outcome_status":null,"persistent_id":"","id":98979622,"location_subtype":"","month":"2022-01"},{"category":"anti-social-behaviour","location_type":"Force","location":{"latitude":"51.518939","street":{"id":960704,"name":"On or near Portland Place"},"longitude":"-0.144375"},"context":"","outcome_status":null,"persistent_id":"","id":98979623,"location_subtype":"","month":"2022-01"},{"category":"anti-social-behaviour","location_type":"Force","location":{"latitude":"51.537054","street":{"id":965219,"name":"On or near Finchley Road"},"longitude":"-0.176197"},"context":"","outcome_status":null,"persistent_id":"","id":98971916,"location_subtype":"","month":"2022-01"},{"category":"anti-social-behaviour","location_type":"Force","location":{"latitude":"51.537054","street":{"id":965219,"name":"On or near Finchley Road"},"longitude":"-0.176197"},"context":"","outcome_status":null,"persistent_id":"","id":98971915,"location_subtype":"","month":"2022-01"},{"category":"anti-social-behaviour","location_type":"Force","location":{"latitude":"51.515281","street":{"id":957078,"name":"On or near Bus\/coach Station"},"longitude":"-0.177168"},"context":"","outcome_status":null,"persistent_id":"","id":98971911,"location_subtype":"","month":"2022-01"},{"category":"anti-social-behaviour","location_type":"Force","location":{"latitude":"51.517497","street":{"id":957085,"name":"On or near Bus\/coach Station"},"longitude":"-0.177454"},"context":"","outcome_status":null,"persistent_id":"","id":98971910,"location_subtype":"","month":"2022-01"},{"category":"anti-social-behaviour","location_type":"Force","location":{"latitude":"51.529776","street":{"id":960178,"name":"On or near Hall Gate"},"longitude":"-0.177728"},"context":"","outcome_status":null,"persistent_id":"","id":98971909,"location_subtype":"","month":"2022-01"},{"category":"anti-social-behaviour","location_type":"Force","location":{"latitude":"51.534356","street":{"id":965281,"name":"On or near Langford Place"},"longitude":"-0.178439"},"context":"","outcome_status":null,"persistent_id":"","id":98971903,"location_subtype":"","month":"2022-01"},{"category":"anti-social-behaviour","location_type":"Force","location":{"latitude":"51.520303","street":{"id":960292,"name":"On or near Pedestrian Subway"},"longitude":"-0.179202"},"context":"","outcome_status":null,"persistent_id":"","id":98971902,"location_subtype":"","month":"2022-01"},{"category":"anti-social-behaviour","location_type":"Force","location":{"latitude":"51.520303","street":{"id":960292,"name":"On or near Pedestrian Subway"},"longitude":"-0.179202"},"context":"","outcome_status":null,"persistent_id":"","id":98971901,"location_subtype":"","month":"2022-01"},{"category":"anti-social-behaviour","location_type":"Force","location":{"latitude":"51.521196","street":{"id":960321,"name":"On or near John Aird Court"},"longitude":"-0.178806"},"context":"","outcome_status":null,"persistent_id":"","id":98971897,"location_subtype":"","month":"2022-01"},{"category":"anti-social-behaviour","location_type":"Force","location":{"latitude":"51.514950","street":{"id":956987,"name":"On or near Gloucester Terrace"},"longitude":"-0.180165"},"context":"","outcome_status":null,"persistent_id":"","id":98971896,"location_subtype":"","month":"2022-01"},{"category":"anti-social-behaviour","location_type":"Force","location":{"latitude":"51.521578","street":{"id":960300,"name":"On or near Howley Place"},"longitude":"-0.179670"},"context":"","outcome_status":null,"persistent_id":"","id":98971890,"location_subtype":"","month":"2022-01"},{"category":"anti-social-behaviour","location_type":"Force","location":{"latitude":"51.532132","street":{"id":960257,"name":"On or near Hill Road"},"longitude":"-0.179465"},"context":"","outcome_status":null,"persistent_id":"","id":98971889,"location_subtype":"","month":"2022-01"},{"category":"anti-social-behaviour","location_type":"Force","location":{"latitude":"51.514832","street":{"id":957003,"name":"On or near Chilworth Street"},"longitude":"-0.180717"},"context":"","outcome_status":null,"persistent_id":"","id":98971888,"location_subtype":"","month":"2022-01"},{"category":"anti-social-behaviour","location_type":"Force","location":{"latitude":"51.528140","street":{"id":960270,"name":"On or near Cropthorne Court"},"longitude":"-0.180662"},"context":"","outcome_status":null,"persistent_id":"","id":98971887,"location_subtype":"","month":"2022-01"},{"category":"anti-social-behaviour","location_type":"Force","location":{"latitude":"51.517051","street":{"id":956956,"name":"On or near Westbourne Terrace"},"longitude":"-0.181695"},"context":"","outcome_status":null,"persistent_id":"","id":98971877,"location_subtype":"","month":"2022-01"},{"category":"anti-social-behaviour","location_type":"Force","location":{"latitude":"51.516218","street":{"id":956999,"name":"On or near Cleveland Terrace"},"longitude":"-0.181930"},"context":"","outcome_status":null,"persistent_id":"","id":98971876,"location_subtype":"","month":"2022-01"},{"category":"anti-social-behaviour","location_type":"Force","location":{"latitude":"51.516218","street":{"id":956999,"name":"On or near Cleveland Terrace"},"longitude":"-0.181930"},"context":"","outcome_status":null,"persistent_id":"","id":98971875,"location_subtype":"","month":"2022-01"},{"category":"anti-social-behaviour","location_type":"Force","location":{"latitude":"51.517051","street":{"id":956956,"name":"On or near Westbourne Terrace"},"longitude":"-0.181695"},"context":"","outcome_status":null,"persistent_id":"","id":98971874,"location_subtype":"","month":"2022-01"},{"category":"anti-social-behaviour","location_type":"Force","location":{"latitude":"51.517051","street":{"id":956956,"name":"On or near Westbourne Terrace"},"longitude":"-0.181695"},"context":"","outcome_status":null,"persistent_id":"","id":98971873,"location_subtype":"","month":"2022-01"},{"category":"anti-social-behaviour","location_type":"Force","location":{"latitude":"51.517051","street":{"id":956956,"name":"On or near Westbourne Terrace"},"longitude":"-0.181695"},"context":"","outcome_status":null,"persistent_id":"","id":98971872,"location_subtype":"","month":"2022-01"},{"category":"anti-social-behaviour","location_type":"Force","location":{"latitude":"51.538307","street":{"id":965192,"name":"On or near Avenue Road"},"longitude":"-0.168836"},"context":"","outcome_status":null,"persistent_id":"","id":98971397,"location_subtype":"","month":"2022-01"},{"category":"anti-social-behaviour","location_type":"Force","location":{"latitude":"51.539298","street":{"id":965167,"name":"On or near Boundary Road"},"longitude":"-0.181083"},"context":"","outcome_status":null,"persistent_id":"","id":98971366,"location_subtype":"","month":"2022-01"},{"category":"anti-social-behaviour","location_type":"Force","location":{"latitude":"51.537465","street":{"id":965147,"name":"On or near Rutland Mews"},"longitude":"-0.184689"},"context":"","outcome_status":null,"persistent_id":"","id":98971358,"location_subtype":"","month":"2022-01"},{"category":"anti-social-behaviour","location_type":"Force","location":{"latitude":"51.537453","street":{"id":965150,"name":"On or near Mortimer Crescent"},"longitude":"-0.187977"},"context":"","outcome_status":null,"persistent_id":"","id":98971351,"location_subtype":"","month":"2022-01"},{"category":"anti-social-behaviour","location_type":"Force","location":{"latitude":"51.536470","street":{"id":965388,"name":"On or near Greville Road"},"longitude":"-0.188967"},"context":"","outcome_status":null,"persistent_id":"","id":98971349,"location_subtype":"","month":"2022-01"},{"category":"anti-social-behaviour","location_type":"Force","location":{"latitude":"51.538914","street":{"id":965346,"name":"On or near Parking Area"},"longitude":"-0.188870"},"context":"","outcome_status":null,"persistent_id":"","id":98971348,"location_subtype":"","month":"2022-01"},{"category":"anti-social-behaviour","location_type":"Force","location":{"latitude":"51.535807","street":{"id":965384,"name":"On or near Kilburn High Road"},"longitude":"-0.190897"},"context":"","outcome_status":null,"persistent_id":"","id":98971346,"location_subtype":"","month":"2022-01"},{"category":"anti-social-behaviour","location_type":"Force","location":{"latitude":"51.518078","street":{"id":956409,"name":"On or near Little Titchfield Street"},"longitude":"-0.141123"},"context":"","outcome_status":null,"persistent_id":"","id":98971257,"location_subtype":"","month":"2022-01"},{"category":"anti-social-behaviour","location_type":"Force","location":{"latitude":"51.516693","street":{"id":956408,"name":"On or near Margaret Street"},"longitude":"-0.141079"},"context":"","outcome_status":null,"persistent_id":"","id":98971256,"location_subtype":"","month":"2022-01"},{"category":"anti-social-behaviour","location_type":"Force","location":{"latitude":"51.521653","street":{"id":960669,"name":"On or near Great Titchfield Street"},"longitude":"-0.142001"},"context":"","outcome_status":null,"persistent_id":"","id":98971253,"location_subtype":"","month":"2022-01"},{"category":"anti-social-behaviour","location_type":"Force","location":{"latitude":"51.520053","street":{"id":960720,"name":"On or near New Cavendish Street"},"longitude":"-0.143148"},"context":"","outcome_status":null,"persistent_id":"","id":98971252,"location_subtype":"","month":"2022-01"},{"category":"anti-social-behaviour","location_type":"Force","location":{"latitude":"51.520670","street":{"id":960714,"name":"On or near Conference\/exhibition Centre"},"longitude":"-0.143497"},"context":"","outcome_status":null,"persistent_id":"","id":98971251,"location_subtype":"","month":"2022-01"},{"category":"anti-social-behaviour","location_type":"Force","location":{"latitude":"51.523236","street":{"id":960633,"name":"On or near Hospital"},"longitude":"-0.143710"},"context":"","outcome_status":null,"persistent_id":"","id":98971250,"location_subtype":"","month":"2022-01"},{"category":"anti-social-behaviour","location_type":"Force","location":{"latitude":"51.523236","street":{"id":960633,"name":"On or near Hospital"},"longitude":"-0.143710"},"context":"","outcome_status":null,"persistent_id":"","id":98971249,"location_subtype":"","month":"2022-01"},{"category":"anti-social-behaviour","location_type":"Force","location":{"latitude":"51.533217","street":{"id":965275,"name":"On or near Aubrey Place"},"longitude":"-0.182132"},"context":"","outcome_status":null,"persistent_id":"","id":98971242,"location_subtype":"","month":"2022-01"},{"category":"anti-social-behaviour","location_type":"Force","location":{"latitude":"51.522096","street":{"id":960295,"name":"On or near Warwick Place"},"longitude":"-0.183484"},"context":"","outcome_status":null,"persistent_id":"","id":98971241,"location_subtype":"","month":"2022-01"},{"category":"anti-social-behaviour","location_type":"Force","location":{"latitude":"51.530397","street":{"id":960234,"name":"On or near Wellesley Court"},"longitude":"-0.183514"},"context":"","outcome_status":null,"persistent_id":"","id":98971240,"location_subtype":"","month":"2022-01"},{"category":"anti-social-behaviour","location_type":"Force","location":{"latitude":"51.516701","street":{"id":957009,"name":"On or near Bishop's Bridge Road"},"longitude":"-0.185240"},"context":"","outcome_status":null,"persistent_id":"","id":98971239,"location_subtype":"","month":"2022-01"},{"category":"anti-social-behaviour","location_type":"Force","location":{"latitude":"51.517645","street":{"id":957021,"name":"On or near Orsett Terrace"},"longitude":"-0.184655"},"context":"","outcome_status":null,"persistent_id":"","id":98971227,"location_subtype":"","month":"2022-01"},{"category":"anti-social-behaviour","location_type":"Force","location":{"latitude":"51.531438","street":{"id":960252,"name":"On or near Maida Vale"},"longitude":"-0.185159"},"context":"","outcome_status":null,"persistent_id":"","id":98971226,"location_subtype":"","month":"2022-01"},{"category":"anti-social-behaviour","location_type":"Force","location":{"latitude":"51.516513","street":{"id":957010,"name":"On or near Bishop's Bridge Road"},"longitude":"-0.185911"},"context":"","outcome_status":null,"persistent_id":"","id":98971221,"location_subtype":"","month":"2022-01"},{"category":"anti-social-behaviour","location_type":"Force","location":{"latitude":"51.530454","street":{"id":960268,"name":"On or near Elgin Mews North"},"longitude":"-0.186049"},"context":"","outcome_status":null,"persistent_id":"","id":98971219,"location_subtype":"","month":"2022-01"},{"category":"anti-social-behaviour","location_type":"Force","location":{"latitude":"51.529803","street":{"id":960267,"name":"On or near Elgin Mews South"},"longitude":"-0.185267"},"context":"","outcome_status":null,"persistent_id":"","id":98971204,"location_subtype":"","month":"2022-01"},{"category":"anti-social-behaviour","location_type":"Force","location":{"latitude":"51.531438","street":{"id":960252,"name":"On or near Maida Vale"},"longitude":"-0.185159"},"context":"","outcome_status":null,"persistent_id":"","id":98971203,"location_subtype":"","month":"2022-01"},{"category":"anti-social-behaviour","location_type":"Force","location":{"latitude":"51.516834","street":{"id":956951,"name":"On or near Parking Area"},"longitude":"-0.186273"},"context":"","outcome_status":null,"persistent_id":"","id":98971202,"location_subtype":"","month":"2022-01"},{"category":"anti-social-behaviour","location_type":"Force","location":{"latitude":"51.534400","street":{"id":965283,"name":"On or near Hillside Close"},"longitude":"-0.187089"},"context":"","outcome_status":null,"persistent_id":"","id":98971198,"location_subtype":"","month":"2022-01"},{"category":"anti-social-behaviour","location_type":"Force","location":{"latitude":"51.522325","street":{"id":960399,"name":"On or near Melcombe Place"},"longitude":"-0.162357"},"context":"","outcome_status":null,"persistent_id":"","id":98979573,"location_subtype":"","month":"2022-01"},{"category":"anti-social-behaviour","location_type":"Force","location":{"latitude":"51.528779","street":{"id":960282,"name":"On or near Ashworth Road"},"longitude":"-0.186461"},"context":"","outcome_status":null,"persistent_id":"","id":98971193,"location_subtype":"","month":"2022-01"},{"category":"anti-social-behaviour","location_type":"Force","location":{"latitude":"51.528779","street":{"id":960282,"name":"On or near Ashworth Road"},"longitude":"-0.186461"},"context":"","outcome_status":null,"persistent_id":"","id":98971192,"location_subtype":"","month":"2022-01"},{"category":"anti-social-behaviour","location_type":"Force","location":{"latitude":"51.528779","street":{"id":960282,"name":"On or near Ashworth Road"},"longitude":"-0.186461"},"context":"","outcome_status":null,"persistent_id":"","id":98971191,"location_subtype":"","month":"2022-01"},{"category":"anti-social-behaviour","location_type":"Force","location":{"latitude":"51.515399","street":{"id":956986,"name":"On or near Inver Court"},"longitude":"-0.187713"},"context":"","outcome_status":null,"persistent_id":"","id":98971189,"location_subtype":"","month":"2022-01"},{"category":"anti-social-behaviour","location_type":"Force","location":{"latitude":"51.515399","street":{"id":956986,"name":"On or near Inver Court"},"longitude":"-0.187713"},"context":"","outcome_status":null,"persistent_id":"","id":98971188,"location_subtype":"","month":"2022-01"},{"category":"anti-social-behaviour","location_type":"Force","location":{"latitude":"51.516469","street":{"id":956962,"name":"On or near Queensway"},"longitude":"-0.188867"},"context":"","outcome_status":null,"persistent_id":"","id":98971187,"location_subtype":"","month":"2022-01"},{"category":"anti-social-behaviour","location_type":"Force","location":{"latitude":"51.516469","street":{"id":956962,"name":"On or near Queensway"},"longitude":"-0.188867"},"context":"","outcome_status":null,"persistent_id":"","id":98971186,"location_subtype":"","month":"2022-01"},{"category":"anti-social-behaviour","location_type":"Force","location":{"latitude":"51.516469","street":{"id":956962,"name":"On or near Queensway"},"longitude":"-0.188867"},"context":"","outcome_status":null,"persistent_id":"","id":98971185,"location_subtype":"","month":"2022-01"},{"category":"anti-social-behaviour","location_type":"Force","location":{"latitude":"51.518294","street":{"id":957027,"name":"On or near Nightclub"},"longitude":"-0.188824"},"context":"","outcome_status":null,"persistent_id":"","id":98971183,"location_subtype":"","month":"2022-01"},{"category":"anti-social-behaviour","location_type":"Force","location":{"latitude":"51.516194","street":{"id":957344,"name":"On or near Hatherley Grove"},"longitude":"-0.189700"},"context":"","outcome_status":null,"persistent_id":"","id":98971182,"location_subtype":"","month":"2022-01"},{"category":"anti-social-behaviour","location_type":"Force","location":{"latitude":"51.516194","street":{"id":957344,"name":"On or near Hatherley Grove"},"longitude":"-0.189700"},"context":"","outcome_status":null,"persistent_id":"","id":98971181,"location_subtype":"","month":"2022-01"},{"category":"anti-social-behaviour","location_type":"Force","location":{"latitude":"51.516194","street":{"id":957344,"name":"On or near Hatherley Grove"},"longitude":"-0.189700"},"context":"","outcome_status":null,"persistent_id":"","id":98971180,"location_subtype":"","month":"2022-01"},{"category":"anti-social-behaviour","location_type":"Force","location":{"latitude":"51.516194","street":{"id":957344,"name":"On or near Hatherley Grove"},"longitude":"-0.189700"},"context":"","outcome_status":null,"persistent_id":"","id":98971179,"location_subtype":"","month":"2022-01"},{"category":"anti-social-behaviour","location_type":"Force","location":{"latitude":"51.516194","street":{"id":957344,"name":"On or near Hatherley Grove"},"longitude":"-0.189700"},"context":"","outcome_status":null,"persistent_id":"","id":98971178,"location_subtype":"","month":"2022-01"},{"category":"anti-social-behaviour","location_type":"Force","location":{"latitude":"51.516194","street":{"id":957344,"name":"On or near Hatherley Grove"},"longitude":"-0.189700"},"context":"","outcome_status":null,"persistent_id":"","id":98971177,"location_subtype":"","month":"2022-01"},{"category":"anti-social-behaviour","location_type":"Force","location":{"latitude":"51.516194","street":{"id":957344,"name":"On or near Hatherley Grove"},"longitude":"-0.189700"},"context":"","outcome_status":null,"persistent_id":"","id":98971176,"location_subtype":"","month":"2022-01"},{"category":"anti-social-behaviour","location_type":"Force","location":{"latitude":"51.521104","street":{"id":960306,"name":"On or near Bourne Terrace"},"longitude":"-0.188525"},"context":"","outcome_status":null,"persistent_id":"","id":98971174,"location_subtype":"","month":"2022-01"},{"category":"anti-social-behaviour","location_type":"Force","location":{"latitude":"51.523312","street":{"id":960018,"name":"On or near Aldsworth Close"},"longitude":"-0.190585"},"context":"","outcome_status":null,"persistent_id":"","id":98971170,"location_subtype":"","month":"2022-01"},{"category":"anti-social-behaviour","location_type":"Force","location":{"latitude":"51.517422","street":{"id":957191,"name":"On or near Westbourne Gardens"},"longitude":"-0.190026"},"context":"","outcome_status":null,"persistent_id":"","id":98971169,"location_subtype":"","month":"2022-01"},{"category":"anti-social-behaviour","location_type":"Force","location":{"latitude":"51.521697","street":{"id":960144,"name":"On or near Senior Street"},"longitude":"-0.189654"},"context":"","outcome_status":null,"persistent_id":"","id":98971167,"location_subtype":"","month":"2022-01"},{"category":"anti-social-behaviour","location_type":"Force","location":{"latitude":"51.524825","street":{"id":959981,"name":"On or near St. Peter's Place"},"longitude":"-0.190727"},"context":"","outcome_status":null,"persistent_id":"","id":98971166,"location_subtype":"","month":"2022-01"},{"category":"anti-social-behaviour","location_type":"Force","location":{"latitude":"51.524825","street":{"id":959981,"name":"On or near St. Peter's Place"},"longitude":"-0.190727"},"context":"","outcome_status":null,"persistent_id":"","id":98971165,"location_subtype":"","month":"2022-01"},{"category":"anti-social-behaviour","location_type":"Force","location":{"latitude":"51.524825","street":{"id":959981,"name":"On or near St. Peter's Place"},"longitude":"-0.190727"},"context":"","outcome_status":null,"persistent_id":"","id":98971164,"location_subtype":"","month":"2022-01"},{"category":"anti-social-behaviour","location_type":"Force","location":{"latitude":"51.524825","street":{"id":959981,"name":"On or near St. Peter's Place"},"longitude":"-0.190727"},"context":"","outcome_status":null,"persistent_id":"","id":98971163,"location_subtype":"","month":"2022-01"},{"category":"anti-social-behaviour","location_type":"Force","location":{"latitude":"51.524825","street":{"id":959981,"name":"On or near St. Peter's Place"},"longitude":"-0.190727"},"context":"","outcome_status":null,"persistent_id":"","id":98971162,"location_subtype":"","month":"2022-01"},{"category":"anti-social-behaviour","location_type":"Force","location":{"latitude":"51.524825","street":{"id":959981,"name":"On or near St. Peter's Place"},"longitude":"-0.190727"},"context":"","outcome_status":null,"persistent_id":"","id":98971161,"location_subtype":"","month":"2022-01"},{"category":"anti-social-behaviour","location_type":"Force","location":{"latitude":"51.524825","street":{"id":959981,"name":"On or near St. Peter's Place"},"longitude":"-0.190727"},"context":"","outcome_status":null,"persistent_id":"","id":98971160,"location_subtype":"","month":"2022-01"},{"category":"anti-social-behaviour","location_type":"Force","location":{"latitude":"51.524825","street":{"id":959981,"name":"On or near St. Peter's Place"},"longitude":"-0.190727"},"context":"","outcome_status":null,"persistent_id":"","id":98971159,"location_subtype":"","month":"2022-01"},{"category":"anti-social-behaviour","location_type":"Force","location":{"latitude":"51.524825","street":{"id":959981,"name":"On or near St. Peter's Place"},"longitude":"-0.190727"},"context":"","outcome_status":null,"persistent_id":"","id":98971158,"location_subtype":"","month":"2022-01"},{"category":"anti-social-behaviour","location_type":"Force","location":{"latitude":"51.524825","street":{"id":959981,"name":"On or near St. Peter's Place"},"longitude":"-0.190727"},"context":"","outcome_status":null,"persistent_id":"","id":98971157,"location_subtype":"","month":"2022-01"},{"category":"anti-social-behaviour","location_type":"Force","location":{"latitude":"51.534832","street":{"id":965443,"name":"On or near Maple Mews"},"longitude":"-0.190633"},"context":"","outcome_status":null,"persistent_id":"","id":98971156,"location_subtype":"","month":"2022-01"},{"category":"anti-social-behaviour","location_type":"Force","location":{"latitude":"51.516808","street":{"id":957195,"name":"On or near Sunderland Terrace"},"longitude":"-0.191578"},"context":"","outcome_status":null,"persistent_id":"","id":98971154,"location_subtype":"","month":"2022-01"},{"category":"anti-social-behaviour","location_type":"Force","location":{"latitude":"51.516808","street":{"id":957195,"name":"On or near Sunderland Terrace"},"longitude":"-0.191578"},"context":"","outcome_status":null,"persistent_id":"","id":98971153,"location_subtype":"","month":"2022-01"},{"category":"anti-social-behaviour","location_type":"Force","location":{"latitude":"51.517422","street":{"id":957191,"name":"On or near Westbourne Gardens"},"longitude":"-0.190026"},"context":"","outcome_status":null,"persistent_id":"","id":98971151,"location_subtype":"","month":"2022-01"},{"category":"anti-social-behaviour","location_type":"Force","location":{"latitude":"51.514942","street":{"id":957233,"name":"On or near Garway Road"},"longitude":"-0.191854"},"context":"","outcome_status":null,"persistent_id":"","id":98971150,"location_subtype":"","month":"2022-01"},{"category":"anti-social-behaviour","location_type":"Force","location":{"latitude":"51.534832","street":{"id":965443,"name":"On or near Maple Mews"},"longitude":"-0.190633"},"context":"","outcome_status":null,"persistent_id":"","id":98971149,"location_subtype":"","month":"2022-01"},{"category":"anti-social-behaviour","location_type":"Force","location":{"latitude":"51.532485","street":{"id":960012,"name":"On or near Carlton Vale"},"longitude":"-0.190063"},"context":"","outcome_status":null,"persistent_id":"","id":98971148,"location_subtype":"","month":"2022-01"},{"category":"anti-social-behaviour","location_type":"Force","location":{"latitude":"51.520304","street":{"id":960148,"name":"On or near Petrol Station"},"longitude":"-0.191425"},"context":"","outcome_status":null,"persistent_id":"","id":98971146,"location_subtype":"","month":"2022-01"},{"category":"anti-social-behaviour","location_type":"Force","location":{"latitude":"51.520304","street":{"id":960148,"name":"On or near Petrol Station"},"longitude":"-0.191425"},"context":"","outcome_status":null,"persistent_id":"","id":98971145,"location_subtype":"","month":"2022-01"},{"category":"anti-social-behaviour","location_type":"Force","location":{"latitude":"51.520304","street":{"id":960148,"name":"On or near Petrol Station"},"longitude":"-0.191425"},"context":"","outcome_status":null,"persistent_id":"","id":98971144,"location_subtype":"","month":"2022-01"},{"category":"anti-social-behaviour","location_type":"Force","location":{"latitude":"51.516086","street":{"id":957214,"name":"On or near Newton Road"},"longitude":"-0.191981"},"context":"","outcome_status":null,"persistent_id":"","id":98971143,"location_subtype":"","month":"2022-01"},{"category":"anti-social-behaviour","location_type":"Force","location":{"latitude":"51.514942","street":{"id":957233,"name":"On or near Garway Road"},"longitude":"-0.191854"},"context":"","outcome_status":null,"persistent_id":"","id":98971142,"location_subtype":"","month":"2022-01"},{"category":"anti-social-behaviour","location_type":"Force","location":{"latitude":"51.528570","street":{"id":959991,"name":"On or near Morshead Road"},"longitude":"-0.192150"},"context":"","outcome_status":null,"persistent_id":"","id":98971141,"location_subtype":"","month":"2022-01"},{"category":"anti-social-behaviour","location_type":"Force","location":{"latitude":"51.518981","street":{"id":957278,"name":"On or near Westbourne Park Villas"},"longitude":"-0.191996"},"context":"","outcome_status":null,"persistent_id":"","id":98971140,"location_subtype":"","month":"2022-01"},{"category":"anti-social-behaviour","location_type":"Force","location":{"latitude":"51.520274","street":{"id":960143,"name":"On or near Torquay Street"},"longitude":"-0.191815"},"context":"","outcome_status":null,"persistent_id":"","id":98971139,"location_subtype":"","month":"2022-01"},{"category":"anti-social-behaviour","location_type":"Force","location":{"latitude":"51.535973","street":{"id":965367,"name":"On or near Oxford Road"},"longitude":"-0.191698"},"context":"","outcome_status":null,"persistent_id":"","id":98971138,"location_subtype":"","month":"2022-01"},{"category":"anti-social-behaviour","location_type":"Force","location":{"latitude":"51.518173","street":{"id":957281,"name":"On or near Westbourne Park Road"},"longitude":"-0.192634"},"context":"","outcome_status":null,"persistent_id":"","id":98971137,"location_subtype":"","month":"2022-01"},{"category":"anti-social-behaviour","location_type":"Force","location":{"latitude":"51.532485","street":{"id":960012,"name":"On or near Carlton Vale"},"longitude":"-0.190063"},"context":"","outcome_status":null,"persistent_id":"","id":98971136,"location_subtype":"","month":"2022-01"},{"category":"anti-social-behaviour","location_type":"Force","location":{"latitude":"51.518888","street":{"id":957287,"name":"On or near Elsie Lane Court"},"longitude":"-0.192375"},"context":"","outcome_status":null,"persistent_id":"","id":98971135,"location_subtype":"","month":"2022-01"},{"category":"anti-social-behaviour","location_type":"Force","location":{"latitude":"51.522950","street":{"id":960017,"name":"On or near Amberley Road"},"longitude":"-0.192762"},"context":"","outcome_status":null,"persistent_id":"","id":98971130,"location_subtype":"","month":"2022-01"},{"category":"anti-social-behaviour","location_type":"Force","location":{"latitude":"51.515174","street":{"id":957219,"name":"On or near Monmouth Road"},"longitude":"-0.192896"},"context":"","outcome_status":null,"persistent_id":"","id":98971129,"location_subtype":"","month":"2022-01"},{"category":"anti-social-behaviour","location_type":"Force","location":{"latitude":"51.515174","street":{"id":957219,"name":"On or near Monmouth Road"},"longitude":"-0.192896"},"context":"","outcome_status":null,"persistent_id":"","id":98971128,"location_subtype":"","month":"2022-01"},{"category":"anti-social-behaviour","location_type":"Force","location":{"latitude":"51.515658","street":{"id":956392,"name":"On or near Shopping Area"},"longitude":"-0.143888"},"context":"","outcome_status":null,"persistent_id":"","id":98969087,"location_subtype":"","month":"2022-01"},{"category":"anti-social-behaviour","location_type":"Force","location":{"latitude":"51.515658","street":{"id":956392,"name":"On or near Shopping Area"},"longitude":"-0.143888"},"context":"","outcome_status":null,"persistent_id":"","id":98969086,"location_subtype":"","month":"2022-01"},{"category":"anti-social-behaviour","location_type":"Force","location":{"latitude":"51.515658","street":{"id":956392,"name":"On or near Shopping Area"},"longitude":"-0.143888"},"context":"","outcome_status":null,"persistent_id":"","id":98969085,"location_subtype":"","month":"2022-01"},{"category":"anti-social-behaviour","location_type":"Force","location":{"latitude":"51.514983","street":{"id":956949,"name":"On or near Shopping Area"},"longitude":"-0.147822"},"context":"","outcome_status":null,"persistent_id":"","id":98969058,"location_subtype":"","month":"2022-01"},{"category":"anti-social-behaviour","location_type":"Force","location":{"latitude":"51.514983","street":{"id":956949,"name":"On or near Shopping Area"},"longitude":"-0.147822"},"context":"","outcome_status":null,"persistent_id":"","id":98969057,"location_subtype":"","month":"2022-01"},{"category":"anti-social-behaviour","location_type":"Force","location":{"latitude":"51.514983","street":{"id":956949,"name":"On or near Shopping Area"},"longitude":"-0.147822"},"context":"","outcome_status":null,"persistent_id":"","id":98969056,"location_subtype":"","month":"2022-01"},{"category":"anti-social-behaviour","location_type":"Force","location":{"latitude":"51.514983","street":{"id":956949,"name":"On or near Shopping Area"},"longitude":"-0.147822"},"context":"","outcome_status":null,"persistent_id":"","id":98969055,"location_subtype":"","month":"2022-01"},{"category":"anti-social-behaviour","location_type":"Force","location":{"latitude":"51.514983","street":{"id":956949,"name":"On or near Shopping Area"},"longitude":"-0.147822"},"context":"","outcome_status":null,"persistent_id":"","id":98969054,"location_subtype":"","month":"2022-01"},{"category":"anti-social-behaviour","location_type":"Force","location":{"latitude":"51.514983","street":{"id":956949,"name":"On or near Shopping Area"},"longitude":"-0.147822"},"context":"","outcome_status":null,"persistent_id":"","id":98969053,"location_subtype":"","month":"2022-01"},{"category":"anti-social-behaviour","location_type":"Force","location":{"latitude":"51.514983","street":{"id":956949,"name":"On or near Shopping Area"},"longitude":"-0.147822"},"context":"","outcome_status":null,"persistent_id":"","id":98969052,"location_subtype":"","month":"2022-01"},{"category":"anti-social-behaviour","location_type":"Force","location":{"latitude":"51.514983","street":{"id":956949,"name":"On or near Shopping Area"},"longitude":"-0.147822"},"context":"","outcome_status":null,"persistent_id":"","id":98969051,"location_subtype":"","month":"2022-01"},{"category":"anti-social-behaviour","location_type":"Force","location":{"latitude":"51.514983","street":{"id":956949,"name":"On or near Shopping Area"},"longitude":"-0.147822"},"context":"","outcome_status":null,"persistent_id":"","id":98969050,"location_subtype":"","month":"2022-01"},{"category":"anti-social-behaviour","location_type":"Force","location":{"latitude":"51.514983","street":{"id":956949,"name":"On or near Shopping Area"},"longitude":"-0.147822"},"context":"","outcome_status":null,"persistent_id":"","id":98969049,"location_subtype":"","month":"2022-01"},{"category":"anti-social-behaviour","location_type":"Force","location":{"latitude":"51.514983","street":{"id":956949,"name":"On or near Shopping Area"},"longitude":"-0.147822"},"context":"","outcome_status":null,"persistent_id":"","id":98969048,"location_subtype":"","month":"2022-01"},{"category":"anti-social-behaviour","location_type":"Force","location":{"latitude":"51.514862","street":{"id":956819,"name":"On or near Stratford Place"},"longitude":"-0.149297"},"context":"","outcome_status":null,"persistent_id":"","id":98969041,"location_subtype":"","month":"2022-01"},{"category":"anti-social-behaviour","location_type":"Force","location":{"latitude":"51.514862","street":{"id":956819,"name":"On or near Stratford Place"},"longitude":"-0.149297"},"context":"","outcome_status":null,"persistent_id":"","id":98969040,"location_subtype":"","month":"2022-01"},{"category":"anti-social-behaviour","location_type":"Force","location":{"latitude":"51.536667","street":{"id":965394,"name":"On or near Coventry Close"},"longitude":"-0.193026"},"context":"","outcome_status":null,"persistent_id":"","id":98978641,"location_subtype":"","month":"2022-01"},{"category":"anti-social-behaviour","location_type":"Force","location":{"latitude":"51.521789","street":{"id":960469,"name":"On or near Bendall Mews"},"longitude":"-0.165492"},"context":"","outcome_status":null,"persistent_id":"","id":98979549,"location_subtype":"","month":"2022-01"},{"category":"anti-social-behaviour","location_type":"Force","location":{"latitude":"51.521789","street":{"id":960469,"name":"On or near Bendall Mews"},"longitude":"-0.165492"},"context":"","outcome_status":null,"persistent_id":"","id":98979550,"location_subtype":"","month":"2022-01"},{"category":"anti-social-behaviour","location_type":"Force","location":{"latitude":"51.523735","street":{"id":960423,"name":"On or near Boston Place"},"longitude":"-0.162848"},"context":"","outcome_status":null,"persistent_id":"","id":98979552,"location_subtype":"","month":"2022-01"},{"category":"anti-social-behaviour","location_type":"Force","location":{"latitude":"51.516445","street":{"id":956759,"name":"On or near Forset Street"},"longitude":"-0.164179"},"context":"","outcome_status":null,"persistent_id":"","id":98979553,"location_subtype":"","month":"2022-01"},{"category":"anti-social-behaviour","location_type":"Force","location":{"latitude":"51.516445","street":{"id":956759,"name":"On or near Forset Street"},"longitude":"-0.164179"},"context":"","outcome_status":null,"persistent_id":"","id":98979554,"location_subtype":"","month":"2022-01"},{"category":"anti-social-behaviour","location_type":"Force","location":{"latitude":"51.516445","street":{"id":956759,"name":"On or near Forset Street"},"longitude":"-0.164179"},"context":"","outcome_status":null,"persistent_id":"","id":98979555,"location_subtype":"","month":"2022-01"},{"category":"anti-social-behaviour","location_type":"Force","location":{"latitude":"51.516445","street":{"id":956759,"name":"On or near Forset Street"},"longitude":"-0.164179"},"context":"","outcome_status":null,"persistent_id":"","id":98979556,"location_subtype":"","month":"2022-01"},{"category":"anti-social-behaviour","location_type":"Force","location":{"latitude":"51.516445","street":{"id":956759,"name":"On or near Forset Street"},"longitude":"-0.164179"},"context":"","outcome_status":null,"persistent_id":"","id":98979557,"location_subtype":"","month":"2022-01"},{"category":"anti-social-behaviour","location_type":"Force","location":{"latitude":"51.515180","street":{"id":956739,"name":"On or near Portsea Place"},"longitude":"-0.164374"},"context":"","outcome_status":null,"persistent_id":"","id":98979558,"location_subtype":"","month":"2022-01"},{"category":"anti-social-behaviour","location_type":"Force","location":{"latitude":"51.520774","street":{"id":960463,"name":"On or near Cosway Street"},"longitude":"-0.165533"},"context":"","outcome_status":null,"persistent_id":"","id":98979559,"location_subtype":"","month":"2022-01"},{"category":"anti-social-behaviour","location_type":"Force","location":{"latitude":"51.515180","street":{"id":956739,"name":"On or near Portsea Place"},"longitude":"-0.164374"},"context":"","outcome_status":null,"persistent_id":"","id":98979561,"location_subtype":"","month":"2022-01"},{"category":"anti-social-behaviour","location_type":"Force","location":{"latitude":"51.517415","street":{"id":956792,"name":"On or near Harrowby Street"},"longitude":"-0.164111"},"context":"","outcome_status":null,"persistent_id":"","id":98979562,"location_subtype":"","month":"2022-01"},{"category":"anti-social-behaviour","location_type":"Force","location":{"latitude":"51.518027","street":{"id":956781,"name":"On or near Parking Area"},"longitude":"-0.162991"},"context":"","outcome_status":null,"persistent_id":"","id":98979563,"location_subtype":"","month":"2022-01"},{"category":"anti-social-behaviour","location_type":"Force","location":{"latitude":"51.522325","street":{"id":960399,"name":"On or near Melcombe Place"},"longitude":"-0.162357"},"context":"","outcome_status":null,"persistent_id":"","id":98979564,"location_subtype":"","month":"2022-01"},{"category":"anti-social-behaviour","location_type":"Force","location":{"latitude":"51.522325","street":{"id":960399,"name":"On or near Melcombe Place"},"longitude":"-0.162357"},"context":"","outcome_status":null,"persistent_id":"","id":98979565,"location_subtype":"","month":"2022-01"},{"category":"anti-social-behaviour","location_type":"Force","location":{"latitude":"51.522325","street":{"id":960399,"name":"On or near Melcombe Place"},"longitude":"-0.162357"},"context":"","outcome_status":null,"persistent_id":"","id":98979566,"location_subtype":"","month":"2022-01"},{"category":"anti-social-behaviour","location_type":"Force","location":{"latitude":"51.519278","street":{"id":960433,"name":"On or near Parking Area"},"longitude":"-0.162465"},"context":"","outcome_status":null,"persistent_id":"","id":98979567,"location_subtype":"","month":"2022-01"},{"category":"anti-social-behaviour","location_type":"Force","location":{"latitude":"51.519404","street":{"id":960434,"name":"On or near Parking Area"},"longitude":"-0.162460"},"context":"","outcome_status":null,"persistent_id":"","id":98979568,"location_subtype":"","month":"2022-01"},{"category":"anti-social-behaviour","location_type":"Force","location":{"latitude":"51.521855","street":{"id":960456,"name":"On or near Great Central Street"},"longitude":"-0.162203"},"context":"","outcome_status":null,"persistent_id":"","id":98979569,"location_subtype":"","month":"2022-01"},{"category":"anti-social-behaviour","location_type":"Force","location":{"latitude":"51.516765","street":{"id":956745,"name":"On or near Nutford Place"},"longitude":"-0.163359"},"context":"","outcome_status":null,"persistent_id":"","id":98979570,"location_subtype":"","month":"2022-01"},{"category":"anti-social-behaviour","location_type":"Force","location":{"latitude":"51.519617","street":{"id":960444,"name":"On or near Tarrant Place"},"longitude":"-0.162293"},"context":"","outcome_status":null,"persistent_id":"","id":98979571,"location_subtype":"","month":"2022-01"},{"category":"anti-social-behaviour","location_type":"Force","location":{"latitude":"51.525998","street":{"id":960378,"name":"On or near Parking Area"},"longitude":"-0.162612"},"context":"","outcome_status":null,"persistent_id":"","id":98979572,"location_subtype":"","month":"2022-01"},{"category":"anti-social-behaviour","location_type":"Force","location":{"latitude":"51.516730","street":{"id":956419,"name":"On or near Shopping Area"},"longitude":"-0.142303"},"context":"","outcome_status":null,"persistent_id":"","id":98969127,"location_subtype":"","month":"2022-01"},{"category":"anti-social-behaviour","location_type":"Force","location":{"latitude":"51.514862","street":{"id":956819,"name":"On or near Stratford Place"},"longitude":"-0.149297"},"context":"","outcome_status":null,"persistent_id":"","id":98969037,"location_subtype":"","month":"2022-01"},{"category":"anti-social-behaviour","location_type":"Force","location":{"latitude":"51.514862","street":{"id":956819,"name":"On or near Stratford Place"},"longitude":"-0.149297"},"context":"","outcome_status":null,"persistent_id":"","id":98969038,"location_subtype":"","month":"2022-01"},{"category":"anti-social-behaviour","location_type":"Force","location":{"latitude":"51.514862","street":{"id":956819,"name":"On or near Stratford Place"},"longitude":"-0.149297"},"context":"","outcome_status":null,"persistent_id":"","id":98969039,"location_subtype":"","month":"2022-01"},{"category":"anti-social-behaviour","location_type":"Force","location":{"latitude":"51.533665","street":{"id":965003,"name":"On or near Mornington Place"},"longitude":"-0.141296"},"context":"","outcome_status":null,"persistent_id":"","id":98972816,"location_subtype":"","month":"2022-01"},{"category":"anti-social-behaviour","location_type":"Force","location":{"latitude":"51.536366","street":{"id":964862,"name":"On or near Mary Terrace"},"longitude":"-0.141518"},"context":"","outcome_status":null,"persistent_id":"","id":98972359,"location_subtype":"","month":"2022-01"},{"category":"anti-social-behaviour","location_type":"Force","location":{"latitude":"51.538307","street":{"id":964871,"name":"On or near Greenland Street"},"longitude":"-0.141424"},"context":"","outcome_status":null,"persistent_id":"","id":98972358,"location_subtype":"","month":"2022-01"},{"category":"anti-social-behaviour","location_type":"Force","location":{"latitude":"51.523313","street":{"id":960647,"name":"On or near Warren Mews"},"longitude":"-0.141746"},"context":"","outcome_status":null,"persistent_id":"","id":98972352,"location_subtype":"","month":"2022-01"},{"category":"anti-social-behaviour","location_type":"Force","location":{"latitude":"51.539189","street":{"id":964900,"name":"On or near Theatre\/concert Hall"},"longitude":"-0.142008"},"context":"","outcome_status":null,"persistent_id":"","id":98972351,"location_subtype":"","month":"2022-01"},{"category":"anti-social-behaviour","location_type":"Force","location":{"latitude":"51.534799","street":{"id":964860,"name":"On or near Mornington Street"},"longitude":"-0.142490"},"context":"","outcome_status":null,"persistent_id":"","id":98972344,"location_subtype":"","month":"2022-01"},{"category":"anti-social-behaviour","location_type":"Force","location":{"latitude":"51.534517","street":{"id":965007,"name":"On or near Mornington Terrace"},"longitude":"-0.142876"},"context":"","outcome_status":null,"persistent_id":"","id":98972341,"location_subtype":"","month":"2022-01"},{"category":"anti-social-behaviour","location_type":"Force","location":{"latitude":"51.525853","street":{"id":960615,"name":"On or near Little Albany Street"},"longitude":"-0.143748"},"context":"","outcome_status":null,"persistent_id":"","id":98972338,"location_subtype":"","month":"2022-01"},{"category":"anti-social-behaviour","location_type":"Force","location":{"latitude":"51.533848","street":{"id":965006,"name":"On or near Park Village East"},"longitude":"-0.143769"},"context":"","outcome_status":null,"persistent_id":"","id":98972335,"location_subtype":"","month":"2022-01"},{"category":"anti-social-behaviour","location_type":"Force","location":{"latitude":"51.525044","street":{"id":960611,"name":"On or near Osnaburgh Street"},"longitude":"-0.143146"},"context":"","outcome_status":null,"persistent_id":"","id":98972333,"location_subtype":"","month":"2022-01"},{"category":"anti-social-behaviour","location_type":"Force","location":{"latitude":"51.539681","street":{"id":964928,"name":"On or near Nightclub"},"longitude":"-0.142998"},"context":"","outcome_status":null,"persistent_id":"","id":98972330,"location_subtype":"","month":"2022-01"},{"category":"anti-social-behaviour","location_type":"Force","location":{"latitude":"51.539681","street":{"id":964928,"name":"On or near Nightclub"},"longitude":"-0.142998"},"context":"","outcome_status":null,"persistent_id":"","id":98972329,"location_subtype":"","month":"2022-01"},{"category":"anti-social-behaviour","location_type":"Force","location":{"latitude":"51.531282","street":{"id":960619,"name":"On or near Edward Mews"},"longitude":"-0.144709"},"context":"","outcome_status":null,"persistent_id":"","id":98972324,"location_subtype":"","month":"2022-01"},{"category":"anti-social-behaviour","location_type":"Force","location":{"latitude":"51.531282","street":{"id":960619,"name":"On or near Edward Mews"},"longitude":"-0.144709"},"context":"","outcome_status":null,"persistent_id":"","id":98972323,"location_subtype":"","month":"2022-01"},{"category":"anti-social-behaviour","location_type":"Force","location":{"latitude":"51.533848","street":{"id":965006,"name":"On or near Park Village East"},"longitude":"-0.143769"},"context":"","outcome_status":null,"persistent_id":"","id":98972322,"location_subtype":"","month":"2022-01"},{"category":"anti-social-behaviour","location_type":"Force","location":{"latitude":"51.528984","street":{"id":960612,"name":"On or near Nash Street"},"longitude":"-0.143837"},"context":"","outcome_status":null,"persistent_id":"","id":98972321,"location_subtype":"","month":"2022-01"},{"category":"anti-social-behaviour","location_type":"Force","location":{"latitude":"51.539337","street":{"id":964915,"name":"On or near Inverness Street"},"longitude":"-0.144583"},"context":"","outcome_status":null,"persistent_id":"","id":98972305,"location_subtype":"","month":"2022-01"},{"category":"anti-social-behaviour","location_type":"Force","location":{"latitude":"51.539337","street":{"id":964915,"name":"On or near Inverness Street"},"longitude":"-0.144583"},"context":"","outcome_status":null,"persistent_id":"","id":98972304,"location_subtype":"","month":"2022-01"},{"category":"anti-social-behaviour","location_type":"Force","location":{"latitude":"51.529100","street":{"id":960621,"name":"On or near Chester Terrace"},"longitude":"-0.145461"},"context":"","outcome_status":null,"persistent_id":"","id":98972302,"location_subtype":"","month":"2022-01"},{"category":"anti-social-behaviour","location_type":"Force","location":{"latitude":"51.529100","street":{"id":960621,"name":"On or near Chester Terrace"},"longitude":"-0.145461"},"context":"","outcome_status":null,"persistent_id":"","id":98972301,"location_subtype":"","month":"2022-01"},{"category":"anti-social-behaviour","location_type":"Force","location":{"latitude":"51.537761","street":{"id":964912,"name":"On or near Parkway"},"longitude":"-0.144979"},"context":"","outcome_status":null,"persistent_id":"","id":98972300,"location_subtype":"","month":"2022-01"},{"category":"anti-social-behaviour","location_type":"Force","location":{"latitude":"51.537761","street":{"id":964912,"name":"On or near Parkway"},"longitude":"-0.144979"},"context":"","outcome_status":null,"persistent_id":"","id":98972299,"location_subtype":"","month":"2022-01"},{"category":"anti-social-behaviour","location_type":"Force","location":{"latitude":"51.537761","street":{"id":964912,"name":"On or near Parkway"},"longitude":"-0.144979"},"context":"","outcome_status":null,"persistent_id":"","id":98972298,"location_subtype":"","month":"2022-01"},{"category":"anti-social-behaviour","location_type":"Force","location":{"latitude":"51.538143","street":{"id":964919,"name":"On or near Gloucester Crescent"},"longitude":"-0.145843"},"context":"","outcome_status":null,"persistent_id":"","id":98972295,"location_subtype":"","month":"2022-01"},{"category":"anti-social-behaviour","location_type":"Force","location":{"latitude":"51.538143","street":{"id":964919,"name":"On or near Gloucester Crescent"},"longitude":"-0.145843"},"context":"","outcome_status":null,"persistent_id":"","id":98972294,"location_subtype":"","month":"2022-01"},{"category":"anti-social-behaviour","location_type":"Force","location":{"latitude":"51.532153","street":{"id":965132,"name":"On or near Cumberland Terrace"},"longitude":"-0.146317"},"context":"","outcome_status":null,"persistent_id":"","id":98972286,"location_subtype":"","month":"2022-01"},{"category":"anti-social-behaviour","location_type":"Force","location":{"latitude":"51.538977","street":{"id":965081,"name":"On or near Oval Road"},"longitude":"-0.147381"},"context":"","outcome_status":null,"persistent_id":"","id":98972273,"location_subtype":"","month":"2022-01"},{"category":"anti-social-behaviour","location_type":"Force","location":{"latitude":"51.538803","street":{"id":965069,"name":"On or near St Mark's Crescent"},"longitude":"-0.150618"},"context":"","outcome_status":null,"persistent_id":"","id":98972262,"location_subtype":"","month":"2022-01"},{"category":"anti-social-behaviour","location_type":"Force","location":{"latitude":"51.538803","street":{"id":965069,"name":"On or near St Mark's Crescent"},"longitude":"-0.150618"},"context":"","outcome_status":null,"persistent_id":"","id":98972260,"location_subtype":"","month":"2022-01"},{"category":"anti-social-behaviour","location_type":"Force","location":{"latitude":"51.538803","street":{"id":965069,"name":"On or near St Mark's Crescent"},"longitude":"-0.150618"},"context":"","outcome_status":null,"persistent_id":"","id":98972259,"location_subtype":"","month":"2022-01"},{"category":"anti-social-behaviour","location_type":"Force","location":{"latitude":"51.538803","street":{"id":965069,"name":"On or near St Mark's Crescent"},"longitude":"-0.150618"},"context":"","outcome_status":null,"persistent_id":"","id":98972258,"location_subtype":"","month":"2022-01"},{"category":"anti-social-behaviour","location_type":"Force","location":{"latitude":"51.539841","street":{"id":965112,"name":"On or near Chalcot Road"},"longitude":"-0.153143"},"context":"","outcome_status":null,"persistent_id":"","id":98972250,"location_subtype":"","month":"2022-01"},{"category":"anti-social-behaviour","location_type":"Force","location":{"latitude":"51.539498","street":{"id":965114,"name":"On or near Calvert Street"},"longitude":"-0.153070"},"context":"","outcome_status":null,"persistent_id":"","id":98972249,"location_subtype":"","month":"2022-01"},{"category":"anti-social-behaviour","location_type":"Force","location":{"latitude":"51.525183","street":{"id":960391,"name":"On or near Rossmore Road"},"longitude":"-0.164015"},"context":"","outcome_status":null,"persistent_id":"","id":98972038,"location_subtype":"","month":"2022-01"},{"category":"anti-social-behaviour","location_type":"Force","location":{"latitude":"51.519971","street":{"id":960455,"name":"On or near Harcourt Street"},"longitude":"-0.164801"},"context":"","outcome_status":null,"persistent_id":"","id":98972037,"location_subtype":"","month":"2022-01"},{"category":"anti-social-behaviour","location_type":"Force","location":{"latitude":"51.535349","street":{"id":965053,"name":"On or near Avenue Road"},"longitude":"-0.164298"},"context":"","outcome_status":null,"persistent_id":"","id":98972036,"location_subtype":"","month":"2022-01"},{"category":"anti-social-behaviour","location_type":"Force","location":{"latitude":"51.535349","street":{"id":965053,"name":"On or near Avenue Road"},"longitude":"-0.164298"},"context":"","outcome_status":null,"persistent_id":"","id":98972035,"location_subtype":"","month":"2022-01"},{"category":"anti-social-behaviour","location_type":"Force","location":{"latitude":"51.528512","street":{"id":960413,"name":"On or near Hanover Gate"},"longitude":"-0.164717"},"context":"","outcome_status":null,"persistent_id":"","id":98972034,"location_subtype":"","month":"2022-01"},{"category":"anti-social-behaviour","location_type":"Force","location":{"latitude":"51.516598","street":{"id":956760,"name":"On or near Edgware Road"},"longitude":"-0.165311"},"context":"","outcome_status":null,"persistent_id":"","id":98972033,"location_subtype":"","month":"2022-01"},{"category":"anti-social-behaviour","location_type":"Force","location":{"latitude":"51.515144","street":{"id":956752,"name":"On or near Kendal Street"},"longitude":"-0.165485"},"context":"","outcome_status":null,"persistent_id":"","id":98972032,"location_subtype":"","month":"2022-01"},{"category":"anti-social-behaviour","location_type":"Force","location":{"latitude":"51.515144","street":{"id":956752,"name":"On or near Kendal Street"},"longitude":"-0.165485"},"context":"","outcome_status":null,"persistent_id":"","id":98972031,"location_subtype":"","month":"2022-01"},{"category":"anti-social-behaviour","location_type":"Force","location":{"latitude":"51.517988","street":{"id":956796,"name":"On or near Cato Street"},"longitude":"-0.165082"},"context":"","outcome_status":null,"persistent_id":"","id":98972030,"location_subtype":"","month":"2022-01"},{"category":"anti-social-behaviour","location_type":"Force","location":{"latitude":"51.525250","street":{"id":960410,"name":"On or near Harewood Avenue"},"longitude":"-0.165987"},"context":"","outcome_status":null,"persistent_id":"","id":98972028,"location_subtype":"","month":"2022-01"},{"category":"anti-social-behaviour","location_type":"Force","location":{"latitude":"51.521789","street":{"id":960469,"name":"On or near Bendall Mews"},"longitude":"-0.165492"},"context":"","outcome_status":null,"persistent_id":"","id":98972027,"location_subtype":"","month":"2022-01"},{"category":"anti-social-behaviour","location_type":"Force","location":{"latitude":"51.521789","street":{"id":960469,"name":"On or near Bendall Mews"},"longitude":"-0.165492"},"context":"","outcome_status":null,"persistent_id":"","id":98972026,"location_subtype":"","month":"2022-01"},{"category":"anti-social-behaviour","location_type":"Force","location":{"latitude":"51.521789","street":{"id":960469,"name":"On or near Bendall Mews"},"longitude":"-0.165492"},"context":"","outcome_status":null,"persistent_id":"","id":98972025,"location_subtype":"","month":"2022-01"},{"category":"anti-social-behaviour","location_type":"Force","location":{"latitude":"51.518296","street":{"id":956795,"name":"On or near Crawford Place"},"longitude":"-0.165791"},"context":"","outcome_status":null,"persistent_id":"","id":98972024,"location_subtype":"","month":"2022-01"},{"category":"anti-social-behaviour","location_type":"Force","location":{"latitude":"51.516656","street":{"id":956770,"name":"On or near Burwood Place"},"longitude":"-0.166145"},"context":"","outcome_status":null,"persistent_id":"","id":98972022,"location_subtype":"","month":"2022-01"},{"category":"anti-social-behaviour","location_type":"Force","location":{"latitude":"51.535741","street":{"id":965054,"name":"On or near Allitsen Road"},"longitude":"-0.166358"},"context":"","outcome_status":null,"persistent_id":"","id":98972021,"location_subtype":"","month":"2022-01"},{"category":"anti-social-behaviour","location_type":"Force","location":{"latitude":"51.534750","street":{"id":965136,"name":"On or near Shannon Place"},"longitude":"-0.166240"},"context":"","outcome_status":null,"persistent_id":"","id":98972020,"location_subtype":"","month":"2022-01"},{"category":"anti-social-behaviour","location_type":"Force","location":{"latitude":"51.524829","street":{"id":960400,"name":"On or near Mallory Street"},"longitude":"-0.166667"},"context":"","outcome_status":null,"persistent_id":"","id":98972019,"location_subtype":"","month":"2022-01"},{"category":"anti-social-behaviour","location_type":"Force","location":{"latitude":"51.521207","street":{"id":960454,"name":"On or near Highworth Street"},"longitude":"-0.166784"},"context":"","outcome_status":null,"persistent_id":"","id":98972018,"location_subtype":"","month":"2022-01"},{"category":"anti-social-behaviour","location_type":"Force","location":{"latitude":"51.521207","street":{"id":960454,"name":"On or near Highworth Street"},"longitude":"-0.166784"},"context":"","outcome_status":null,"persistent_id":"","id":98972017,"location_subtype":"","month":"2022-01"},{"category":"anti-social-behaviour","location_type":"Force","location":{"latitude":"51.525254","street":{"id":960404,"name":"On or near Lilestone Street"},"longitude":"-0.167414"},"context":"","outcome_status":null,"persistent_id":"","id":98972016,"location_subtype":"","month":"2022-01"},{"category":"anti-social-behaviour","location_type":"Force","location":{"latitude":"51.522646","street":{"id":960426,"name":"On or near Ashmill Street"},"longitude":"-0.167375"},"context":"","outcome_status":null,"persistent_id":"","id":98972015,"location_subtype":"","month":"2022-01"},{"category":"anti-social-behaviour","location_type":"Force","location":{"latitude":"51.517975","street":{"id":957090,"name":"On or near Junction Mews"},"longitude":"-0.168845"},"context":"","outcome_status":null,"persistent_id":"","id":98972014,"location_subtype":"","month":"2022-01"},{"category":"anti-social-behaviour","location_type":"Force","location":{"latitude":"51.527419","street":{"id":960421,"name":"On or near Casey Close"},"longitude":"-0.167255"},"context":"","outcome_status":null,"persistent_id":"","id":98972013,"location_subtype":"","month":"2022-01"},{"category":"anti-social-behaviour","location_type":"Force","location":{"latitude":"51.521369","street":{"id":960341,"name":"On or near Bell Street"},"longitude":"-0.167945"},"context":"","outcome_status":null,"persistent_id":"","id":98972012,"location_subtype":"","month":"2022-01"},{"category":"anti-social-behaviour","location_type":"Force","location":{"latitude":"51.521369","street":{"id":960341,"name":"On or near Bell Street"},"longitude":"-0.167945"},"context":"","outcome_status":null,"persistent_id":"","id":98972011,"location_subtype":"","month":"2022-01"},{"category":"anti-social-behaviour","location_type":"Force","location":{"latitude":"51.514680","street":{"id":956733,"name":"On or near Titchborne Row"},"longitude":"-0.167478"},"context":"","outcome_status":null,"persistent_id":"","id":98972010,"location_subtype":"","month":"2022-01"},{"category":"anti-social-behaviour","location_type":"Force","location":{"latitude":"51.514680","street":{"id":956733,"name":"On or near Titchborne Row"},"longitude":"-0.167478"},"context":"","outcome_status":null,"persistent_id":"","id":98972009,"location_subtype":"","month":"2022-01"},{"category":"anti-social-behaviour","location_type":"Force","location":{"latitude":"51.519227","street":{"id":960466,"name":"On or near Cabbell Street"},"longitude":"-0.167858"},"context":"","outcome_status":null,"persistent_id":"","id":98972008,"location_subtype":"","month":"2022-01"},{"category":"anti-social-behaviour","location_type":"Force","location":{"latitude":"51.519227","street":{"id":960466,"name":"On or near Cabbell Street"},"longitude":"-0.167858"},"context":"","outcome_status":null,"persistent_id":"","id":98972006,"location_subtype":"","month":"2022-01"},{"category":"anti-social-behaviour","location_type":"Force","location":{"latitude":"51.519227","street":{"id":960466,"name":"On or near Cabbell Street"},"longitude":"-0.167858"},"context":"","outcome_status":null,"persistent_id":"","id":98972005,"location_subtype":"","month":"2022-01"},{"category":"anti-social-behaviour","location_type":"Force","location":{"latitude":"51.521463","street":{"id":960338,"name":"On or near Lisson Street"},"longitude":"-0.168215"},"context":"","outcome_status":null,"persistent_id":"","id":98972004,"location_subtype":"","month":"2022-01"},{"category":"anti-social-behaviour","location_type":"Force","location":{"latitude":"51.521463","street":{"id":960338,"name":"On or near Lisson Street"},"longitude":"-0.168215"},"context":"","outcome_status":null,"persistent_id":"","id":98972003,"location_subtype":"","month":"2022-01"},{"category":"anti-social-behaviour","location_type":"Force","location":{"latitude":"51.521463","street":{"id":960338,"name":"On or near Lisson Street"},"longitude":"-0.168215"},"context":"","outcome_status":null,"persistent_id":"","id":98972002,"location_subtype":"","month":"2022-01"},{"category":"anti-social-behaviour","location_type":"Force","location":{"latitude":"51.521463","street":{"id":960338,"name":"On or near Lisson Street"},"longitude":"-0.168215"},"context":"","outcome_status":null,"persistent_id":"","id":98972001,"location_subtype":"","month":"2022-01"},{"category":"anti-social-behaviour","location_type":"Force","location":{"latitude":"51.521463","street":{"id":960338,"name":"On or near Lisson Street"},"longitude":"-0.168215"},"context":"","outcome_status":null,"persistent_id":"","id":98972000,"location_subtype":"","month":"2022-01"},{"category":"anti-social-behaviour","location_type":"Force","location":{"latitude":"51.523406","street":{"id":960226,"name":"On or near Ashbridge Street"},"longitude":"-0.168238"},"context":"","outcome_status":null,"persistent_id":"","id":98971999,"location_subtype":"","month":"2022-01"},{"category":"anti-social-behaviour","location_type":"Force","location":{"latitude":"51.536772","street":{"id":965182,"name":"On or near Townshend Road"},"longitude":"-0.167860"},"context":"","outcome_status":null,"persistent_id":"","id":98971998,"location_subtype":"","month":"2022-01"},{"category":"anti-social-behaviour","location_type":"Force","location":{"latitude":"51.533760","street":{"id":965135,"name":"On or near Charlbert Street"},"longitude":"-0.167318"},"context":"","outcome_status":null,"persistent_id":"","id":98971997,"location_subtype":"","month":"2022-01"},{"category":"anti-social-behaviour","location_type":"Force","location":{"latitude":"51.535578","street":{"id":965183,"name":"On or near St John's Wood Terrace"},"longitude":"-0.167980"},"context":"","outcome_status":null,"persistent_id":"","id":98971996,"location_subtype":"","month":"2022-01"},{"category":"anti-social-behaviour","location_type":"Force","location":{"latitude":"51.535578","street":{"id":965183,"name":"On or near St John's Wood Terrace"},"longitude":"-0.167980"},"context":"","outcome_status":null,"persistent_id":"","id":98971995,"location_subtype":"","month":"2022-01"},{"category":"anti-social-behaviour","location_type":"Force","location":{"latitude":"51.526276","street":{"id":960219,"name":"On or near Jerome Crescent"},"longitude":"-0.169492"},"context":"","outcome_status":null,"persistent_id":"","id":98971994,"location_subtype":"","month":"2022-01"},{"category":"anti-social-behaviour","location_type":"Force","location":{"latitude":"51.534323","street":{"id":965263,"name":"On or near Allitsen Road"},"longitude":"-0.168247"},"context":"","outcome_status":null,"persistent_id":"","id":98971993,"location_subtype":"","month":"2022-01"},{"category":"anti-social-behaviour","location_type":"Force","location":{"latitude":"51.534323","street":{"id":965263,"name":"On or near Allitsen Road"},"longitude":"-0.168247"},"context":"","outcome_status":null,"persistent_id":"","id":98971992,"location_subtype":"","month":"2022-01"},{"category":"anti-social-behaviour","location_type":"Force","location":{"latitude":"51.519657","street":{"id":960342,"name":"On or near Shopping Area"},"longitude":"-0.168849"},"context":"","outcome_status":null,"persistent_id":"","id":98971991,"location_subtype":"","month":"2022-01"},{"category":"anti-social-behaviour","location_type":"Force","location":{"latitude":"51.517545","street":{"id":957089,"name":"On or near Rainsford Street"},"longitude":"-0.169554"},"context":"","outcome_status":null,"persistent_id":"","id":98971990,"location_subtype":"","month":"2022-01"},{"category":"anti-social-behaviour","location_type":"Force","location":{"latitude":"51.519657","street":{"id":960342,"name":"On or near Shopping Area"},"longitude":"-0.168849"},"context":"","outcome_status":null,"persistent_id":"","id":98971989,"location_subtype":"","month":"2022-01"},{"category":"anti-social-behaviour","location_type":"Force","location":{"latitude":"51.519657","street":{"id":960342,"name":"On or near Shopping Area"},"longitude":"-0.168849"},"context":"","outcome_status":null,"persistent_id":"","id":98971988,"location_subtype":"","month":"2022-01"},{"category":"anti-social-behaviour","location_type":"Force","location":{"latitude":"51.519657","street":{"id":960342,"name":"On or near Shopping Area"},"longitude":"-0.168849"},"context":"","outcome_status":null,"persistent_id":"","id":98971987,"location_subtype":"","month":"2022-01"},{"category":"anti-social-behaviour","location_type":"Force","location":{"latitude":"51.519657","street":{"id":960342,"name":"On or near Shopping Area"},"longitude":"-0.168849"},"context":"","outcome_status":null,"persistent_id":"","id":98971986,"location_subtype":"","month":"2022-01"},{"category":"anti-social-behaviour","location_type":"Force","location":{"latitude":"51.519657","street":{"id":960342,"name":"On or near Shopping Area"},"longitude":"-0.168849"},"context":"","outcome_status":null,"persistent_id":"","id":98971985,"location_subtype":"","month":"2022-01"},{"category":"anti-social-behaviour","location_type":"Force","location":{"latitude":"51.521110","street":{"id":960316,"name":"On or near Penfold Place"},"longitude":"-0.170391"},"context":"","outcome_status":null,"persistent_id":"","id":98971984,"location_subtype":"","month":"2022-01"},{"category":"anti-social-behaviour","location_type":"Force","location":{"latitude":"51.516447","street":{"id":957029,"name":"On or near Southwick Street"},"longitude":"-0.170045"},"context":"","outcome_status":null,"persistent_id":"","id":98971983,"location_subtype":"","month":"2022-01"},{"category":"anti-social-behaviour","location_type":"Force","location":{"latitude":"51.516447","street":{"id":957029,"name":"On or near Southwick Street"},"longitude":"-0.170045"},"context":"","outcome_status":null,"persistent_id":"","id":98971982,"location_subtype":"","month":"2022-01"},{"category":"anti-social-behaviour","location_type":"Force","location":{"latitude":"51.516447","street":{"id":957029,"name":"On or near Southwick Street"},"longitude":"-0.170045"},"context":"","outcome_status":null,"persistent_id":"","id":98971981,"location_subtype":"","month":"2022-01"},{"category":"anti-social-behaviour","location_type":"Force","location":{"latitude":"51.524526","street":{"id":960227,"name":"On or near Theatre\/concert Hall"},"longitude":"-0.169692"},"context":"","outcome_status":null,"persistent_id":"","id":98971980,"location_subtype":"","month":"2022-01"},{"category":"anti-social-behaviour","location_type":"Force","location":{"latitude":"51.528773","street":{"id":960162,"name":"On or near Oak Tree Road"},"longitude":"-0.170473"},"context":"","outcome_status":null,"persistent_id":"","id":98971979,"location_subtype":"","month":"2022-01"},{"category":"anti-social-behaviour","location_type":"Force","location":{"latitude":"51.519392","street":{"id":960324,"name":"On or near Harbet Road"},"longitude":"-0.170907"},"context":"","outcome_status":null,"persistent_id":"","id":98971978,"location_subtype":"","month":"2022-01"},{"category":"anti-social-behaviour","location_type":"Force","location":{"latitude":"51.519392","street":{"id":960324,"name":"On or near Harbet Road"},"longitude":"-0.170907"},"context":"","outcome_status":null,"persistent_id":"","id":98971977,"location_subtype":"","month":"2022-01"},{"category":"anti-social-behaviour","location_type":"Force","location":{"latitude":"51.524526","street":{"id":960227,"name":"On or near Theatre\/concert Hall"},"longitude":"-0.169692"},"context":"","outcome_status":null,"persistent_id":"","id":98971976,"location_subtype":"","month":"2022-01"},{"category":"anti-social-behaviour","location_type":"Force","location":{"latitude":"51.526276","street":{"id":960219,"name":"On or near Jerome Crescent"},"longitude":"-0.169492"},"context":"","outcome_status":null,"persistent_id":"","id":98971975,"location_subtype":"","month":"2022-01"},{"category":"anti-social-behaviour","location_type":"Force","location":{"latitude":"51.526276","street":{"id":960219,"name":"On or near Jerome Crescent"},"longitude":"-0.169492"},"context":"","outcome_status":null,"persistent_id":"","id":98971974,"location_subtype":"","month":"2022-01"},{"category":"anti-social-behaviour","location_type":"Force","location":{"latitude":"51.534130","street":{"id":965261,"name":"On or near Charles Lane"},"longitude":"-0.169711"},"context":"","outcome_status":null,"persistent_id":"","id":98971971,"location_subtype":"","month":"2022-01"},{"category":"anti-social-behaviour","location_type":"Force","location":{"latitude":"51.528292","street":{"id":960169,"name":"On or near Lodge Road"},"longitude":"-0.170190"},"context":"","outcome_status":null,"persistent_id":"","id":98971970,"location_subtype":"","month":"2022-01"},{"category":"anti-social-behaviour","location_type":"Force","location":{"latitude":"51.526276","street":{"id":960219,"name":"On or near Jerome Crescent"},"longitude":"-0.169492"},"context":"","outcome_status":null,"persistent_id":"","id":98971969,"location_subtype":"","month":"2022-01"},{"category":"anti-social-behaviour","location_type":"Force","location":{"latitude":"51.526276","street":{"id":960219,"name":"On or near Jerome Crescent"},"longitude":"-0.169492"},"context":"","outcome_status":null,"persistent_id":"","id":98971968,"location_subtype":"","month":"2022-01"},{"category":"anti-social-behaviour","location_type":"Force","location":{"latitude":"51.522825","street":{"id":960160,"name":"On or near Penfold Street"},"longitude":"-0.171360"},"context":"","outcome_status":null,"persistent_id":"","id":98971967,"location_subtype":"","month":"2022-01"},{"category":"anti-social-behaviour","location_type":"Force","location":{"latitude":"51.519392","street":{"id":960324,"name":"On or near Harbet Road"},"longitude":"-0.170907"},"context":"","outcome_status":null,"persistent_id":"","id":98971966,"location_subtype":"","month":"2022-01"},{"category":"anti-social-behaviour","location_type":"Force","location":{"latitude":"51.519183","street":{"id":957079,"name":"On or near Parking Area"},"longitude":"-0.171362"},"context":"","outcome_status":null,"persistent_id":"","id":98971965,"location_subtype":"","month":"2022-01"},{"category":"anti-social-behaviour","location_type":"Force","location":{"latitude":"51.519183","street":{"id":957079,"name":"On or near Parking Area"},"longitude":"-0.171362"},"context":"","outcome_status":null,"persistent_id":"","id":98971964,"location_subtype":"","month":"2022-01"},{"category":"anti-social-behaviour","location_type":"Force","location":{"latitude":"51.516610","street":{"id":957051,"name":"On or near Southwick Mews"},"longitude":"-0.171263"},"context":"","outcome_status":null,"persistent_id":"","id":98971963,"location_subtype":"","month":"2022-01"},{"category":"anti-social-behaviour","location_type":"Force","location":{"latitude":"51.516610","street":{"id":957051,"name":"On or near Southwick Mews"},"longitude":"-0.171263"},"context":"","outcome_status":null,"persistent_id":"","id":98971962,"location_subtype":"","month":"2022-01"},{"category":"anti-social-behaviour","location_type":"Force","location":{"latitude":"51.525191","street":{"id":960200,"name":"On or near Capland Street"},"longitude":"-0.170833"},"context":"","outcome_status":null,"persistent_id":"","id":98971961,"location_subtype":"","month":"2022-01"},{"category":"anti-social-behaviour","location_type":"Force","location":{"latitude":"51.516524","street":{"id":957057,"name":"On or near Norfolk Place"},"longitude":"-0.172117"},"context":"","outcome_status":null,"persistent_id":"","id":98971960,"location_subtype":"","month":"2022-01"},{"category":"anti-social-behaviour","location_type":"Force","location":{"latitude":"51.517199","street":{"id":957081,"name":"On or near Praed Street"},"longitude":"-0.172739"},"context":"","outcome_status":null,"persistent_id":"","id":98971958,"location_subtype":"","month":"2022-01"},{"category":"anti-social-behaviour","location_type":"Force","location":{"latitude":"51.517199","street":{"id":957081,"name":"On or near Praed Street"},"longitude":"-0.172739"},"context":"","outcome_status":null,"persistent_id":"","id":98971957,"location_subtype":"","month":"2022-01"},{"category":"anti-social-behaviour","location_type":"Force","location":{"latitude":"51.517199","street":{"id":957081,"name":"On or near Praed Street"},"longitude":"-0.172739"},"context":"","outcome_status":null,"persistent_id":"","id":98971956,"location_subtype":"","month":"2022-01"},{"category":"anti-social-behaviour","location_type":"Force","location":{"latitude":"51.517199","street":{"id":957081,"name":"On or near Praed Street"},"longitude":"-0.172739"},"context":"","outcome_status":null,"persistent_id":"","id":98971955,"location_subtype":"","month":"2022-01"},{"category":"anti-social-behaviour","location_type":"Force","location":{"latitude":"51.525205","street":{"id":960183,"name":"On or near Fisherton Street"},"longitude":"-0.173499"},"context":"","outcome_status":null,"persistent_id":"","id":98971954,"location_subtype":"","month":"2022-01"},{"category":"anti-social-behaviour","location_type":"Force","location":{"latitude":"51.524056","street":{"id":960168,"name":"On or near Luton Street"},"longitude":"-0.172435"},"context":"","outcome_status":null,"persistent_id":"","id":98971953,"location_subtype":"","month":"2022-01"},{"category":"anti-social-behaviour","location_type":"Force","location":{"latitude":"51.522506","street":{"id":960155,"name":"On or near Venables Street"},"longitude":"-0.172786"},"context":"","outcome_status":null,"persistent_id":"","id":98971952,"location_subtype":"","month":"2022-01"},{"category":"anti-social-behaviour","location_type":"Force","location":{"latitude":"51.524695","street":{"id":960182,"name":"On or near Frampton Street"},"longitude":"-0.173044"},"context":"","outcome_status":null,"persistent_id":"","id":98971950,"location_subtype":"","month":"2022-01"},{"category":"anti-social-behaviour","location_type":"Force","location":{"latitude":"51.521418","street":{"id":960327,"name":"On or near Church Street"},"longitude":"-0.173406"},"context":"","outcome_status":null,"persistent_id":"","id":98971949,"location_subtype":"","month":"2022-01"},{"category":"anti-social-behaviour","location_type":"Force","location":{"latitude":"51.521418","street":{"id":960327,"name":"On or near Church Street"},"longitude":"-0.173406"},"context":"","outcome_status":null,"persistent_id":"","id":98971948,"location_subtype":"","month":"2022-01"},{"category":"anti-social-behaviour","location_type":"Force","location":{"latitude":"51.521418","street":{"id":960327,"name":"On or near Church Street"},"longitude":"-0.173406"},"context":"","outcome_status":null,"persistent_id":"","id":98971947,"location_subtype":"","month":"2022-01"},{"category":"anti-social-behaviour","location_type":"Force","location":{"latitude":"51.534196","street":{"id":965269,"name":"On or near Kingsmill Terrace"},"longitude":"-0.172779"},"context":"","outcome_status":null,"persistent_id":"","id":98971946,"location_subtype":"","month":"2022-01"},{"category":"anti-social-behaviour","location_type":"Force","location":{"latitude":"51.523453","street":{"id":960173,"name":"On or near Hatton Street"},"longitude":"-0.173555"},"context":"","outcome_status":null,"persistent_id":"","id":98971945,"location_subtype":"","month":"2022-01"},{"category":"anti-social-behaviour","location_type":"Force","location":{"latitude":"51.517199","street":{"id":957081,"name":"On or near Praed Street"},"longitude":"-0.172739"},"context":"","outcome_status":null,"persistent_id":"","id":98971944,"location_subtype":"","month":"2022-01"},{"category":"anti-social-behaviour","location_type":"Force","location":{"latitude":"51.521418","street":{"id":960327,"name":"On or near Church Street"},"longitude":"-0.173406"},"context":"","outcome_status":null,"persistent_id":"","id":98971942,"location_subtype":"","month":"2022-01"},{"category":"anti-social-behaviour","location_type":"Force","location":{"latitude":"51.516061","street":{"id":957059,"name":"On or near London Mews"},"longitude":"-0.174139"},"context":"","outcome_status":null,"persistent_id":"","id":98971941,"location_subtype":"","month":"2022-01"},{"category":"anti-social-behaviour","location_type":"Force","location":{"latitude":"51.516061","street":{"id":957059,"name":"On or near London Mews"},"longitude":"-0.174139"},"context":"","outcome_status":null,"persistent_id":"","id":98971940,"location_subtype":"","month":"2022-01"},{"category":"anti-social-behaviour","location_type":"Force","location":{"latitude":"51.517199","street":{"id":957081,"name":"On or near Praed Street"},"longitude":"-0.172739"},"context":"","outcome_status":null,"persistent_id":"","id":98971939,"location_subtype":"","month":"2022-01"},{"category":"anti-social-behaviour","location_type":"Force","location":{"latitude":"51.517199","street":{"id":957081,"name":"On or near Praed Street"},"longitude":"-0.172739"},"context":"","outcome_status":null,"persistent_id":"","id":98971938,"location_subtype":"","month":"2022-01"},{"category":"anti-social-behaviour","location_type":"Force","location":{"latitude":"51.522585","street":{"id":960189,"name":"On or near Edgware Road"},"longitude":"-0.173849"},"context":"","outcome_status":null,"persistent_id":"","id":98971937,"location_subtype":"","month":"2022-01"},{"category":"anti-social-behaviour","location_type":"Force","location":{"latitude":"51.524741","street":{"id":960161,"name":"On or near Orchardson Street"},"longitude":"-0.173734"},"context":"","outcome_status":null,"persistent_id":"","id":98971936,"location_subtype":"","month":"2022-01"},{"category":"anti-social-behaviour","location_type":"Force","location":{"latitude":"51.524741","street":{"id":960161,"name":"On or near Orchardson Street"},"longitude":"-0.173734"},"context":"","outcome_status":null,"persistent_id":"","id":98971935,"location_subtype":"","month":"2022-01"},{"category":"anti-social-behaviour","location_type":"Force","location":{"latitude":"51.521418","street":{"id":960327,"name":"On or near Church Street"},"longitude":"-0.173406"},"context":"","outcome_status":null,"persistent_id":"","id":98971934,"location_subtype":"","month":"2022-01"},{"category":"anti-social-behaviour","location_type":"Force","location":{"latitude":"51.522777","street":{"id":960206,"name":"On or near Petrol Station"},"longitude":"-0.174620"},"context":"","outcome_status":null,"persistent_id":"","id":98971933,"location_subtype":"","month":"2022-01"},{"category":"anti-social-behaviour","location_type":"Force","location":{"latitude":"51.519929","street":{"id":960319,"name":"On or near Marylebone Flyover"},"longitude":"-0.172500"},"context":"","outcome_status":null,"persistent_id":"","id":98971959,"location_subtype":"","month":"2022-01"},{"category":"anti-social-behaviour","location_type":"Force","location":{"latitude":"51.519227","street":{"id":960466,"name":"On or near Cabbell Street"},"longitude":"-0.167858"},"context":"","outcome_status":null,"persistent_id":"","id":98972007,"location_subtype":"","month":"2022-01"},{"category":"anti-social-behaviour","location_type":"Force","location":{"latitude":"51.518296","street":{"id":956795,"name":"On or near Crawford Place"},"longitude":"-0.165791"},"context":"","outcome_status":null,"persistent_id":"","id":98972023,"location_subtype":"","month":"2022-01"},{"category":"anti-social-behaviour","location_type":"Force","location":{"latitude":"51.525183","street":{"id":960391,"name":"On or near Rossmore Road"},"longitude":"-0.164015"},"context":"","outcome_status":null,"persistent_id":"","id":98972039,"location_subtype":"","month":"2022-01"},{"category":"anti-social-behaviour","location_type":"Force","location":{"latitude":"51.537398","street":{"id":965074,"name":"On or near Regal Lane"},"longitude":"-0.148743"},"context":"","outcome_status":null,"persistent_id":"","id":98972272,"location_subtype":"","month":"2022-01"},{"category":"anti-social-behaviour","location_type":"Force","location":{"latitude":"51.515957","street":{"id":957058,"name":"On or near London Street"},"longitude":"-0.174979"},"context":"","outcome_status":null,"persistent_id":"","id":98971932,"location_subtype":"","month":"2022-01"},{"category":"anti-social-behaviour","location_type":"Force","location":{"latitude":"51.521789","street":{"id":960469,"name":"On or near Bendall Mews"},"longitude":"-0.165492"},"context":"","outcome_status":null,"persistent_id":"","id":98979551,"location_subtype":"","month":"2022-01"},{"category":"anti-social-behaviour","location_type":"Force","location":{"latitude":"51.516808","street":{"id":957195,"name":"On or near Sunderland Terrace"},"longitude":"-0.191578"},"context":"","outcome_status":null,"persistent_id":"","id":98971152,"location_subtype":"","month":"2022-01"},{"category":"anti-social-behaviour","location_type":"Force","location":{"latitude":"51.515582","street":{"id":957190,"name":"On or near Westbourne Grove"},"longitude":"-0.190200"},"context":"","outcome_status":null,"persistent_id":"","id":98971168,"location_subtype":"","month":"2022-01"},{"category":"anti-social-behaviour","location_type":"Force","location":{"latitude":"51.518294","street":{"id":957027,"name":"On or near Nightclub"},"longitude":"-0.188824"},"context":"","outcome_status":null,"persistent_id":"","id":98971184,"location_subtype":"","month":"2022-01"},{"category":"anti-social-behaviour","location_type":"Force","location":{"latitude":"51.517199","street":{"id":957081,"name":"On or near Praed Street"},"longitude":"-0.172739"},"context":"","outcome_status":null,"persistent_id":"","id":98971943,"location_subtype":"","month":"2022-01"},{"category":"anti-social-behaviour","location_type":"Force","location":{"latitude":"51.524453","street":{"id":960167,"name":"On or near Lyons Place"},"longitude":"-0.175432"},"context":"","outcome_status":null,"persistent_id":"","id":98971931,"location_subtype":"","month":"2022-01"},{"category":"anti-social-behaviour","location_type":"Force","location":{"latitude":"51.533831","street":{"id":965250,"name":"On or near Wellington Road"},"longitude":"-0.173630"},"context":"","outcome_status":null,"persistent_id":"","id":98971930,"location_subtype":"","month":"2022-01"},{"category":"anti-social-behaviour","location_type":"Force","location":{"latitude":"51.526813","street":{"id":960172,"name":"On or near Henderson Drive"},"longitude":"-0.174545"},"context":"","outcome_status":null,"persistent_id":"","id":98971929,"location_subtype":"","month":"2022-01"},{"category":"anti-social-behaviour","location_type":"Force","location":{"latitude":"51.516700","street":{"id":957054,"name":"On or near Praed Mews"},"longitude":"-0.172989"},"context":"","outcome_status":null,"persistent_id":"","id":98971951,"location_subtype":"","month":"2022-01"},{"category":"anti-social-behaviour","location_type":"Force","location":{"latitude":"51.526813","street":{"id":960172,"name":"On or near Henderson Drive"},"longitude":"-0.174545"},"context":"","outcome_status":null,"persistent_id":"","id":98971928,"location_subtype":"","month":"2022-01"},{"category":"anti-social-behaviour","location_type":"Force","location":{"latitude":"51.526813","street":{"id":960172,"name":"On or near Henderson Drive"},"longitude":"-0.174545"},"context":"","outcome_status":null,"persistent_id":"","id":98971927,"location_subtype":"","month":"2022-01"},{"category":"anti-social-behaviour","location_type":"Force","location":{"latitude":"51.526813","street":{"id":960172,"name":"On or near Henderson Drive"},"longitude":"-0.174545"},"context":"","outcome_status":null,"persistent_id":"","id":98971926,"location_subtype":"","month":"2022-01"},{"category":"anti-social-behaviour","location_type":"Force","location":{"latitude":"51.519264","street":{"id":957083,"name":"On or near Hermitage Street"},"longitude":"-0.176000"},"context":"","outcome_status":null,"persistent_id":"","id":98971924,"location_subtype":"","month":"2022-01"},{"category":"anti-social-behaviour","location_type":"Force","location":{"latitude":"51.526312","street":{"id":960192,"name":"On or near Cunningham Place"},"longitude":"-0.175243"},"context":"","outcome_status":null,"persistent_id":"","id":98971923,"location_subtype":"","month":"2022-01"},{"category":"anti-social-behaviour","location_type":"Force","location":{"latitude":"51.522958","street":{"id":960177,"name":"On or near Hall Place"},"longitude":"-0.175838"},"context":"","outcome_status":null,"persistent_id":"","id":98971922,"location_subtype":"","month":"2022-01"},{"category":"anti-social-behaviour","location_type":"Force","location":{"latitude":"51.521777","street":{"id":960315,"name":"On or near St Mary's Mansions"},"longitude":"-0.177413"},"context":"","outcome_status":null,"persistent_id":"","id":98971921,"location_subtype":"","month":"2022-01"},{"category":"anti-social-behaviour","location_type":"Force","location":{"latitude":"51.519264","street":{"id":957083,"name":"On or near Hermitage Street"},"longitude":"-0.176000"},"context":"","outcome_status":null,"persistent_id":"","id":98971920,"location_subtype":"","month":"2022-01"},{"category":"anti-social-behaviour","location_type":"Force","location":{"latitude":"51.519264","street":{"id":957083,"name":"On or near Hermitage Street"},"longitude":"-0.176000"},"context":"","outcome_status":null,"persistent_id":"","id":98971919,"location_subtype":"","month":"2022-01"},{"category":"anti-social-behaviour","location_type":"Force","location":{"latitude":"51.519264","street":{"id":957083,"name":"On or near Hermitage Street"},"longitude":"-0.176000"},"context":"","outcome_status":null,"persistent_id":"","id":98971918,"location_subtype":"","month":"2022-01"},{"category":"anti-social-behaviour","location_type":"Force","location":{"latitude":"51.519264","street":{"id":957083,"name":"On or near Hermitage Street"},"longitude":"-0.176000"},"context":"","outcome_status":null,"persistent_id":"","id":98971917,"location_subtype":"","month":"2022-01"},{"category":"bicycle-theft","location_type":"Force","location":{"latitude":"51.517496","street":{"id":957019,"name":"On or near Porchester Square"},"longitude":"-0.187227"},"context":"","outcome_status":{"category":"Investigation complete; no suspect identified","date":"2022-01"},"persistent_id":"c115ea27d2a953de85589316709f39eeafc7ade40b5ce3a6020e843f044d441a","id":99008834,"location_subtype":"","month":"2022-01"},{"category":"bicycle-theft","location_type":"Force","location":{"latitude":"51.527473","street":{"id":960240,"name":"On or near Sutherland Avenue"},